% program   : RTKLIB ver.EX 2.5.0
% inp file  : C:\PPP_PROJECT\RTKLIB_work\runs\HKWS_5E_20260508_102907\HKWS00HKG_R_20260150000_01D_30S_MO.rnx
% inp file  : C:\PPP_PROJECT\RTKLIB_work\runs\HKWS_5E_20260508_102907\BRDC00IGS_R_20260150000_01D_MN.rnx
% inp file  : C:\PPP_PROJECT\RTKLIB_work\runs\HKWS_5E_20260508_102907\COD0MGXFIN_20260150000_01D_05M_ORB.SP3
% inp file  : C:\PPP_PROJECT\RTKLIB_work\runs\HKWS_5E_20260508_102907\COD0MGXFIN_20260150000_01D_30S_CLK.CLK
% inp file  : C:\PPP_PROJECT\RTKLIB_work\runs\HKWS_5E_20260508_102907
% inp file  : C:\PPP_PROJECT\RTKLIB_work\runs\HKWS_5E_20260508_102907
% obs start : 2026/01/15 00:00:00.0 GPST (week2401 345600.0s)
% obs end   : 2026/01/15 23:59:30.0 GPST (week2401 431970.0s)
% pos mode  : PPP Static
% freqs     : L1+L2/E5b
% solution  : Forward
% elev mask : 15.0 deg
% dynamics  : on
% tidecorr  :
% ionos opt : Iono-Free LC
% tropo opt : Saastamoinen
% ephemeris : Precise
% navi sys  : GPS Galileo BDS
% antenna1  : LEIAR25.R4      LEIT  ( 0.0000  0.0000  0.0083)
%
% (lat/lon/height=WGS84/ellipsoidal,Q=1:fix,2:float,3:sbas,4:dgps,5:single,6:ppp,ns=# of satellites)
%  GPST                  latitude(deg) longitude(deg)  height(m)   Q  ns   sdn(m)   sde(m)   sdu(m)  sdne(m)  sdeu(m)  sdun(m) age(s)  ratio
2026/01/15 00:00:00.000   22.434276389  114.335383928    63.9946   6   7   2.3065   3.1223   6.6866  -0.6770   1.2544  -1.5041   0.00    0.0
2026/01/15 00:11:00.000   22.434274585  114.335386473    63.8227   6   5   0.4821   0.6538   1.3891  -0.1502   0.2640  -0.3034   0.00    0.0
2026/01/15 00:11:30.000   22.434274531  114.335386311    63.7827   6   5   0.4718   0.6399   1.3577  -0.1469   0.2596  -0.2977   0.00    0.0
2026/01/15 00:12:00.000   22.434274580  114.335386228    63.7611   6   5   0.4620   0.6270   1.3277  -0.1438   0.2554  -0.2922   0.00    0.0
2026/01/15 00:12:30.000   22.434274596  114.335386239    63.7376   6   7   0.4528   0.6147   1.2988  -0.1408   0.2516  -0.2871   0.00    0.0
2026/01/15 00:13:00.000   22.434274626  114.335386252    63.7154   6   7   0.4441   0.6031   1.2708  -0.1380   0.2477  -0.2823   0.00    0.0
2026/01/15 00:13:30.000   22.434274686  114.335386225    63.6866   6   7   0.4358   0.5922   1.2435  -0.1353   0.2440  -0.2777   0.00    0.0
2026/01/15 00:14:00.000   22.434274763  114.335386156    63.6754   6   7   0.4279   0.5818   1.2167  -0.1327   0.2404  -0.2735   0.00    0.0
2026/01/15 00:14:30.000   22.434274775  114.335386080    63.6585   6   7   0.4203   0.5719   1.1903  -0.1303   0.2369  -0.2695   0.00    0.0
2026/01/15 00:15:00.000   22.434274746  114.335385989    63.6361   6   7   0.4131   0.5625   1.1642  -0.1279   0.2334  -0.2658   0.00    0.0
2026/01/15 00:15:30.000   22.434274722  114.335385884    63.6061   6   7   0.4061   0.5535   1.1385  -0.1255   0.2300  -0.2623   0.00    0.0
2026/01/15 00:16:00.000   22.434274737  114.335385790    63.5696   6   7   0.3994   0.5449   1.1129  -0.1232   0.2267  -0.2590   0.00    0.0
2026/01/15 00:16:30.000   22.434274786  114.335385715    63.5193   6   7   0.3930   0.5366   1.0877  -0.1210   0.2234  -0.2559   0.00    0.0
2026/01/15 00:17:00.000   22.434274832  114.335385669    63.4560   6   8   0.3867   0.5287   1.0626  -0.1188   0.2201  -0.2531   0.00    0.0
2026/01/15 00:17:30.000   22.434274903  114.335385589    63.3852   6   8   0.3807   0.5211   1.0378  -0.1167   0.2169  -0.2503   0.00    0.0
2026/01/15 00:18:00.000   22.434275041  114.335385440    63.3106   6   8   0.3748   0.5137   1.0133  -0.1146   0.2137  -0.2478   0.00    0.0
2026/01/15 00:18:30.000   22.434275213  114.335385330    63.2350   6   8   0.3691   0.5066   0.9890  -0.1125   0.2105  -0.2454   0.00    0.0
2026/01/15 00:19:00.000   22.434275339  114.335385318    63.1745   6   8   0.3636   0.4997   0.9651  -0.1104   0.2074  -0.2430   0.00    0.0
2026/01/15 00:19:30.000   22.434275412  114.335385298    63.1392   6   8   0.3582   0.4930   0.9415  -0.1084   0.2043  -0.2408   0.00    0.0
2026/01/15 00:20:00.000   22.434275459  114.335385252    63.1179   6   8   0.3530   0.4865   0.9183  -0.1064   0.2013  -0.2387   0.00    0.0
2026/01/15 00:20:30.000   22.434275490  114.335385237    63.1129   6   8   0.3478   0.4802   0.8955  -0.1043   0.1982  -0.2367   0.00    0.0
2026/01/15 00:21:00.000   22.434275520  114.335385229    63.1129   6   8   0.3428   0.4741   0.8731  -0.1023   0.1953  -0.2347   0.00    0.0
2026/01/15 00:21:30.000   22.434275524  114.335385232    63.1129   6   8   0.3379   0.4681   0.8512  -0.1003   0.1923  -0.2328   0.00    0.0
2026/01/15 00:22:00.000   22.434275499  114.335385213    63.1183   6   8   0.3332   0.4622   0.8297  -0.0983   0.1894  -0.2309   0.00    0.0
2026/01/15 00:22:30.000   22.434275488  114.335385158    63.1232   6   8   0.3285   0.4565   0.8088  -0.0963   0.1865  -0.2290   0.00    0.0
2026/01/15 00:23:00.000   22.434275503  114.335385069    63.1361   6   8   0.3239   0.4510   0.7883  -0.0943   0.1837  -0.2272   0.00    0.0
2026/01/15 00:23:30.000   22.434275513  114.335385016    63.1572   6   8   0.3194   0.4455   0.7684  -0.0923   0.1808  -0.2254   0.00    0.0
2026/01/15 00:24:00.000   22.434275517  114.335384971    63.1743   6   8   0.3149   0.4398   0.7484  -0.0895   0.1767  -0.2230   0.00    0.0
2026/01/15 00:24:30.000   22.434275531  114.335384908    63.1997   6   7   0.3109   0.4346   0.7341  -0.0874   0.1731  -0.2217   0.00    0.0
2026/01/15 00:25:00.000   22.434275550  114.335384830    63.2227   6   7   0.3069   0.4294   0.7200  -0.0852   0.1698  -0.2205   0.00    0.0
2026/01/15 00:25:30.000   22.434275556  114.335384789    63.2368   6   8   0.3027   0.4240   0.7053  -0.0818   0.1663  -0.2193   0.00    0.0
2026/01/15 00:26:00.000   22.434275598  114.335384762    63.2438   6   8   0.2985   0.4188   0.6909  -0.0784   0.1630  -0.2182   0.00    0.0
2026/01/15 00:26:30.000   22.434275656  114.335384703    63.2438   6   8   0.2945   0.4136   0.6768  -0.0751   0.1598  -0.2170   0.00    0.0
2026/01/15 00:27:00.000   22.434275759  114.335384593    63.2412   6   8   0.2905   0.4085   0.6631  -0.0719   0.1569  -0.2158   0.00    0.0
2026/01/15 00:27:30.000   22.434275877  114.335384438    63.2380   6   8   0.2866   0.4035   0.6496  -0.0687   0.1540  -0.2145   0.00    0.0
2026/01/15 00:28:00.000   22.434276019  114.335384259    63.2294   6   8   0.2827   0.3986   0.6365  -0.0655   0.1514  -0.2132   0.00    0.0
2026/01/15 00:28:30.000   22.434276164  114.335384117    63.2166   6   8   0.2790   0.3938   0.6236  -0.0624   0.1489  -0.2119   0.00    0.0
2026/01/15 00:29:00.000   22.434276348  114.335384005    63.2048   6   8   0.2752   0.3891   0.6111  -0.0594   0.1465  -0.2105   0.00    0.0
2026/01/15 00:29:30.000   22.434276532  114.335383916    63.1893   6   8   0.2716   0.3844   0.5988  -0.0564   0.1442  -0.2091   0.00    0.0
2026/01/15 00:30:00.000   22.434276692  114.335383844    63.1755   6   8   0.2680   0.3798   0.5869  -0.0534   0.1421  -0.2076   0.00    0.0
2026/01/15 00:30:30.000   22.434276837  114.335383768    63.1611   6   8   0.2644   0.3753   0.5752  -0.0505   0.1401  -0.2061   0.00    0.0
2026/01/15 00:31:00.000   22.434276981  114.335383672    63.1505   6   8   0.2610   0.3709   0.5639  -0.0482   0.1378  -0.2044   0.00    0.0
2026/01/15 00:31:30.000   22.434277126  114.335383578    63.1422   6   8   0.2577   0.3665   0.5529  -0.0459   0.1358  -0.2026   0.00    0.0
2026/01/15 00:32:00.000   22.434277259  114.335383478    63.1312   6   8   0.2544   0.3622   0.5421  -0.0437   0.1338  -0.2008   0.00    0.0
2026/01/15 00:32:30.000   22.434277388  114.335383375    63.1210   6   8   0.2511   0.3580   0.5316  -0.0416   0.1320  -0.1990   0.00    0.0
2026/01/15 00:33:00.000   22.434277494  114.335383297    63.1148   6   8   0.2479   0.3538   0.5213  -0.0394   0.1303  -0.1972   0.00    0.0
2026/01/15 00:33:30.000   22.434277593  114.335383278    63.1137   6   8   0.2447   0.3496   0.5113  -0.0373   0.1286  -0.1953   0.00    0.0
2026/01/15 00:34:00.000   22.434277681  114.335383290    63.1168   6   8   0.2416   0.3455   0.5015  -0.0352   0.1271  -0.1935   0.00    0.0
2026/01/15 00:34:30.000   22.434277746  114.335383346    63.1231   6   8   0.2385   0.3415   0.4919  -0.0332   0.1256  -0.1916   0.00    0.0
2026/01/15 00:35:00.000   22.434277775  114.335383467    63.1310   6  12   0.2353   0.3374   0.4826  -0.0306   0.1244  -0.1898   0.00    0.0
2026/01/15 00:35:30.000   22.434277812  114.335383563    63.1438   6   8   0.2323   0.3334   0.4735  -0.0286   0.1230  -0.1879   0.00    0.0
2026/01/15 00:36:00.000   22.434277855  114.335383628    63.1480   6   8   0.2293   0.3295   0.4690  -0.0267   0.1233  -0.1861   0.00    0.0
2026/01/15 00:36:30.000   22.434277902  114.335383671    63.1520   6   8   0.2263   0.3257   0.4646  -0.0248   0.1237  -0.1842   0.00    0.0
2026/01/15 00:37:00.000   22.434277958  114.335383709    63.1530   6   8   0.2234   0.3219   0.4601  -0.0230   0.1240  -0.1824   0.00    0.0
2026/01/15 00:37:30.000   22.434278033  114.335383760    63.1516   6   8   0.2205   0.3182   0.4557  -0.0212   0.1242  -0.1805   0.00    0.0
2026/01/15 00:38:00.000   22.434278130  114.335383790    63.1468   6   8   0.2177   0.3145   0.4512  -0.0195   0.1245  -0.1787   0.00    0.0
2026/01/15 00:38:30.000   22.434278245  114.335383803    63.1401   6   8   0.2148   0.3108   0.4468  -0.0178   0.1248  -0.1770   0.00    0.0
2026/01/15 00:39:00.000   22.434278372  114.335383783    63.1326   6   8   0.2120   0.3072   0.4423  -0.0162   0.1250  -0.1752   0.00    0.0
2026/01/15 00:39:30.000   22.434278498  114.335383757    63.1232   6   8   0.2093   0.3036   0.4379  -0.0146   0.1252  -0.1734   0.00    0.0
2026/01/15 00:40:00.000   22.434278613  114.335383732    63.1124   6   8   0.2066   0.3001   0.4335  -0.0131   0.1254  -0.1717   0.00    0.0
2026/01/15 00:40:30.000   22.434278676  114.335383745    63.0981   6  14   0.2038   0.2965   0.4290  -0.0098   0.1256  -0.1699   0.00    0.0
2026/01/15 00:41:00.000   22.434278709  114.335383769    63.0871   6  13   0.2010   0.2930   0.4246  -0.0063   0.1257  -0.1682   0.00    0.0
2026/01/15 00:41:30.000   22.434278715  114.335383797    63.0821   6  14   0.1984   0.2895   0.4202   0.0028   0.1258  -0.1665   0.00    0.0
2026/01/15 00:42:00.000   22.434278698  114.335383808    63.0814   6  14   0.1957   0.2861   0.4158   0.0069   0.1259  -0.1649   0.00    0.0
2026/01/15 00:42:30.000   22.434278676  114.335383834    63.0849   6  14   0.1931   0.2827   0.4115   0.0090   0.1259  -0.1632   0.00    0.0
2026/01/15 00:43:00.000   22.434278655  114.335383867    63.0900   6  14   0.1906   0.2794   0.4071   0.0105   0.1259  -0.1615   0.00    0.0
2026/01/15 00:43:30.000   22.434278661  114.335383882    63.0991   6   8   0.1881   0.2762   0.4029   0.0106   0.1258  -0.1599   0.00    0.0
2026/01/15 00:44:00.000   22.434278650  114.335383915    63.1059   6  14   0.1856   0.2729   0.3985   0.0116   0.1256  -0.1582   0.00    0.0
2026/01/15 00:44:30.000   22.434278663  114.335383940    63.1119   6  14   0.1831   0.2697   0.3942   0.0124   0.1254  -0.1565   0.00    0.0
2026/01/15 00:45:00.000   22.434278687  114.335383975    63.1146   6  14   0.1807   0.2665   0.3898   0.0129   0.1251  -0.1548   0.00    0.0
2026/01/15 00:45:30.000   22.434278717  114.335384006    63.1144   6  14   0.1783   0.2633   0.3855   0.0134   0.1248  -0.1532   0.00    0.0
2026/01/15 00:46:00.000   22.434278756  114.335384019    63.1147   6  14   0.1759   0.2602   0.3812   0.0137   0.1244  -0.1515   0.00    0.0
2026/01/15 00:46:30.000   22.434278811  114.335384033    63.1139   6  14   0.1736   0.2571   0.3769   0.0140   0.1240  -0.1499   0.00    0.0
2026/01/15 00:47:00.000   22.434278845  114.335384038    63.1041   6   7   0.1729   0.2561   0.3757   0.0148   0.1231  -0.1490   0.00    0.0
2026/01/15 00:47:30.000   22.434278891  114.335384047    63.0954   6   7   0.1723   0.2550   0.3745   0.0157   0.1221  -0.1481   0.00    0.0
2026/01/15 00:48:00.000   22.434278939  114.335384054    63.0887   6   7   0.1716   0.2540   0.3732   0.0165   0.1211  -0.1472   0.00    0.0
2026/01/15 00:48:30.000   22.434278969  114.335384064    63.0826   6   7   0.1710   0.2530   0.3720   0.0172   0.1202  -0.1463   0.00    0.0
2026/01/15 00:49:00.000   22.434278977  114.335384077    63.0783   6   7   0.1703   0.2520   0.3707   0.0180   0.1192  -0.1454   0.00    0.0
2026/01/15 00:49:30.000   22.434278987  114.335384089    63.0754   6   7   0.1697   0.2510   0.3694   0.0188   0.1183  -0.1445   0.00    0.0
2026/01/15 00:50:00.000   22.434279001  114.335384109    63.0705   6   7   0.1690   0.2500   0.3682   0.0197   0.1174  -0.1435   0.00    0.0
2026/01/15 00:50:30.000   22.434279025  114.335384129    63.0657   6   7   0.1684   0.2491   0.3669   0.0205   0.1164  -0.1425   0.00    0.0
2026/01/15 00:51:00.000   22.434279047  114.335384146    63.0625   6   7   0.1677   0.2481   0.3655   0.0213   0.1155  -0.1415   0.00    0.0
2026/01/15 00:51:30.000   22.434279059  114.335384166    63.0600   6   7   0.1671   0.2472   0.3641   0.0221   0.1146  -0.1404   0.00    0.0
2026/01/15 00:52:00.000   22.434279058  114.335384188    63.0562   6   7   0.1664   0.2462   0.3627   0.0229   0.1136  -0.1394   0.00    0.0
2026/01/15 00:52:30.000   22.434279062  114.335384208    63.0509   6   7   0.1657   0.2453   0.3613   0.0237   0.1126  -0.1383   0.00    0.0
2026/01/15 00:53:00.000   22.434279065  114.335384231    63.0451   6   7   0.1650   0.2443   0.3598   0.0244   0.1117  -0.1373   0.00    0.0
2026/01/15 00:53:30.000   22.434279063  114.335384256    63.0395   6   7   0.1643   0.2434   0.3583   0.0252   0.1107  -0.1362   0.00    0.0
2026/01/15 00:54:00.000   22.434279065  114.335384263    63.0352   6   7   0.1637   0.2425   0.3567   0.0260   0.1097  -0.1351   0.00    0.0
2026/01/15 00:54:30.000   22.434279086  114.335384239    63.0316   6   7   0.1630   0.2416   0.3551   0.0265   0.1087  -0.1339   0.00    0.0
2026/01/15 00:55:00.000   22.434279111  114.335384223    63.0290   6   7   0.1623   0.2407   0.3535   0.0271   0.1076  -0.1328   0.00    0.0
2026/01/15 00:55:30.000   22.434279143  114.335384202    63.0261   6   7   0.1616   0.2398   0.3519   0.0277   0.1066  -0.1316   0.00    0.0
2026/01/15 00:56:00.000   22.434279183  114.335384168    63.0218   6   7   0.1610   0.2389   0.3502   0.0283   0.1055  -0.1304   0.00    0.0
2026/01/15 00:56:30.000   22.434279229  114.335384129    63.0167   6   7   0.1603   0.2381   0.3484   0.0289   0.1044  -0.1291   0.00    0.0
2026/01/15 00:57:00.000   22.434279281  114.335384095    63.0110   6  10   0.1596   0.2372   0.3466   0.0295   0.1034  -0.1279   0.00    0.0
2026/01/15 00:57:30.000   22.434279332  114.335384071    63.0055   6   7   0.1589   0.2363   0.3448   0.0301   0.1023  -0.1267   0.00    0.0
2026/01/15 00:58:00.000   22.434279386  114.335384055    63.0007   6   7   0.1582   0.2354   0.3430   0.0307   0.1011  -0.1254   0.00    0.0
2026/01/15 00:58:30.000   22.434279427  114.335384027    62.9966   6   7   0.1574   0.2346   0.3411   0.0313   0.1000  -0.1241   0.00    0.0
2026/01/15 00:59:00.000   22.434279459  114.335384002    62.9932   6   7   0.1567   0.2337   0.3391   0.0319   0.0989  -0.1228   0.00    0.0
2026/01/15 00:59:30.000   22.434279474  114.335383989    62.9909   6   7   0.1560   0.2329   0.3372   0.0325   0.0977  -0.1215   0.00    0.0
2026/01/15 01:00:00.000   22.434279484  114.335383972    62.9894   6   7   0.1553   0.2320   0.3352   0.0331   0.0966  -0.1202   0.00    0.0
2026/01/15 01:00:30.000   22.434279496  114.335383951    62.9876   6   7   0.1545   0.2312   0.3331   0.0337   0.0954  -0.1188   0.00    0.0
2026/01/15 01:01:00.000   22.434279516  114.335383946    62.9860   6   7   0.1538   0.2304   0.3311   0.0343   0.0943  -0.1175   0.00    0.0
2026/01/15 01:01:30.000   22.434279549  114.335383961    62.9843   6   7   0.1530   0.2295   0.3290   0.0349   0.0931  -0.1161   0.00    0.0
2026/01/15 01:02:00.000   22.434279568  114.335383992    62.9815   6   8   0.1522   0.2287   0.3268   0.0356   0.0919  -0.1148   0.00    0.0
2026/01/15 01:02:30.000   22.434279581  114.335384015    62.9786   6   7   0.1515   0.2278   0.3247   0.0362   0.0908  -0.1134   0.00    0.0
2026/01/15 01:03:00.000   22.434279591  114.335384037    62.9769   6   8   0.1507   0.2270   0.3225   0.0369   0.0896  -0.1121   0.00    0.0
2026/01/15 01:03:30.000   22.434279595  114.335384058    62.9766   6   7   0.1499   0.2262   0.3202   0.0375   0.0884  -0.1107   0.00    0.0
2026/01/15 01:04:00.000   22.434279594  114.335384073    62.9762   6   7   0.1491   0.2254   0.3180   0.0381   0.0872  -0.1093   0.00    0.0
2026/01/15 01:04:30.000   22.434279588  114.335384088    62.9771   6   7   0.1483   0.2245   0.3157   0.0388   0.0860  -0.1079   0.00    0.0
2026/01/15 01:05:00.000   22.434279568  114.335384115    62.9800   6   7   0.1475   0.2237   0.3134   0.0393   0.0848  -0.1065   0.00    0.0
2026/01/15 01:05:30.000   22.434279522  114.335384158    62.9844   6   7   0.1466   0.2229   0.3111   0.0399   0.0836  -0.1051   0.00    0.0
2026/01/15 01:06:00.000   22.434279471  114.335384199    62.9888   6   7   0.1458   0.2221   0.3087   0.0405   0.0824  -0.1037   0.00    0.0
2026/01/15 01:06:30.000   22.434279423  114.335384233    62.9937   6   7   0.1450   0.2213   0.3064   0.0411   0.0812  -0.1023   0.00    0.0
2026/01/15 01:07:00.000   22.434279380  114.335384256    63.0004   6   7   0.1442   0.2205   0.3040   0.0416   0.0800  -0.1009   0.00    0.0
2026/01/15 01:07:30.000   22.434279353  114.335384273    63.0014   6   5   0.1435   0.2198   0.3028   0.0420   0.0792  -0.1001   0.00    0.0
2026/01/15 01:09:00.000   22.434279301  114.335384318    62.9892   6   4   0.1425   0.2180   0.3018   0.0414   0.0783  -0.0991   0.00    0.0
2026/01/15 01:10:00.000   22.434279288  114.335384299    62.9739   6   4   0.1419   0.2168   0.3011   0.0410   0.0777  -0.0984   0.00    0.0
2026/01/15 01:13:30.000   22.434279339  114.335384251    62.9448   6   6   0.1389   0.2126   0.2949   0.0410   0.0741  -0.0941   0.00    0.0
2026/01/15 01:14:00.000   22.434279334  114.335384261    62.9599   6   6   0.1376   0.2118   0.2907   0.0419   0.0721  -0.0919   0.00    0.0
2026/01/15 01:14:30.000   22.434279324  114.335384278    62.9738   6   6   0.1365   0.2110   0.2866   0.0427   0.0701  -0.0897   0.00    0.0
2026/01/15 01:15:00.000   22.434279308  114.335384300    62.9861   6   6   0.1353   0.2102   0.2827   0.0435   0.0682  -0.0876   0.00    0.0
2026/01/15 01:15:30.000   22.434279296  114.335384311    62.9982   6   6   0.1342   0.2094   0.2789   0.0442   0.0664  -0.0856   0.00    0.0
2026/01/15 01:16:00.000   22.434279282  114.335384318    63.0103   6   6   0.1330   0.2086   0.2752   0.0448   0.0646  -0.0836   0.00    0.0
2026/01/15 01:16:30.000   22.434279266  114.335384316    63.0218   6   6   0.1319   0.2078   0.2715   0.0454   0.0628  -0.0817   0.00    0.0
2026/01/15 01:17:00.000   22.434279248  114.335384321    63.0322   6   6   0.1309   0.2071   0.2680   0.0460   0.0611  -0.0799   0.00    0.0
2026/01/15 01:17:30.000   22.434279229  114.335384320    63.0421   6   7   0.1298   0.2063   0.2645   0.0465   0.0595  -0.0781   0.00    0.0
2026/01/15 01:18:00.000   22.434279212  114.335384305    63.0534   6   7   0.1287   0.2055   0.2612   0.0470   0.0579  -0.0764   0.00    0.0
2026/01/15 01:18:30.000   22.434279195  114.335384291    63.0629   6   6   0.1277   0.2047   0.2579   0.0475   0.0564  -0.0747   0.00    0.0
2026/01/15 01:19:00.000   22.434279183  114.335384278    63.0719   6   6   0.1267   0.2040   0.2547   0.0479   0.0549  -0.0730   0.00    0.0
2026/01/15 01:19:30.000   22.434279170  114.335384260    63.0812   6   6   0.1257   0.2032   0.2515   0.0483   0.0535  -0.0715   0.00    0.0
2026/01/15 01:20:00.000   22.434279160  114.335384236    63.0897   6   6   0.1247   0.2025   0.2484   0.0487   0.0521  -0.0699   0.00    0.0
2026/01/15 01:20:30.000   22.434279150  114.335384208    63.0981   6   6   0.1237   0.2017   0.2454   0.0490   0.0507  -0.0684   0.00    0.0
2026/01/15 01:21:00.000   22.434279142  114.335384176    63.1065   6   6   0.1227   0.2010   0.2425   0.0493   0.0494  -0.0669   0.00    0.0
2026/01/15 01:21:30.000   22.434279134  114.335384140    63.1138   6   6   0.1217   0.2003   0.2396   0.0497   0.0480  -0.0655   0.00    0.0
2026/01/15 01:22:00.000   22.434279125  114.335384114    63.1217   6   6   0.1208   0.1996   0.2368   0.0500   0.0466  -0.0641   0.00    0.0
2026/01/15 01:22:30.000   22.434279117  114.335384094    63.1295   6   6   0.1198   0.1989   0.2340   0.0502   0.0452  -0.0628   0.00    0.0
2026/01/15 01:23:00.000   22.434279109  114.335384074    63.1377   6   6   0.1189   0.1982   0.2313   0.0505   0.0439  -0.0615   0.00    0.0
2026/01/15 01:23:30.000   22.434279106  114.335384046    63.1456   6   8   0.1180   0.1975   0.2286   0.0507   0.0426  -0.0602   0.00    0.0
2026/01/15 01:24:00.000   22.434279110  114.335384023    63.1538   6  10   0.1171   0.1968   0.2260   0.0509   0.0413  -0.0590   0.00    0.0
2026/01/15 01:24:30.000   22.434279117  114.335383996    63.1625   6  10   0.1162   0.1961   0.2234   0.0511   0.0401  -0.0578   0.00    0.0
2026/01/15 01:25:00.000   22.434279118  114.335383954    63.1712   6  10   0.1153   0.1955   0.2209   0.0513   0.0388  -0.0566   0.00    0.0
2026/01/15 01:25:30.000   22.434279128  114.335383893    63.1695   6   4   0.1151   0.1950   0.2208   0.0512   0.0388  -0.0565   0.00    0.0
2026/01/15 01:26:00.000   22.434279136  114.335383844    63.1674   6   5   0.1150   0.1946   0.2207   0.0510   0.0388  -0.0565   0.00    0.0
2026/01/15 01:26:30.000   22.434279142  114.335383805    63.1650   6   5   0.1148   0.1941   0.2206   0.0508   0.0388  -0.0564   0.00    0.0
2026/01/15 01:27:00.000   22.434279146  114.335383785    63.1627   6   5   0.1146   0.1937   0.2205   0.0507   0.0388  -0.0564   0.00    0.0
2026/01/15 01:27:30.000   22.434279152  114.335383767    63.1605   6   5   0.1145   0.1932   0.2204   0.0505   0.0388  -0.0563   0.00    0.0
2026/01/15 01:28:00.000   22.434279156  114.335383748    63.1582   6   5   0.1143   0.1928   0.2202   0.0504   0.0387  -0.0563   0.00    0.0
2026/01/15 01:28:30.000   22.434279163  114.335383736    63.1564   6   5   0.1141   0.1924   0.2201   0.0502   0.0387  -0.0562   0.00    0.0
2026/01/15 01:29:00.000   22.434279170  114.335383725    63.1545   6   5   0.1139   0.1920   0.2200   0.0500   0.0387  -0.0562   0.00    0.0
2026/01/15 01:29:30.000   22.434279177  114.335383711    63.1525   6   5   0.1138   0.1915   0.2199   0.0499   0.0387  -0.0562   0.00    0.0
2026/01/15 01:30:00.000   22.434279189  114.335383703    63.1501   6   6   0.1136   0.1911   0.2198   0.0497   0.0387  -0.0562   0.00    0.0
2026/01/15 01:30:30.000   22.434279203  114.335383698    63.1477   6   6   0.1134   0.1907   0.2197   0.0495   0.0386  -0.0561   0.00    0.0
2026/01/15 01:31:00.000   22.434279220  114.335383700    63.1459   6   6   0.1132   0.1902   0.2195   0.0494   0.0386  -0.0561   0.00    0.0
2026/01/15 01:31:30.000   22.434279233  114.335383700    63.1442   6   6   0.1131   0.1898   0.2194   0.0492   0.0386  -0.0561   0.00    0.0
2026/01/15 01:32:00.000   22.434279240  114.335383693    63.1421   6   6   0.1129   0.1894   0.2193   0.0490   0.0386  -0.0561   0.00    0.0
2026/01/15 01:32:30.000   22.434279241  114.335383676    63.1397   6   5   0.1127   0.1890   0.2192   0.0488   0.0385  -0.0561   0.00    0.0
2026/01/15 01:33:00.000   22.434279244  114.335383658    63.1372   6   5   0.1125   0.1886   0.2190   0.0487   0.0385  -0.0561   0.00    0.0
2026/01/15 01:33:30.000   22.434279245  114.335383636    63.1351   6   5   0.1124   0.1881   0.2189   0.0485   0.0384  -0.0562   0.00    0.0
2026/01/15 01:34:00.000   22.434279247  114.335383615    63.1333   6   5   0.1122   0.1877   0.2187   0.0483   0.0384  -0.0562   0.00    0.0
2026/01/15 01:34:30.000   22.434279249  114.335383596    63.1328   6   4   0.1121   0.1877   0.2187   0.0482   0.0384  -0.0562   0.00    0.0
2026/01/15 01:35:00.000   22.434279250  114.335383575    63.1327   6   4   0.1121   0.1876   0.2186   0.0482   0.0384  -0.0563   0.00    0.0
2026/01/15 01:35:30.000   22.434279249  114.335383552    63.1327   6   4   0.1120   0.1876   0.2186   0.0481   0.0384  -0.0564   0.00    0.0
2026/01/15 01:36:00.000   22.434279252  114.335383550    63.1316   6   5   0.1118   0.1872   0.2184   0.0480   0.0383  -0.0564   0.00    0.0
2026/01/15 01:36:30.000   22.434279254  114.335383557    63.1298   6   5   0.1116   0.1868   0.2183   0.0478   0.0383  -0.0565   0.00    0.0
2026/01/15 01:37:00.000   22.434279256  114.335383564    63.1277   6   9   0.1115   0.1863   0.2181   0.0476   0.0381  -0.0565   0.00    0.0
2026/01/15 01:37:30.000   22.434279260  114.335383573    63.1250   6   9   0.1113   0.1859   0.2179   0.0474   0.0380  -0.0566   0.00    0.0
2026/01/15 01:38:00.000   22.434279263  114.335383579    63.1224   6   8   0.1111   0.1855   0.2178   0.0472   0.0379  -0.0567   0.00    0.0
2026/01/15 01:38:30.000   22.434279274  114.335383586    63.1199   6   9   0.1109   0.1851   0.2176   0.0470   0.0377  -0.0567   0.00    0.0
2026/01/15 01:39:00.000   22.434279286  114.335383585    63.1173   6  10   0.1107   0.1847   0.2174   0.0468   0.0376  -0.0568   0.00    0.0
2026/01/15 01:39:30.000   22.434279297  114.335383565    63.1155   6   5   0.1105   0.1843   0.2172   0.0466   0.0374  -0.0569   0.00    0.0
2026/01/15 01:40:00.000   22.434279312  114.335383541    63.1142   6   6   0.1103   0.1839   0.2170   0.0464   0.0373  -0.0570   0.00    0.0
2026/01/15 01:40:30.000   22.434279323  114.335383510    63.1128   6   6   0.1101   0.1834   0.2168   0.0462   0.0371  -0.0571   0.00    0.0
2026/01/15 01:41:00.000   22.434279334  114.335383487    63.1112   6   6   0.1099   0.1830   0.2166   0.0461   0.0369  -0.0573   0.00    0.0
2026/01/15 01:41:30.000   22.434279345  114.335383481    63.1100   6   5   0.1097   0.1826   0.2164   0.0458   0.0367  -0.0574   0.00    0.0
2026/01/15 01:42:00.000   22.434279355  114.335383484    63.1087   6   6   0.1095   0.1822   0.2162   0.0456   0.0366  -0.0575   0.00    0.0
2026/01/15 01:42:30.000   22.434279366  114.335383492    63.1071   6   5   0.1093   0.1818   0.2160   0.0454   0.0364  -0.0577   0.00    0.0
2026/01/15 01:43:00.000   22.434279380  114.335383503    63.1061   6  10   0.1091   0.1814   0.2157   0.0452   0.0361  -0.0578   0.00    0.0
2026/01/15 01:43:30.000   22.434279395  114.335383513    63.1054   6   5   0.1089   0.1810   0.2155   0.0450   0.0359  -0.0580   0.00    0.0
2026/01/15 01:44:00.000   22.434279415  114.335383526    63.1039   6   6   0.1088   0.1806   0.2153   0.0449   0.0359  -0.0579   0.00    0.0
2026/01/15 01:44:30.000   22.434279439  114.335383533    63.1022   6   6   0.1086   0.1803   0.2151   0.0448   0.0360  -0.0578   0.00    0.0
2026/01/15 01:45:00.000   22.434279465  114.335383535    63.1005   6   6   0.1084   0.1799   0.2150   0.0447   0.0360  -0.0577   0.00    0.0
2026/01/15 01:45:30.000   22.434279489  114.335383528    63.0988   6   6   0.1083   0.1795   0.2148   0.0446   0.0360  -0.0576   0.00    0.0
2026/01/15 01:46:00.000   22.434279511  114.335383513    63.0971   6   7   0.1081   0.1791   0.2146   0.0445   0.0360  -0.0575   0.00    0.0
2026/01/15 01:46:30.000   22.434279530  114.335383489    63.0959   6   7   0.1080   0.1787   0.2145   0.0444   0.0359  -0.0574   0.00    0.0
2026/01/15 01:47:00.000   22.434279547  114.335383459    63.0951   6   7   0.1078   0.1784   0.2143   0.0443   0.0359  -0.0573   0.00    0.0
2026/01/15 01:47:30.000   22.434279564  114.335383429    63.0939   6   7   0.1076   0.1780   0.2141   0.0442   0.0359  -0.0572   0.00    0.0
2026/01/15 01:48:00.000   22.434279578  114.335383397    63.0922   6   7   0.1075   0.1776   0.2139   0.0441   0.0358  -0.0571   0.00    0.0
2026/01/15 01:48:30.000   22.434279600  114.335383372    63.0906   6   7   0.1073   0.1773   0.2137   0.0440   0.0358  -0.0570   0.00    0.0
2026/01/15 01:49:00.000   22.434279616  114.335383351    63.0890   6   7   0.1071   0.1769   0.2135   0.0439   0.0358  -0.0569   0.00    0.0
2026/01/15 01:49:30.000   22.434279637  114.335383344    63.0880   6   7   0.1070   0.1765   0.2133   0.0438   0.0357  -0.0568   0.00    0.0
2026/01/15 01:50:00.000   22.434279657  114.335383339    63.0869   6   7   0.1068   0.1761   0.2131   0.0437   0.0357  -0.0567   0.00    0.0
2026/01/15 01:50:30.000   22.434279670  114.335383332    63.0853   6   7   0.1067   0.1758   0.2129   0.0436   0.0356  -0.0566   0.00    0.0
2026/01/15 01:51:00.000   22.434279681  114.335383333    63.0839   6   7   0.1065   0.1754   0.2126   0.0435   0.0356  -0.0565   0.00    0.0
2026/01/15 01:51:30.000   22.434279689  114.335383341    63.0832   6   7   0.1063   0.1750   0.2124   0.0434   0.0355  -0.0564   0.00    0.0
2026/01/15 01:52:00.000   22.434279692  114.335383350    63.0828   6   7   0.1061   0.1747   0.2121   0.0433   0.0355  -0.0562   0.00    0.0
2026/01/15 01:52:30.000   22.434279693  114.335383349    63.0823   6   7   0.1060   0.1743   0.2119   0.0432   0.0354  -0.0561   0.00    0.0
2026/01/15 01:53:00.000   22.434279693  114.335383342    63.0823   6   7   0.1058   0.1740   0.2116   0.0431   0.0354  -0.0560   0.00    0.0
2026/01/15 01:53:30.000   22.434279694  114.335383328    63.0825   6   7   0.1056   0.1736   0.2113   0.0430   0.0353  -0.0558   0.00    0.0
2026/01/15 01:54:00.000   22.434279695  114.335383307    63.0826   6  10   0.1054   0.1732   0.2110   0.0429   0.0353  -0.0557   0.00    0.0
2026/01/15 01:54:30.000   22.434279687  114.335383279    63.0821   6   7   0.1052   0.1729   0.2107   0.0428   0.0352  -0.0555   0.00    0.0
2026/01/15 01:55:00.000   22.434279679  114.335383257    63.0811   6   7   0.1050   0.1725   0.2103   0.0426   0.0352  -0.0554   0.00    0.0
2026/01/15 01:55:30.000   22.434279684  114.335383243    63.0799   6   7   0.1048   0.1722   0.2100   0.0425   0.0351  -0.0552   0.00    0.0
2026/01/15 01:56:00.000   22.434279690  114.335383220    63.0792   6   6   0.1046   0.1718   0.2097   0.0424   0.0349  -0.0551   0.00    0.0
2026/01/15 01:56:30.000   22.434279700  114.335383192    63.0785   6   6   0.1044   0.1715   0.2095   0.0423   0.0348  -0.0550   0.00    0.0
2026/01/15 01:57:00.000   22.434279714  114.335383165    63.0780   6   6   0.1042   0.1711   0.2092   0.0423   0.0346  -0.0549   0.00    0.0
2026/01/15 01:58:30.000   22.434279709  114.335383053    63.0737   6   6   0.1038   0.1702   0.2087   0.0421   0.0343  -0.0547   0.00    0.0
2026/01/15 01:59:00.000   22.434279697  114.335383014    63.0739   6   6   0.1035   0.1699   0.2084   0.0420   0.0341  -0.0545   0.00    0.0
2026/01/15 01:59:30.000   22.434279683  114.335382977    63.0747   6   6   0.1033   0.1696   0.2080   0.0419   0.0340  -0.0543   0.00    0.0
2026/01/15 02:00:00.000   22.434279663  114.335382941    63.0757   6   6   0.1031   0.1692   0.2077   0.0419   0.0338  -0.0542   0.00    0.0
2026/01/15 02:00:30.000   22.434279642  114.335382906    63.0766   6   6   0.1029   0.1689   0.2073   0.0417   0.0335  -0.0540   0.00    0.0
2026/01/15 02:01:00.000   22.434279620  114.335382876    63.0778   6   6   0.1026   0.1685   0.2069   0.0416   0.0333  -0.0538   0.00    0.0
2026/01/15 02:01:30.000   22.434279602  114.335382845    63.0792   6   6   0.1024   0.1682   0.2065   0.0415   0.0331  -0.0537   0.00    0.0
2026/01/15 02:02:00.000   22.434279591  114.335382827    63.0806   6   6   0.1021   0.1679   0.2061   0.0413   0.0328  -0.0535   0.00    0.0
2026/01/15 02:02:30.000   22.434279578  114.335382808    63.0822   6   6   0.1019   0.1675   0.2057   0.0412   0.0326  -0.0533   0.00    0.0
2026/01/15 02:03:00.000   22.434279568  114.335382790    63.0837   6   6   0.1016   0.1672   0.2053   0.0410   0.0323  -0.0531   0.00    0.0
2026/01/15 02:03:30.000   22.434279560  114.335382770    63.0851   6   6   0.1014   0.1668   0.2048   0.0409   0.0321  -0.0529   0.00    0.0
2026/01/15 02:04:00.000   22.434279553  114.335382755    63.0866   6   6   0.1011   0.1665   0.2044   0.0408   0.0318  -0.0527   0.00    0.0
2026/01/15 02:04:30.000   22.434279553  114.335382744    63.0884   6   6   0.1008   0.1662   0.2039   0.0406   0.0316  -0.0525   0.00    0.0
2026/01/15 02:05:00.000   22.434279554  114.335382738    63.0905   6   6   0.1006   0.1658   0.2034   0.0405   0.0313  -0.0522   0.00    0.0
2026/01/15 02:05:30.000   22.434279556  114.335382726    63.0922   6   6   0.1003   0.1655   0.2029   0.0403   0.0310  -0.0520   0.00    0.0
2026/01/15 02:06:00.000   22.434279561  114.335382714    63.0941   6   6   0.1000   0.1651   0.2024   0.0401   0.0307  -0.0518   0.00    0.0
2026/01/15 02:06:30.000   22.434279563  114.335382690    63.0954   6   6   0.0997   0.1648   0.2019   0.0400   0.0305  -0.0515   0.00    0.0
2026/01/15 02:07:00.000   22.434279568  114.335382666    63.0972   6   6   0.0995   0.1645   0.2013   0.0398   0.0302  -0.0513   0.00    0.0
2026/01/15 02:07:30.000   22.434279572  114.335382650    63.0990   6   6   0.0992   0.1641   0.2008   0.0396   0.0299  -0.0510   0.00    0.0
2026/01/15 02:08:00.000   22.434279578  114.335382640    63.1013   6   6   0.0989   0.1638   0.2002   0.0395   0.0296  -0.0507   0.00    0.0
2026/01/15 02:08:30.000   22.434279577  114.335382628    63.1032   6   9   0.0986   0.1635   0.1996   0.0393   0.0293  -0.0505   0.00    0.0
2026/01/15 02:09:00.000   22.434279575  114.335382622    63.1056   6   6   0.0983   0.1631   0.1990   0.0391   0.0289  -0.0502   0.00    0.0
2026/01/15 02:09:30.000   22.434279570  114.335382609    63.1081   6   6   0.0980   0.1628   0.1984   0.0389   0.0287  -0.0499   0.00    0.0
2026/01/15 02:10:00.000   22.434279562  114.335382594    63.1111   6   6   0.0977   0.1625   0.1978   0.0387   0.0283  -0.0496   0.00    0.0
2026/01/15 02:10:30.000   22.434279554  114.335382575    63.1148   6   6   0.0974   0.1621   0.1972   0.0385   0.0280  -0.0493   0.00    0.0
2026/01/15 02:11:00.000   22.434279544  114.335382558    63.1189   6   6   0.0971   0.1618   0.1965   0.0383   0.0277  -0.0490   0.00    0.0
2026/01/15 02:11:30.000   22.434279534  114.335382544    63.1227   6   6   0.0968   0.1615   0.1959   0.0382   0.0274  -0.0487   0.00    0.0
2026/01/15 02:12:00.000   22.434279525  114.335382542    63.1263   6   6   0.0965   0.1611   0.1952   0.0380   0.0270  -0.0484   0.00    0.0
2026/01/15 02:12:30.000   22.434279515  114.335382540    63.1298   6   6   0.0961   0.1608   0.1945   0.0378   0.0267  -0.0480   0.00    0.0
2026/01/15 02:13:00.000   22.434279504  114.335382542    63.1337   6   6   0.0958   0.1605   0.1938   0.0376   0.0264  -0.0477   0.00    0.0
2026/01/15 02:13:30.000   22.434279497  114.335382548    63.1379   6   6   0.0955   0.1602   0.1931   0.0374   0.0260  -0.0474   0.00    0.0
2026/01/15 02:14:00.000   22.434279492  114.335382554    63.1421   6   6   0.0952   0.1599   0.1924   0.0372   0.0257  -0.0470   0.00    0.0
2026/01/15 02:14:30.000   22.434279491  114.335382555    63.1463   6   6   0.0948   0.1595   0.1916   0.0369   0.0253  -0.0467   0.00    0.0
2026/01/15 02:15:00.000   22.434279488  114.335382548    63.1506   6   6   0.0945   0.1592   0.1909   0.0367   0.0250  -0.0463   0.00    0.0
2026/01/15 02:15:30.000   22.434279486  114.335382531    63.1548   6   6   0.0942   0.1589   0.1901   0.0365   0.0246  -0.0460   0.00    0.0
2026/01/15 02:16:00.000   22.434279482  114.335382510    63.1584   6   6   0.0938   0.1586   0.1893   0.0363   0.0242  -0.0456   0.00    0.0
2026/01/15 02:16:30.000   22.434279478  114.335382498    63.1616   6   6   0.0935   0.1582   0.1885   0.0360   0.0239  -0.0452   0.00    0.0
2026/01/15 02:17:00.000   22.434279473  114.335382495    63.1652   6   6   0.0931   0.1579   0.1877   0.0358   0.0235  -0.0448   0.00    0.0
2026/01/15 02:17:30.000   22.434279469  114.335382495    63.1688   6   6   0.0928   0.1576   0.1869   0.0355   0.0231  -0.0444   0.00    0.0
2026/01/15 02:18:00.000   22.434279463  114.335382493    63.1725   6   6   0.0924   0.1573   0.1861   0.0353   0.0227  -0.0440   0.00    0.0
2026/01/15 02:18:30.000   22.434279457  114.335382487    63.1763   6   6   0.0921   0.1570   0.1853   0.0350   0.0224  -0.0436   0.00    0.0
2026/01/15 02:19:00.000   22.434279451  114.335382477    63.1807   6   6   0.0917   0.1566   0.1844   0.0348   0.0220  -0.0432   0.00    0.0
2026/01/15 02:19:30.000   22.434279446  114.335382463    63.1853   6   6   0.0914   0.1563   0.1836   0.0345   0.0216  -0.0428   0.00    0.0
2026/01/15 02:20:00.000   22.434279442  114.335382449    63.1902   6   6   0.0910   0.1560   0.1827   0.0342   0.0212  -0.0424   0.00    0.0
2026/01/15 02:20:30.000   22.434279439  114.335382429    63.1955   6   6   0.0906   0.1557   0.1819   0.0339   0.0208  -0.0420   0.00    0.0
2026/01/15 02:21:00.000   22.434279436  114.335382407    63.2011   6   6   0.0903   0.1553   0.1810   0.0337   0.0203  -0.0415   0.00    0.0
2026/01/15 02:21:30.000   22.434279433  114.335382387    63.2069   6   6   0.0899   0.1550   0.1801   0.0334   0.0199  -0.0411   0.00    0.0
2026/01/15 02:22:00.000   22.434279426  114.335382368    63.2123   6   6   0.0895   0.1547   0.1792   0.0331   0.0195  -0.0407   0.00    0.0
2026/01/15 02:22:30.000   22.434279421  114.335382354    63.2180   6   6   0.0891   0.1544   0.1783   0.0328   0.0191  -0.0402   0.00    0.0
2026/01/15 02:23:00.000   22.434279417  114.335382338    63.2235   6   6   0.0888   0.1540   0.1774   0.0324   0.0186  -0.0398   0.00    0.0
2026/01/15 02:23:30.000   22.434279412  114.335382320    63.2285   6   7   0.0884   0.1537   0.1765   0.0321   0.0182  -0.0393   0.00    0.0
2026/01/15 02:24:00.000   22.434279414  114.335382308    63.2340   6   6   0.0880   0.1534   0.1756   0.0318   0.0178  -0.0389   0.00    0.0
2026/01/15 02:24:30.000   22.434279412  114.335382295    63.2389   6   6   0.0876   0.1531   0.1746   0.0315   0.0173  -0.0384   0.00    0.0
2026/01/15 02:25:00.000   22.434279413  114.335382284    63.2439   6   9   0.0873   0.1528   0.1737   0.0311   0.0169  -0.0380   0.00    0.0
2026/01/15 02:25:30.000   22.434279412  114.335382271    63.2489   6   6   0.0869   0.1524   0.1727   0.0308   0.0164  -0.0375   0.00    0.0
2026/01/15 02:26:00.000   22.434279409  114.335382259    63.2538   6   7   0.0865   0.1521   0.1718   0.0304   0.0159  -0.0370   0.00    0.0
2026/01/15 02:26:30.000   22.434279411  114.335382254    63.2587   6   6   0.0861   0.1518   0.1708   0.0301   0.0155  -0.0365   0.00    0.0
2026/01/15 02:27:00.000   22.434279412  114.335382248    63.2634   6   6   0.0857   0.1515   0.1699   0.0297   0.0150  -0.0361   0.00    0.0
2026/01/15 02:27:30.000   22.434279415  114.335382244    63.2676   6   8   0.0853   0.1511   0.1689   0.0293   0.0145  -0.0356   0.00    0.0
2026/01/15 02:28:00.000   22.434279414  114.335382233    63.2716   6   6   0.0849   0.1508   0.1680   0.0289   0.0139  -0.0351   0.00    0.0
2026/01/15 02:28:30.000   22.434279418  114.335382225    63.2759   6   6   0.0845   0.1505   0.1670   0.0285   0.0134  -0.0346   0.00    0.0
2026/01/15 02:29:00.000   22.434279423  114.335382216    63.2807   6   8   0.0842   0.1502   0.1660   0.0281   0.0128  -0.0341   0.00    0.0
2026/01/15 02:29:30.000   22.434279430  114.335382203    63.2863   6  11   0.0838   0.1499   0.1651   0.0277   0.0124  -0.0336   0.00    0.0
2026/01/15 02:30:00.000   22.434279435  114.335382186    63.2923   6  12   0.0834   0.1495   0.1641   0.0273   0.0118  -0.0331   0.00    0.0
2026/01/15 02:30:30.000   22.434279437  114.335382170    63.2985   6  13   0.0830   0.1492   0.1631   0.0268   0.0113  -0.0325   0.00    0.0
2026/01/15 02:31:00.000   22.434279436  114.335382163    63.3047   6  13   0.0826   0.1489   0.1621   0.0264   0.0107  -0.0320   0.00    0.0
2026/01/15 02:31:30.000   22.434279432  114.335382161    63.3111   6  13   0.0822   0.1486   0.1611   0.0259   0.0101  -0.0315   0.00    0.0
2026/01/15 02:32:00.000   22.434279427  114.335382148    63.3126   6   8   0.0821   0.1483   0.1611   0.0259   0.0103  -0.0315   0.00    0.0
2026/01/15 02:32:30.000   22.434279422  114.335382132    63.3140   6   8   0.0821   0.1481   0.1610   0.0259   0.0104  -0.0315   0.00    0.0
2026/01/15 02:33:00.000   22.434279415  114.335382120    63.3153   6   8   0.0820   0.1479   0.1610   0.0258   0.0106  -0.0315   0.00    0.0
2026/01/15 02:33:30.000   22.434279406  114.335382113    63.3163   6   8   0.0819   0.1477   0.1609   0.0258   0.0108  -0.0315   0.00    0.0
2026/01/15 02:34:00.000   22.434279398  114.335382119    63.3169   6   8   0.0819   0.1475   0.1609   0.0258   0.0111  -0.0316   0.00    0.0
2026/01/15 02:34:30.000   22.434279392  114.335382135    63.3173   6   8   0.0818   0.1473   0.1608   0.0257   0.0113  -0.0316   0.00    0.0
2026/01/15 02:35:00.000   22.434279388  114.335382145    63.3179   6   8   0.0817   0.1471   0.1608   0.0257   0.0115  -0.0316   0.00    0.0
2026/01/15 02:35:30.000   22.434279387  114.335382149    63.3187   6   8   0.0816   0.1469   0.1607   0.0256   0.0118  -0.0316   0.00    0.0
2026/01/15 02:36:00.000   22.434279386  114.335382159    63.3262   6   6   0.0811   0.1465   0.1594   0.0250   0.0111  -0.0309   0.00    0.0
2026/01/15 02:36:30.000   22.434279387  114.335382162    63.3332   6   6   0.0807   0.1462   0.1581   0.0244   0.0104  -0.0302   0.00    0.0
2026/01/15 02:37:00.000   22.434279392  114.335382159    63.3402   6   6   0.0802   0.1458   0.1568   0.0237   0.0097  -0.0295   0.00    0.0
2026/01/15 02:37:30.000   22.434279395  114.335382146    63.3474   6   6   0.0797   0.1455   0.1556   0.0230   0.0089  -0.0288   0.00    0.0
2026/01/15 02:38:00.000   22.434279395  114.335382121    63.3545   6   6   0.0792   0.1451   0.1543   0.0224   0.0081  -0.0281   0.00    0.0
2026/01/15 02:38:30.000   22.434279393  114.335382094    63.3620   6  14   0.0787   0.1447   0.1530   0.0216   0.0079  -0.0275   0.00    0.0
2026/01/15 02:39:00.000   22.434279387  114.335382068    63.3692   6  14   0.0782   0.1444   0.1517   0.0209   0.0077  -0.0268   0.00    0.0
2026/01/15 02:39:30.000   22.434279382  114.335382046    63.3761   6  14   0.0777   0.1440   0.1504   0.0201   0.0074  -0.0262   0.00    0.0
2026/01/15 02:40:00.000   22.434279380  114.335382024    63.3831   6  14   0.0773   0.1436   0.1491   0.0194   0.0072  -0.0255   0.00    0.0
2026/01/15 02:40:30.000   22.434279379  114.335382000    63.3898   6  14   0.0768   0.1432   0.1478   0.0186   0.0071  -0.0249   0.00    0.0
2026/01/15 02:41:00.000   22.434279380  114.335381982    63.3966   6  14   0.0763   0.1429   0.1466   0.0177   0.0069  -0.0243   0.00    0.0
2026/01/15 02:41:30.000   22.434279381  114.335381972    63.4029   6  14   0.0758   0.1425   0.1453   0.0169   0.0068  -0.0237   0.00    0.0
2026/01/15 02:42:00.000   22.434279389  114.335381974    63.4076   6  13   0.0754   0.1421   0.1443   0.0160   0.0071  -0.0235   0.00    0.0
2026/01/15 02:42:30.000   22.434279397  114.335381968    63.4088   6   9   0.0753   0.1419   0.1442   0.0159   0.0080  -0.0236   0.00    0.0
2026/01/15 02:43:00.000   22.434279404  114.335381958    63.4095   6   8   0.0752   0.1417   0.1441   0.0159   0.0089  -0.0236   0.00    0.0
2026/01/15 02:43:30.000   22.434279410  114.335381949    63.4102   6   8   0.0752   0.1415   0.1439   0.0158   0.0097  -0.0237   0.00    0.0
2026/01/15 02:44:00.000   22.434279413  114.335381938    63.4108   6   8   0.0751   0.1413   0.1438   0.0157   0.0105  -0.0238   0.00    0.0
2026/01/15 02:44:30.000   22.434279414  114.335381927    63.4115   6   8   0.0750   0.1410   0.1436   0.0157   0.0112  -0.0239   0.00    0.0
2026/01/15 02:45:00.000   22.434279413  114.335381915    63.4124   6   8   0.0749   0.1408   0.1434   0.0156   0.0119  -0.0240   0.00    0.0
2026/01/15 02:45:30.000   22.434279409  114.335381902    63.4135   6   8   0.0748   0.1406   0.1433   0.0155   0.0126  -0.0240   0.00    0.0
2026/01/15 02:46:00.000   22.434279404  114.335381891    63.4147   6   8   0.0747   0.1404   0.1431   0.0155   0.0133  -0.0241   0.00    0.0
2026/01/15 02:46:30.000   22.434279398  114.335381878    63.4159   6   8   0.0746   0.1402   0.1429   0.0154   0.0140  -0.0242   0.00    0.0
2026/01/15 02:47:00.000   22.434279391  114.335381864    63.4173   6   8   0.0745   0.1399   0.1427   0.0153   0.0147  -0.0243   0.00    0.0
2026/01/15 02:47:30.000   22.434279386  114.335381852    63.4186   6   8   0.0745   0.1397   0.1425   0.0152   0.0153  -0.0244   0.00    0.0
2026/01/15 02:48:00.000   22.434279380  114.335381835    63.4198   6   8   0.0744   0.1395   0.1423   0.0151   0.0160  -0.0245   0.00    0.0
2026/01/15 02:48:30.000   22.434279374  114.335381814    63.4211   6   8   0.0743   0.1393   0.1421   0.0151   0.0166  -0.0246   0.00    0.0
2026/01/15 02:49:00.000   22.434279366  114.335381788    63.4221   6   8   0.0742   0.1390   0.1419   0.0150   0.0173  -0.0247   0.00    0.0
2026/01/15 02:49:30.000   22.434279359  114.335381757    63.4230   6   8   0.0741   0.1388   0.1417   0.0149   0.0179  -0.0249   0.00    0.0
2026/01/15 02:50:00.000   22.434279352  114.335381724    63.4239   6   8   0.0740   0.1386   0.1414   0.0147   0.0185  -0.0250   0.00    0.0
2026/01/15 02:50:30.000   22.434279346  114.335381693    63.4248   6   8   0.0738   0.1384   0.1412   0.0146   0.0191  -0.0251   0.00    0.0
2026/01/15 02:51:00.000   22.434279343  114.335381662    63.4258   6   8   0.0737   0.1381   0.1410   0.0145   0.0197  -0.0252   0.00    0.0
2026/01/15 02:51:30.000   22.434279339  114.335381634    63.4269   6   8   0.0736   0.1379   0.1407   0.0144   0.0204  -0.0253   0.00    0.0
2026/01/15 02:52:00.000   22.434279336  114.335381607    63.4280   6   8   0.0735   0.1377   0.1404   0.0143   0.0210  -0.0255   0.00    0.0
2026/01/15 02:52:30.000   22.434279333  114.335381580    63.4292   6   8   0.0734   0.1374   0.1402   0.0141   0.0216  -0.0256   0.00    0.0
2026/01/15 02:53:00.000   22.434279331  114.335381556    63.4303   6   8   0.0733   0.1372   0.1399   0.0140   0.0222  -0.0257   0.00    0.0
2026/01/15 02:53:30.000   22.434279329  114.335381533    63.4315   6   8   0.0732   0.1370   0.1396   0.0138   0.0228  -0.0259   0.00    0.0
2026/01/15 02:54:00.000   22.434279329  114.335381512    63.4329   6   8   0.0730   0.1367   0.1393   0.0137   0.0234  -0.0260   0.00    0.0
2026/01/15 02:54:30.000   22.434279326  114.335381490    63.4344   6   8   0.0729   0.1365   0.1390   0.0135   0.0240  -0.0262   0.00    0.0
2026/01/15 02:55:00.000   22.434279323  114.335381467    63.4359   6   8   0.0728   0.1362   0.1387   0.0133   0.0246  -0.0263   0.00    0.0
2026/01/15 02:55:30.000   22.434279320  114.335381445    63.4376   6   8   0.0726   0.1360   0.1384   0.0131   0.0252  -0.0265   0.00    0.0
2026/01/15 02:56:00.000   22.434279317  114.335381429    63.4395   6   8   0.0725   0.1358   0.1380   0.0130   0.0258  -0.0266   0.00    0.0
2026/01/15 02:56:30.000   22.434279314  114.335381415    63.4414   6   9   0.0724   0.1355   0.1377   0.0128   0.0263  -0.0268   0.00    0.0
2026/01/15 02:57:00.000   22.434279310  114.335381398    63.4432   6   9   0.0722   0.1352   0.1374   0.0126   0.0269  -0.0269   0.00    0.0
2026/01/15 02:57:30.000   22.434279306  114.335381380    63.4451   6   9   0.0721   0.1350   0.1370   0.0124   0.0275  -0.0271   0.00    0.0
2026/01/15 02:58:00.000   22.434279304  114.335381366    63.4469   6   9   0.0719   0.1347   0.1367   0.0122   0.0280  -0.0272   0.00    0.0
2026/01/15 02:58:30.000   22.434279305  114.335381357    63.4483   6   9   0.0718   0.1345   0.1363   0.0119   0.0286  -0.0274   0.00    0.0
2026/01/15 02:59:00.000   22.434279305  114.335381350    63.4493   6   9   0.0716   0.1342   0.1359   0.0117   0.0291  -0.0275   0.00    0.0
2026/01/15 02:59:30.000   22.434279304  114.335381339    63.4503   6   9   0.0715   0.1340   0.1355   0.0115   0.0297  -0.0277   0.00    0.0
2026/01/15 03:00:00.000   22.434279304  114.335381319    63.4510   6   9   0.0713   0.1337   0.1351   0.0112   0.0302  -0.0279   0.00    0.0
2026/01/15 03:00:30.000   22.434279303  114.335381295    63.4519   6   9   0.0712   0.1334   0.1347   0.0109   0.0308  -0.0280   0.00    0.0
2026/01/15 03:01:00.000   22.434279302  114.335381272    63.4527   6   9   0.0710   0.1332   0.1343   0.0106   0.0313  -0.0282   0.00    0.0
2026/01/15 03:01:30.000   22.434279300  114.335381256    63.4534   6   9   0.0708   0.1329   0.1339   0.0103   0.0319  -0.0284   0.00    0.0
2026/01/15 03:02:00.000   22.434279298  114.335381245    63.4541   6   9   0.0707   0.1327   0.1335   0.0100   0.0324  -0.0285   0.00    0.0
2026/01/15 03:02:30.000   22.434279295  114.335381232    63.4549   6   9   0.0705   0.1324   0.1331   0.0097   0.0330  -0.0287   0.00    0.0
2026/01/15 03:03:00.000   22.434279290  114.335381219    63.4557   6   9   0.0703   0.1321   0.1327   0.0093   0.0335  -0.0289   0.00    0.0
2026/01/15 03:03:30.000   22.434279286  114.335381210    63.4561   6   9   0.0702   0.1318   0.1322   0.0089   0.0340  -0.0290   0.00    0.0
2026/01/15 03:04:00.000   22.434279281  114.335381200    63.4565   6   9   0.0700   0.1316   0.1318   0.0085   0.0345  -0.0292   0.00    0.0
2026/01/15 03:04:30.000   22.434279276  114.335381186    63.4572   6   9   0.0698   0.1313   0.1313   0.0081   0.0351  -0.0294   0.00    0.0
2026/01/15 03:05:00.000   22.434279270  114.335381171    63.4578   6   9   0.0696   0.1310   0.1309   0.0076   0.0356  -0.0295   0.00    0.0
2026/01/15 03:05:30.000   22.434279265  114.335381154    63.4585   6   9   0.0694   0.1307   0.1304   0.0071   0.0361  -0.0297   0.00    0.0
2026/01/15 03:06:00.000   22.434279260  114.335381141    63.4590   6   9   0.0692   0.1305   0.1300   0.0065   0.0366  -0.0299   0.00    0.0
2026/01/15 03:06:30.000   22.434279254  114.335381125    63.4590   6   9   0.0690   0.1302   0.1295   0.0058   0.0371  -0.0300   0.00    0.0
2026/01/15 03:07:00.000   22.434279249  114.335381108    63.4591   6   9   0.0688   0.1299   0.1290   0.0051   0.0376  -0.0302   0.00    0.0
2026/01/15 03:07:30.000   22.434279245  114.335381088    63.4590   6   9   0.0686   0.1296   0.1285   0.0042   0.0381  -0.0304   0.00    0.0
2026/01/15 03:08:00.000   22.434279241  114.335381069    63.4591   6   9   0.0684   0.1293   0.1280   0.0030   0.0386  -0.0305   0.00    0.0
2026/01/15 03:08:30.000   22.434279237  114.335381051    63.4592   6   9   0.0682   0.1291   0.1275  -0.0002   0.0391  -0.0307   0.00    0.0
2026/01/15 03:09:00.000   22.434279232  114.335381028    63.4593   6   9   0.0680   0.1288   0.1271  -0.0030   0.0396  -0.0309   0.00    0.0
2026/01/15 03:09:30.000   22.434279228  114.335381007    63.4593   6   9   0.0678   0.1285   0.1266  -0.0042   0.0400  -0.0310   0.00    0.0
2026/01/15 03:10:00.000   22.434279226  114.335380989    63.4590   6   9   0.0676   0.1282   0.1261  -0.0052   0.0405  -0.0312   0.00    0.0
2026/01/15 03:10:30.000   22.434279226  114.335380969    63.4585   6   9   0.0674   0.1279   0.1255  -0.0060   0.0410  -0.0313   0.00    0.0
2026/01/15 03:11:00.000   22.434279226  114.335380948    63.4579   6   9   0.0672   0.1276   0.1250  -0.0068   0.0414  -0.0315   0.00    0.0
2026/01/15 03:11:30.000   22.434279228  114.335380930    63.4573   6   9   0.0670   0.1273   0.1245  -0.0075   0.0419  -0.0316   0.00    0.0
2026/01/15 03:12:00.000   22.434279228  114.335380914    63.4567   6   9   0.0667   0.1270   0.1240  -0.0081   0.0423  -0.0318   0.00    0.0
2026/01/15 03:12:30.000   22.434279226  114.335380897    63.4561   6   9   0.0665   0.1268   0.1235  -0.0087   0.0428  -0.0319   0.00    0.0
2026/01/15 04:05:00.000   22.434278930  114.335380205    63.4909   6   8   0.0645   0.1164   0.1216  -0.0098   0.0444  -0.0293   0.00    0.0
2026/01/15 04:05:30.000   22.434278925  114.335380173    63.4914   6   8   0.0645   0.1163   0.1216  -0.0099   0.0444  -0.0293   0.00    0.0
2026/01/15 04:06:00.000   22.434278919  114.335380140    63.4919   6   8   0.0645   0.1162   0.1216  -0.0099   0.0445  -0.0292   0.00    0.0
2026/01/15 04:06:30.000   22.434278913  114.335380108    63.4923   6   8   0.0644   0.1161   0.1216  -0.0100   0.0445  -0.0292   0.00    0.0
2026/01/15 04:07:00.000   22.434278907  114.335380080    63.4926   6   8   0.0644   0.1160   0.1215  -0.0100   0.0445  -0.0292   0.00    0.0
2026/01/15 04:07:30.000   22.434278900  114.335380051    63.4930   6   8   0.0644   0.1159   0.1215  -0.0101   0.0445  -0.0292   0.00    0.0
2026/01/15 04:08:00.000   22.434278894  114.335380019    63.4936   6   8   0.0644   0.1158   0.1215  -0.0101   0.0446  -0.0291   0.00    0.0
2026/01/15 04:08:30.000   22.434278888  114.335379984    63.4943   6   8   0.0643   0.1157   0.1215  -0.0102   0.0446  -0.0291   0.00    0.0
2026/01/15 04:09:00.000   22.434278883  114.335379949    63.4948   6   8   0.0643   0.1156   0.1215  -0.0103   0.0446  -0.0291   0.00    0.0
2026/01/15 04:09:30.000   22.434278877  114.335379916    63.4952   6   8   0.0643   0.1155   0.1214  -0.0103   0.0446  -0.0291   0.00    0.0
2026/01/15 04:10:00.000   22.434278873  114.335379883    63.4953   6   8   0.0643   0.1154   0.1214  -0.0104   0.0447  -0.0291   0.00    0.0
2026/01/15 04:10:30.000   22.434278868  114.335379849    63.4953   6   8   0.0642   0.1152   0.1214  -0.0105   0.0447  -0.0290   0.00    0.0
2026/01/15 04:11:00.000   22.434278864  114.335379813    63.4954   6   8   0.0642   0.1151   0.1214  -0.0105   0.0447  -0.0290   0.00    0.0
2026/01/15 04:11:30.000   22.434278860  114.335379774    63.4953   6   8   0.0642   0.1150   0.1214  -0.0106   0.0448  -0.0290   0.00    0.0
2026/01/15 04:12:00.000   22.434278856  114.335379735    63.4952   6   8   0.0642   0.1149   0.1213  -0.0107   0.0448  -0.0290   0.00    0.0
2026/01/15 04:12:30.000   22.434278854  114.335379700    63.4953   6   8   0.0641   0.1148   0.1213  -0.0107   0.0448  -0.0290   0.00    0.0
2026/01/15 04:13:00.000   22.434278852  114.335379669    63.4952   6   8   0.0641   0.1147   0.1213  -0.0108   0.0449  -0.0289   0.00    0.0
2026/01/15 04:13:30.000   22.434278850  114.335379638    63.4951   6   8   0.0641   0.1146   0.1213  -0.0109   0.0449  -0.0289   0.00    0.0
2026/01/15 04:14:00.000   22.434278847  114.335379607    63.4952   6   8   0.0640   0.1145   0.1212  -0.0110   0.0449  -0.0289   0.00    0.0
2026/01/15 04:14:30.000   22.434278844  114.335379577    63.4953   6   8   0.0640   0.1144   0.1212  -0.0111   0.0450  -0.0289   0.00    0.0
2026/01/15 04:15:00.000   22.434278842  114.335379545    63.4954   6   8   0.0640   0.1143   0.1212  -0.0111   0.0450  -0.0289   0.00    0.0
2026/01/15 04:15:30.000   22.434278838  114.335379510    63.4955   6   8   0.0639   0.1141   0.1212  -0.0112   0.0450  -0.0288   0.00    0.0
2026/01/15 04:16:00.000   22.434278832  114.335379475    63.4956   6   8   0.0639   0.1140   0.1211  -0.0113   0.0451  -0.0288   0.00    0.0
2026/01/15 04:16:30.000   22.434278826  114.335379441    63.4955   6   8   0.0639   0.1139   0.1211  -0.0114   0.0451  -0.0288   0.00    0.0
2026/01/15 04:17:00.000   22.434278820  114.335379408    63.4952   6   8   0.0638   0.1138   0.1211  -0.0115   0.0451  -0.0288   0.00    0.0
2026/01/15 04:17:30.000   22.434278812  114.335379376    63.4951   6   8   0.0638   0.1137   0.1210  -0.0116   0.0452  -0.0288   0.00    0.0
2026/01/15 04:18:00.000   22.434278804  114.335379343    63.4951   6   8   0.0637   0.1136   0.1210  -0.0117   0.0452  -0.0288   0.00    0.0
2026/01/15 04:18:30.000   22.434278796  114.335379311    63.4953   6   8   0.0637   0.1134   0.1210  -0.0118   0.0452  -0.0288   0.00    0.0
2026/01/15 04:19:00.000   22.434278789  114.335379284    63.4956   6   8   0.0637   0.1133   0.1209  -0.0119   0.0453  -0.0287   0.00    0.0
2026/01/15 04:19:30.000   22.434278783  114.335379261    63.4958   6   8   0.0636   0.1132   0.1209  -0.0120   0.0453  -0.0287   0.00    0.0
2026/01/15 04:20:00.000   22.434278778  114.335379238    63.4961   6   8   0.0636   0.1131   0.1209  -0.0121   0.0454  -0.0287   0.00    0.0
2026/01/15 04:20:30.000   22.434278771  114.335379215    63.4965   6   8   0.0635   0.1130   0.1208  -0.0123   0.0454  -0.0287   0.00    0.0
2026/01/15 04:21:00.000   22.434278764  114.335379195    63.4968   6   8   0.0635   0.1128   0.1208  -0.0124   0.0454  -0.0287   0.00    0.0
2026/01/15 04:21:30.000   22.434278757  114.335379180    63.4969   6   8   0.0634   0.1127   0.1207  -0.0125   0.0455  -0.0287   0.00    0.0
2026/01/15 04:22:00.000   22.434278752  114.335379167    63.4969   6   8   0.0634   0.1126   0.1207  -0.0126   0.0455  -0.0287   0.00    0.0
2026/01/15 04:22:30.000   22.434278749  114.335379152    63.4968   6   8   0.0633   0.1125   0.1207  -0.0127   0.0456  -0.0286   0.00    0.0
2026/01/15 04:23:00.000   22.434278747  114.335379133    63.4967   6   8   0.0632   0.1124   0.1206  -0.0128   0.0457  -0.0286   0.00    0.0
2026/01/15 04:23:30.000   22.434278745  114.335379110    63.4966   6   8   0.0632   0.1122   0.1206  -0.0129   0.0457  -0.0286   0.00    0.0
2026/01/15 04:24:00.000   22.434278742  114.335379086    63.4967   6   8   0.0631   0.1121   0.1205  -0.0130   0.0458  -0.0286   0.00    0.0
2026/01/15 04:24:30.000   22.434278737  114.335379064    63.4970   6   8   0.0631   0.1120   0.1205  -0.0131   0.0458  -0.0285   0.00    0.0
2026/01/15 04:25:00.000   22.434278731  114.335379046    63.4973   6   8   0.0630   0.1119   0.1204  -0.0132   0.0459  -0.0285   0.00    0.0
2026/01/15 04:25:30.000   22.434278725  114.335379031    63.4977   6   8   0.0629   0.1118   0.1204  -0.0134   0.0459  -0.0285   0.00    0.0
2026/01/15 04:26:00.000   22.434278720  114.335379014    63.4980   6   8   0.0629   0.1116   0.1203  -0.0135   0.0460  -0.0285   0.00    0.0
2026/01/15 04:26:30.000   22.434278715  114.335378996    63.4982   6   8   0.0628   0.1115   0.1203  -0.0136   0.0461  -0.0284   0.00    0.0
2026/01/15 04:27:00.000   22.434278712  114.335378980    63.4983   6   8   0.0627   0.1114   0.1203  -0.0137   0.0461  -0.0284   0.00    0.0
2026/01/15 04:27:30.000   22.434278711  114.335378966    63.4983   6   8   0.0627   0.1113   0.1202  -0.0138   0.0462  -0.0284   0.00    0.0
2026/01/15 04:28:00.000   22.434278711  114.335378950    63.4980   6   8   0.0626   0.1111   0.1202  -0.0140   0.0463  -0.0284   0.00    0.0
2026/01/15 04:28:30.000   22.434278712  114.335378931    63.4977   6   8   0.0625   0.1110   0.1201  -0.0141   0.0463  -0.0284   0.00    0.0
2026/01/15 04:29:00.000   22.434278712  114.335378909    63.4973   6   8   0.0624   0.1109   0.1200  -0.0142   0.0464  -0.0283   0.00    0.0
2026/01/15 04:29:30.000   22.434278711  114.335378887    63.4969   6   8   0.0623   0.1107   0.1200  -0.0143   0.0464  -0.0283   0.00    0.0
2026/01/15 04:30:00.000   22.434278709  114.335378866    63.4965   6   8   0.0623   0.1106   0.1199  -0.0144   0.0465  -0.0283   0.00    0.0
2026/01/15 04:30:30.000   22.434278707  114.335378845    63.4961   6   8   0.0622   0.1105   0.1199  -0.0145   0.0466  -0.0283   0.00    0.0
2026/01/15 04:31:00.000   22.434278705  114.335378820    63.4958   6   9   0.0621   0.1103   0.1198  -0.0147   0.0466  -0.0282   0.00    0.0
2026/01/15 04:31:30.000   22.434278703  114.335378794    63.4955   6   9   0.0620   0.1102   0.1197  -0.0148   0.0467  -0.0282   0.00    0.0
2026/01/15 04:32:00.000   22.434278702  114.335378770    63.4951   6   9   0.0619   0.1100   0.1197  -0.0149   0.0467  -0.0282   0.00    0.0
2026/01/15 04:32:30.000   22.434278701  114.335378750    63.4948   6   8   0.0618   0.1099   0.1196  -0.0150   0.0468  -0.0281   0.00    0.0
2026/01/15 04:33:00.000   22.434278700  114.335378737    63.4944   6   8   0.0617   0.1098   0.1195  -0.0151   0.0468  -0.0281   0.00    0.0
2026/01/15 04:33:30.000   22.434278699  114.335378726    63.4941   6   8   0.0616   0.1096   0.1195  -0.0153   0.0469  -0.0280   0.00    0.0
2026/01/15 04:34:00.000   22.434278698  114.335378715    63.4937   6   8   0.0615   0.1095   0.1194  -0.0154   0.0469  -0.0280   0.00    0.0
2026/01/15 04:34:30.000   22.434278697  114.335378703    63.4934   6   8   0.0614   0.1094   0.1193  -0.0155   0.0469  -0.0279   0.00    0.0
2026/01/15 04:35:00.000   22.434278697  114.335378687    63.4934   6   8   0.0613   0.1092   0.1192  -0.0157   0.0470  -0.0279   0.00    0.0
2026/01/15 04:35:30.000   22.434278698  114.335378675    63.4934   6   8   0.0612   0.1091   0.1192  -0.0158   0.0470  -0.0278   0.00    0.0
