% program   : RTKLIB ver.EX 2.5.0
% inp file  : C:\PPP_PROJECT\New_Data\obs\RNXDATA\KIRU00SWE_R_20260150000_01D_30S_MO.rnx
% inp file  : C:\PPP_PROJECT\New_Data\nav\BRDC00IGS_R_20260150000_01D_MN.rnx
% inp file  : C:\PPP_PROJECT\New_Data\DATA_FINAL_ANT_EXTRA\COD0MGXFIN_20260150000_01D_05M_ORB.SP3
% inp file  : C:\PPP_PROJECT\New_Data\DATA_FINAL_ANT_EXTRA\COD0MGXFIN_20260150000_01D_30S_CLK.CLK
% inp file  : .
% inp file  : .
% obs start : 2026/01/15 00:00:00.0 GPST (week2401 345600.0s)
% obs end   : 2026/01/15 02:00:00.0 GPST (week2401 352800.0s)
% pos mode  : PPP Static
% freqs     : L1+L2/E5b
% solution  : Forward
% elev mask : 15.0 deg
% dynamics  : on
% tidecorr  :
% ionos opt : Iono-Free LC
% tropo opt : Saastamoinen
% ephemeris : Precise
% navi sys  : GPS Galileo BDS
% antenna1  : SEPCHOKE_B3E6   SPKE  ( 0.0000  0.0000  0.0620)
%
% (lat/lon/height=WGS84/ellipsoidal,Q=1:fix,2:float,3:sbas,4:dgps,5:single,6:ppp,ns=# of satellites)
%  GPST                  latitude(deg) longitude(deg)  height(m)   Q  ns   sdn(m)   sde(m)   sdu(m)  sdne(m)  sdeu(m)  sdun(m) age(s)  ratio
2026/01/15 00:00:00.000   67.857347835   20.968477933   392.0471   6   9   2.9458   2.7869   7.0697  -0.7086  -1.2424   2.5553   0.00    0.0
2026/01/15 00:46:30.000   67.857350238   20.968466476   391.9649   6   4   0.3120   0.2698   0.7581  -0.0932  -0.2329   0.3041   0.00    0.0
2026/01/15 00:47:00.000   67.857350274   20.968466533   391.9782   6   9   0.3110   0.2685   0.7556  -0.0936  -0.2321   0.3041   0.00    0.0
2026/01/15 00:47:30.000   67.857350260   20.968466493   391.9781   6   8   0.3099   0.2672   0.7534  -0.0938  -0.2311   0.3042   0.00    0.0
2026/01/15 00:51:00.000   67.857350279   20.968466724   391.9606   6   8   0.3020   0.2585   0.7332  -0.0956  -0.2240   0.2998   0.00    0.0
2026/01/15 00:51:30.000   67.857350318   20.968466781   391.9583   6  15   0.3008   0.2573   0.7291  -0.0956  -0.2225   0.2985   0.00    0.0
2026/01/15 00:52:00.000   67.857350299   20.968466792   391.9569   6   7   0.2996   0.2561   0.7252  -0.0956  -0.2211   0.2972   0.00    0.0
2026/01/15 00:52:30.000   67.857350257   20.968466776   391.9506   6   7   0.2984   0.2549   0.7214  -0.0955  -0.2197   0.2960   0.00    0.0
2026/01/15 00:53:00.000   67.857350226   20.968466837   391.9355   6  13   0.2972   0.2537   0.7173  -0.0955  -0.2182   0.2947   0.00    0.0
2026/01/15 00:53:30.000   67.857350187   20.968466935   391.9241   6   7   0.2960   0.2525   0.7132  -0.0954  -0.2168   0.2933   0.00    0.0
2026/01/15 00:54:00.000   67.857350197   20.968467009   391.9206   6  14   0.2947   0.2514   0.7091  -0.0952  -0.2151   0.2918   0.00    0.0
2026/01/15 00:54:30.000   67.857350194   20.968466951   391.9150   6  13   0.2935   0.2502   0.7049  -0.0950  -0.2134   0.2901   0.00    0.0
2026/01/15 00:55:00.000   67.857350165   20.968466988   391.9086   6  14   0.2922   0.2490   0.7004  -0.0948  -0.2116   0.2883   0.00    0.0
2026/01/15 00:55:30.000   67.857350177   20.968466955   391.9055   6  14   0.2908   0.2478   0.6957  -0.0944  -0.2098   0.2864   0.00    0.0
2026/01/15 00:56:00.000   67.857350176   20.968466914   391.8990   6  15   0.2894   0.2467   0.6906  -0.0941  -0.2078   0.2842   0.00    0.0
2026/01/15 00:56:30.000   67.857350154   20.968466756   391.8897   6  14   0.2880   0.2455   0.6852  -0.0936  -0.2056   0.2819   0.00    0.0
2026/01/15 00:57:00.000   67.857350142   20.968466781   391.8703   6  14   0.2866   0.2443   0.6795  -0.0931  -0.2034   0.2792   0.00    0.0
2026/01/15 00:57:30.000   67.857350131   20.968466800   391.8504   6  13   0.2851   0.2432   0.6737  -0.0924  -0.2009   0.2765   0.00    0.0
2026/01/15 00:58:00.000   67.857350128   20.968466965   391.8272   6  14   0.2836   0.2420   0.6674  -0.0917  -0.1983   0.2735   0.00    0.0
2026/01/15 00:58:30.000   67.857350090   20.968466942   391.8242   6  14   0.2821   0.2409   0.6615  -0.0910  -0.1960   0.2703   0.00    0.0
2026/01/15 00:59:00.000   67.857350097   20.968466968   391.8129   6  14   0.2805   0.2399   0.6555  -0.0902  -0.1936   0.2670   0.00    0.0
2026/01/15 00:59:30.000   67.857350046   20.968466985   391.8029   6  14   0.2788   0.2388   0.6491  -0.0893  -0.1911   0.2634   0.00    0.0
2026/01/15 01:00:00.000   67.857350019   20.968466940   391.7820   6  14   0.2773   0.2377   0.6426  -0.0884  -0.1884   0.2599   0.00    0.0
2026/01/15 01:00:30.000   67.857349993   20.968466960   391.7626   6  14   0.2757   0.2366   0.6359  -0.0875  -0.1857   0.2562   0.00    0.0
2026/01/15 01:01:00.000   67.857349962   20.968467047   391.7454   6  14   0.2740   0.2356   0.6289  -0.0865  -0.1829   0.2523   0.00    0.0
2026/01/15 01:01:30.000   67.857349946   20.968467046   391.7252   6  14   0.2724   0.2345   0.6216  -0.0854  -0.1800   0.2482   0.00    0.0
2026/01/15 01:02:00.000   67.857349929   20.968467058   391.7107   6  14   0.2706   0.2335   0.6141  -0.0843  -0.1770   0.2439   0.00    0.0
2026/01/15 01:02:30.000   67.857349925   20.968467048   391.6978   6  14   0.2689   0.2324   0.6063  -0.0832  -0.1740   0.2394   0.00    0.0
2026/01/15 01:03:00.000   67.857349922   20.968467019   391.6891   6  15   0.2671   0.2313   0.5981  -0.0819  -0.1706   0.2346   0.00    0.0
2026/01/15 01:03:30.000   67.857349938   20.968466930   391.6806   6  15   0.2654   0.2302   0.5897  -0.0806  -0.1672   0.2297   0.00    0.0
2026/01/15 01:04:00.000   67.857349912   20.968466971   391.6677   6  15   0.2636   0.2291   0.5812  -0.0793  -0.1637   0.2247   0.00    0.0
2026/01/15 01:04:30.000   67.857349857   20.968466929   391.6628   6  15   0.2618   0.2281   0.5725  -0.0780  -0.1602   0.2195   0.00    0.0
2026/01/15 01:05:00.000   67.857349848   20.968466935   391.6483   6  15   0.2600   0.2270   0.5637  -0.0767  -0.1567   0.2141   0.00    0.0
2026/01/15 01:05:30.000   67.857349832   20.968466938   391.6352   6  15   0.2581   0.2260   0.5548  -0.0753  -0.1531   0.2087   0.00    0.0
2026/01/15 01:06:00.000   67.857349822   20.968467047   391.6207   6  15   0.2563   0.2249   0.5459  -0.0740  -0.1496   0.2031   0.00    0.0
2026/01/15 01:06:30.000   67.857349792   20.968467048   391.6064   6  15   0.2545   0.2239   0.5369  -0.0727  -0.1460   0.1974   0.00    0.0
2026/01/15 01:07:00.000   67.857349792   20.968466964   391.5961   6  15   0.2527   0.2229   0.5278  -0.0714  -0.1424   0.1916   0.00    0.0
2026/01/15 01:07:30.000   67.857349744   20.968466969   391.5872   6  15   0.2508   0.2219   0.5188  -0.0700  -0.1389   0.1857   0.00    0.0
2026/01/15 01:08:00.000   67.857349705   20.968466928   391.5792   6  15   0.2490   0.2209   0.5097  -0.0687  -0.1353   0.1797   0.00    0.0
2026/01/15 01:08:30.000   67.857349698   20.968466936   391.5677   6  15   0.2472   0.2199   0.5007  -0.0675  -0.1318   0.1736   0.00    0.0
2026/01/15 01:09:00.000   67.857349654   20.968466967   391.5580   6  15   0.2454   0.2190   0.4918  -0.0662  -0.1282   0.1674   0.00    0.0
2026/01/15 01:09:30.000   67.857349605   20.968467011   391.5458   6  15   0.2436   0.2180   0.4829  -0.0650  -0.1247   0.1612   0.00    0.0
2026/01/15 01:10:00.000   67.857349581   20.968467004   391.5391   6  15   0.2418   0.2171   0.4741  -0.0638  -0.1213   0.1549   0.00    0.0
2026/01/15 01:10:30.000   67.857349547   20.968466935   391.5349   6  15   0.2400   0.2161   0.4654  -0.0627  -0.1179   0.1485   0.00    0.0
2026/01/15 01:11:00.000   67.857349508   20.968466964   391.5238   6  15   0.2382   0.2152   0.4568  -0.0616  -0.1145   0.1421   0.00    0.0
2026/01/15 01:11:30.000   67.857349488   20.968466945   391.5128   6  15   0.2364   0.2143   0.4483  -0.0605  -0.1111   0.1356   0.00    0.0
2026/01/15 01:12:00.000   67.857349490   20.968466985   391.4955   6  15   0.2347   0.2134   0.4400  -0.0595  -0.1079   0.1290   0.00    0.0
2026/01/15 01:12:30.000   67.857349432   20.968466978   391.4861   6  15   0.2330   0.2125   0.4320  -0.0587  -0.1049   0.1225   0.00    0.0
2026/01/15 01:13:00.000   67.857349427   20.968467030   391.4708   6  15   0.2313   0.2117   0.4241  -0.0580  -0.1019   0.1160   0.00    0.0
2026/01/15 01:13:30.000   67.857349399   20.968466984   391.4640   6  15   0.2296   0.2108   0.4164  -0.0573  -0.0991   0.1094   0.00    0.0
2026/01/15 01:14:00.000   67.857349402   20.968467036   391.4546   6  15   0.2280   0.2100   0.4088  -0.0566  -0.0963   0.1027   0.00    0.0
2026/01/15 01:14:30.000   67.857349409   20.968466995   391.4457   6  15   0.2263   0.2092   0.4014  -0.0561  -0.0936   0.0959   0.00    0.0
2026/01/15 01:15:00.000   67.857349414   20.968467011   391.4367   6  15   0.2247   0.2084   0.3941  -0.0555  -0.0910   0.0888   0.00    0.0
2026/01/15 01:15:30.000   67.857349410   20.968467004   391.4255   6  15   0.2231   0.2076   0.3870  -0.0550  -0.0884   0.0816   0.00    0.0
2026/01/15 01:16:00.000   67.857349406   20.968467034   391.4189   6  15   0.2215   0.2068   0.3800  -0.0546  -0.0859   0.0740   0.00    0.0
2026/01/15 01:16:30.000   67.857349396   20.968467084   391.4114   6  15   0.2199   0.2060   0.3731  -0.0542  -0.0834   0.0661   0.00    0.0
2026/01/15 01:17:00.000   67.857349406   20.968467063   391.4019   6  15   0.2183   0.2052   0.3664  -0.0539  -0.0810   0.0576   0.00    0.0
2026/01/15 01:17:30.000   67.857349391   20.968467082   391.3923   6  15   0.2167   0.2044   0.3599  -0.0536  -0.0786   0.0481   0.00    0.0
2026/01/15 01:18:00.000   67.857349403   20.968467082   391.3873   6  15   0.2151   0.2036   0.3535  -0.0534  -0.0763   0.0371   0.00    0.0
2026/01/15 01:18:30.000   67.857349400   20.968467142   391.3801   6  15   0.2135   0.2028   0.3472  -0.0532  -0.0741   0.0223   0.00    0.0
2026/01/15 01:19:00.000   67.857349393   20.968467058   391.3743   6  15   0.2120   0.2020   0.3411  -0.0530  -0.0719  -0.0182   0.00    0.0
2026/01/15 01:19:30.000   67.857349413   20.968467118   391.3665   6  15   0.2104   0.2012   0.3351  -0.0529  -0.0698  -0.0333   0.00    0.0
2026/01/15 01:20:00.000   67.857349431   20.968467113   391.3580   6  15   0.2088   0.2005   0.3292  -0.0528  -0.0677  -0.0428   0.00    0.0
2026/01/15 01:20:30.000   67.857349441   20.968467053   391.3492   6  17   0.2072   0.1996   0.3234  -0.0528  -0.0657  -0.0496   0.00    0.0
2026/01/15 01:21:00.000   67.857349448   20.968467085   391.3407   6  17   0.2056   0.1988   0.3178  -0.0528  -0.0638  -0.0551   0.00    0.0
2026/01/15 01:21:30.000   67.857349476   20.968467060   391.3346   6  17   0.2040   0.1980   0.3124  -0.0528  -0.0621  -0.0600   0.00    0.0
2026/01/15 01:22:00.000   67.857349508   20.968466971   391.3269   6  17   0.2024   0.1972   0.3071  -0.0528  -0.0604  -0.0641   0.00    0.0
2026/01/15 01:22:30.000   67.857349550   20.968466892   391.3181   6  17   0.2008   0.1964   0.3020  -0.0529  -0.0588  -0.0677   0.00    0.0
2026/01/15 01:23:00.000   67.857349572   20.968466830   391.3104   6  17   0.1992   0.1955   0.2970  -0.0529  -0.0573  -0.0708   0.00    0.0
2026/01/15 01:23:30.000   67.857349602   20.968466824   391.3030   6  17   0.1976   0.1947   0.2921  -0.0530  -0.0558  -0.0735   0.00    0.0
2026/01/15 01:24:00.000   67.857349643   20.968466732   391.2965   6  17   0.1960   0.1939   0.2872  -0.0531  -0.0544  -0.0759   0.00    0.0
2026/01/15 01:24:30.000   67.857349680   20.968466650   391.2902   6  15   0.1946   0.1931   0.2836  -0.0533  -0.0536  -0.0776   0.00    0.0
2026/01/15 01:25:00.000   67.857349706   20.968466554   391.2881   6   7   0.1935   0.1923   0.2807  -0.0534  -0.0528  -0.0784   0.00    0.0
2026/01/15 01:26:00.000   67.857349701   20.968466385   391.2851   6  14   0.1914   0.1910   0.2756  -0.0538  -0.0509  -0.0799   0.00    0.0
2026/01/15 01:26:30.000   67.857349708   20.968466353   391.2821   6   7   0.1903   0.1902   0.2726  -0.0539  -0.0502  -0.0804   0.00    0.0
2026/01/15 01:27:00.000   67.857349733   20.968466310   391.2783   6  13   0.1888   0.1895   0.2692  -0.0542  -0.0498  -0.0819   0.00    0.0
2026/01/15 01:27:30.000   67.857349764   20.968466330   391.2713   6  14   0.1871   0.1886   0.2644  -0.0545  -0.0483  -0.0834   0.00    0.0
2026/01/15 01:28:00.000   67.857349808   20.968466257   391.2644   6  14   0.1853   0.1878   0.2598  -0.0548  -0.0469  -0.0848   0.00    0.0
2026/01/15 01:28:30.000   67.857349850   20.968466225   391.2564   6  15   0.1836   0.1870   0.2554  -0.0552  -0.0456  -0.0859   0.00    0.0
2026/01/15 01:29:00.000   67.857349869   20.968466154   391.2523   6  16   0.1819   0.1862   0.2511  -0.0555  -0.0443  -0.0869   0.00    0.0
2026/01/15 01:29:30.000   67.857349890   20.968466106   391.2474   6  15   0.1802   0.1854   0.2469  -0.0558  -0.0431  -0.0877   0.00    0.0
2026/01/15 01:30:00.000   67.857349925   20.968466071   391.2410   6  14   0.1785   0.1846   0.2429  -0.0562  -0.0419  -0.0884   0.00    0.0
2026/01/15 01:30:30.000   67.857349984   20.968466017   391.2323   6  15   0.1768   0.1838   0.2389  -0.0565  -0.0407  -0.0889   0.00    0.0
2026/01/15 01:31:00.000   67.857350027   20.968466039   391.2228   6  15   0.1751   0.1830   0.2351  -0.0568  -0.0395  -0.0893   0.00    0.0
2026/01/15 01:31:30.000   67.857350068   20.968465972   391.2171   6  16   0.1734   0.1821   0.2314  -0.0571  -0.0384  -0.0897   0.00    0.0
2026/01/15 01:32:00.000   67.857350097   20.968465922   391.2119   6  15   0.1718   0.1813   0.2277  -0.0575  -0.0374  -0.0899   0.00    0.0
2026/01/15 01:32:30.000   67.857350133   20.968465920   391.2045   6  14   0.1702   0.1805   0.2242  -0.0578  -0.0364  -0.0900   0.00    0.0
2026/01/15 01:33:00.000   67.857350180   20.968465886   391.1964   6  15   0.1685   0.1797   0.2208  -0.0582  -0.0355  -0.0901   0.00    0.0
2026/01/15 01:33:30.000   67.857350230   20.968465837   391.1899   6  15   0.1669   0.1789   0.2174  -0.0585  -0.0346  -0.0900   0.00    0.0
2026/01/15 01:34:00.000   67.857350265   20.968465770   391.1843   6  15   0.1653   0.1781   0.2141  -0.0588  -0.0337  -0.0899   0.00    0.0
2026/01/15 01:34:30.000   67.857350304   20.968465818   391.1780   6  15   0.1637   0.1773   0.2109  -0.0591  -0.0328  -0.0898   0.00    0.0
2026/01/15 01:35:00.000   67.857350328   20.968465757   391.1734   6  15   0.1621   0.1764   0.2078  -0.0594  -0.0320  -0.0896   0.00    0.0
2026/01/15 01:35:30.000   67.857350360   20.968465819   391.1678   6  16   0.1606   0.1756   0.2048  -0.0597  -0.0312  -0.0893   0.00    0.0
2026/01/15 01:36:00.000   67.857350400   20.968465734   391.1625   6  16   0.1590   0.1748   0.2018  -0.0600  -0.0305  -0.0890   0.00    0.0
2026/01/15 01:36:30.000   67.857350408   20.968465715   391.1595   6  16   0.1578   0.1741   0.1991  -0.0609  -0.0287  -0.0892   0.00    0.0
2026/01/15 01:37:00.000   67.857350432   20.968465728   391.1544   6  16   0.1566   0.1734   0.1965  -0.0617  -0.0269  -0.0893   0.00    0.0
2026/01/15 01:37:30.000   67.857350435   20.968465702   391.1524   6  16   0.1555   0.1727   0.1939  -0.0626  -0.0250  -0.0894   0.00    0.0
2026/01/15 01:38:00.000   67.857350441   20.968465755   391.1503   6  16   0.1543   0.1721   0.1913  -0.0634  -0.0230  -0.0895   0.00    0.0
2026/01/15 01:38:30.000   67.857350451   20.968465755   391.1466   6  16   0.1532   0.1714   0.1889  -0.0641  -0.0209  -0.0895   0.00    0.0
2026/01/15 01:39:00.000   67.857350461   20.968465715   391.1432   6  16   0.1520   0.1707   0.1865  -0.0649  -0.0186  -0.0894   0.00    0.0
2026/01/15 01:39:30.000   67.857350479   20.968465656   391.1393   6  16   0.1509   0.1700   0.1841  -0.0656  -0.0161  -0.0894   0.00    0.0
2026/01/15 01:40:00.000   67.857350499   20.968465698   391.1349   6  16   0.1498   0.1693   0.1818  -0.0663  -0.0132  -0.0892   0.00    0.0
2026/01/15 01:40:30.000   67.857350518   20.968465646   391.1317   6  16   0.1487   0.1687   0.1795  -0.0670  -0.0097  -0.0891   0.00    0.0
2026/01/15 01:41:00.000   67.857350518   20.968465652   391.1289   6  16   0.1476   0.1680   0.1772  -0.0677  -0.0038  -0.0889   0.00    0.0
2026/01/15 01:41:30.000   67.857350521   20.968465636   391.1266   6  16   0.1465   0.1673   0.1750  -0.0683   0.0079  -0.0887   0.00    0.0
2026/01/15 01:42:00.000   67.857350545   20.968465646   391.1221   6  16   0.1454   0.1666   0.1729  -0.0690   0.0116  -0.0884   0.00    0.0
2026/01/15 01:42:30.000   67.857350564   20.968465667   391.1185   6  16   0.1443   0.1659   0.1707  -0.0696   0.0143  -0.0881   0.00    0.0
2026/01/15 01:43:00.000   67.857350582   20.968465675   391.1158   6  16   0.1433   0.1653   0.1687  -0.0702   0.0164  -0.0878   0.00    0.0
2026/01/15 01:43:30.000   67.857350594   20.968465720   391.1122   6  16   0.1422   0.1646   0.1666  -0.0707   0.0183  -0.0875   0.00    0.0
2026/01/15 01:44:00.000   67.857350603   20.968465747   391.1092   6  16   0.1411   0.1639   0.1646  -0.0712   0.0199  -0.0871   0.00    0.0
2026/01/15 01:44:30.000   67.857350632   20.968465747   391.1052   6  16   0.1401   0.1632   0.1626  -0.0717   0.0213  -0.0868   0.00    0.0
2026/01/15 01:45:00.000   67.857350657   20.968465728   391.1005   6  16   0.1391   0.1625   0.1607  -0.0722   0.0226  -0.0864   0.00    0.0
2026/01/15 01:45:30.000   67.857350674   20.968465705   391.0969   6  16   0.1380   0.1619   0.1588  -0.0727   0.0238  -0.0860   0.00    0.0
2026/01/15 01:46:00.000   67.857350696   20.968465663   391.0939   6  16   0.1370   0.1612   0.1569  -0.0732   0.0249  -0.0855   0.00    0.0
2026/01/15 01:46:30.000   67.857350713   20.968465627   391.0905   6  16   0.1360   0.1606   0.1551  -0.0736   0.0260  -0.0851   0.00    0.0
2026/01/15 01:47:00.000   67.857350724   20.968465653   391.0869   6  16   0.1350   0.1599   0.1533  -0.0741   0.0270  -0.0847   0.00    0.0
2026/01/15 01:47:30.000   67.857350739   20.968465660   391.0832   6  16   0.1341   0.1593   0.1515  -0.0746   0.0279  -0.0843   0.00    0.0
2026/01/15 01:48:00.000   67.857350751   20.968465662   391.0805   6  16   0.1332   0.1587   0.1498  -0.0751   0.0287  -0.0838   0.00    0.0
2026/01/15 01:48:30.000   67.857350774   20.968465618   391.0764   6  16   0.1323   0.1581   0.1481  -0.0756   0.0295  -0.0834   0.00    0.0
2026/01/15 01:49:00.000   67.857350787   20.968465606   391.0728   6  16   0.1314   0.1575   0.1464  -0.0760   0.0302  -0.0829   0.00    0.0
2026/01/15 01:49:30.000   67.857350797   20.968465619   391.0694   6  17   0.1305   0.1569   0.1447  -0.0764   0.0309  -0.0824   0.00    0.0
2026/01/15 01:50:00.000   67.857350815   20.968465608   391.0661   6  17   0.1296   0.1563   0.1431  -0.0768   0.0315  -0.0819   0.00    0.0
2026/01/15 01:50:30.000   67.857350831   20.968465617   391.0625   6  17   0.1287   0.1557   0.1415  -0.0772   0.0321  -0.0814   0.00    0.0
2026/01/15 01:51:00.000   67.857350853   20.968465601   391.0593   6  17   0.1278   0.1551   0.1399  -0.0776   0.0326  -0.0809   0.00    0.0
2026/01/15 01:51:30.000   67.857350872   20.968465581   391.0562   6  17   0.1269   0.1545   0.1384  -0.0780   0.0331  -0.0804   0.00    0.0
2026/01/15 01:52:00.000   67.857350894   20.968465530   391.0525   6  17   0.1260   0.1540   0.1368  -0.0783   0.0336  -0.0799   0.00    0.0
2026/01/15 01:52:30.000   67.857350902   20.968465506   391.0502   6  17   0.1252   0.1534   0.1353  -0.0786   0.0341  -0.0794   0.00    0.0
2026/01/15 01:53:00.000   67.857350921   20.968465501   391.0466   6  17   0.1244   0.1528   0.1338  -0.0789   0.0345  -0.0789   0.00    0.0
2026/01/15 01:53:30.000   67.857350937   20.968465470   391.0427   6  17   0.1235   0.1522   0.1324  -0.0792   0.0349  -0.0783   0.00    0.0
2026/01/15 01:54:00.000   67.857350958   20.968465464   391.0387   6  17   0.1227   0.1516   0.1309  -0.0795   0.0353  -0.0778   0.00    0.0
2026/01/15 01:54:30.000   67.857350980   20.968465397   391.0344   6  17   0.1219   0.1510   0.1295  -0.0797   0.0356  -0.0773   0.00    0.0
2026/01/15 01:55:00.000   67.857350997   20.968465413   391.0309   6  17   0.1211   0.1504   0.1281  -0.0800   0.0359  -0.0767   0.00    0.0
2026/01/15 01:55:30.000   67.857351015   20.968465386   391.0278   6  17   0.1203   0.1498   0.1267  -0.0802   0.0362  -0.0762   0.00    0.0
2026/01/15 01:56:00.000   67.857351033   20.968465356   391.0246   6  17   0.1195   0.1492   0.1254  -0.0804   0.0365  -0.0757   0.00    0.0
2026/01/15 01:56:30.000   67.857351045   20.968465354   391.0221   6  17   0.1187   0.1486   0.1240  -0.0806   0.0368  -0.0751   0.00    0.0
2026/01/15 01:57:00.000   67.857351068   20.968465328   391.0186   6  17   0.1179   0.1480   0.1227  -0.0808   0.0370  -0.0746   0.00    0.0
2026/01/15 01:57:30.000   67.857351083   20.968465305   391.0149   6  18   0.1171   0.1474   0.1214  -0.0809   0.0372  -0.0741   0.00    0.0
2026/01/15 01:58:00.000   67.857351100   20.968465270   391.0116   6  18   0.1164   0.1468   0.1201  -0.0810   0.0373  -0.0735   0.00    0.0
2026/01/15 01:58:30.000   67.857351116   20.968465237   391.0086   6  18   0.1156   0.1461   0.1189  -0.0811   0.0374  -0.0730   0.00    0.0
2026/01/15 01:59:00.000   67.857351127   20.968465212   391.0054   6  18   0.1148   0.1455   0.1176  -0.0812   0.0375  -0.0724   0.00    0.0
2026/01/15 01:59:30.000   67.857351141   20.968465198   391.0016   6  18   0.1141   0.1449   0.1164  -0.0813   0.0376  -0.0719   0.00    0.0
2026/01/15 02:00:00.000   67.857351153   20.968465176   390.9989   6  18   0.1134   0.1442   0.1152  -0.0813   0.0377  -0.0713   0.00    0.0
