% program   : RTKLIB ver.EX 2.5.0
% inp file  : C:\PPP_PROJECT\New_Data\obs\RNXDATA\WUH200CHN_R_20260150000_01D_30S_MO.rnx
% inp file  : C:\PPP_PROJECT\New_Data\nav\BRDC00IGS_R_20260150000_01D_MN.rnx
% inp file  : C:\PPP_PROJECT\New_Data\DATA_FINAL_ANT_EXTRA\COD0MGXFIN_20260150000_01D_05M_ORB.SP3
% inp file  : C:\PPP_PROJECT\New_Data\DATA_FINAL_ANT_EXTRA\COD0MGXFIN_20260150000_01D_30S_CLK.CLK
% inp file  : .
% inp file  : .
% obs start : 2026/01/15 00:00:00.0 GPST (week2401 345600.0s)
% obs end   : 2026/01/15 02:00:00.0 GPST (week2401 352800.0s)
% pos mode  : PPP Static
% freqs     : L1+L2/E5b
% solution  : Forward
% elev mask : 15.0 deg
% dynamics  : on
% tidecorr  :
% ionos opt : Iono-Free LC
% tropo opt : Saastamoinen
% ephemeris : Precise
% navi sys  : GPS Galileo BDS
% antenna1  : JAVRINGANT_G5T  NONE  ( 0.0000  0.0000  0.1206)
%
% (lat/lon/height=WGS84/ellipsoidal,Q=1:fix,2:float,3:sbas,4:dgps,5:single,6:ppp,ns=# of satellites)
%  GPST                  latitude(deg) longitude(deg)  height(m)   Q  ns   sdn(m)   sde(m)   sdu(m)  sdne(m)  sdeu(m)  sdun(m) age(s)  ratio
2026/01/15 00:00:00.000   30.531660432  114.357258113    25.2808   6  10   2.6580   3.1518   7.4316   0.3163   1.9961  -2.5096   0.00    0.0
2026/01/15 00:00:30.000   30.531664687  114.357257905    25.3693   6  13   1.8795   2.2346   5.2696   0.2199   1.4193  -1.7775   0.00    0.0
2026/01/15 00:01:00.000   30.531664593  114.357259836    26.1492   6  13   1.5335   1.8263   4.2906   0.1862   1.1589  -1.4471   0.00    0.0
2026/01/15 00:01:30.000   30.531666003  114.357260739    26.5253   6  13   1.3260   1.5820   3.6944   0.1684   1.0002  -1.2473   0.00    0.0
2026/01/15 00:02:00.000   30.531666960  114.357262838    26.7612   6  13   1.1836   1.4146   3.2778   0.1580   0.8888  -1.1091   0.00    0.0
2026/01/15 00:02:30.000   30.531666638  114.357263730    26.7309   6  13   1.0777   1.2907   2.9622   0.1517   0.8037  -1.0057   0.00    0.0
2026/01/15 00:03:00.000   30.531666891  114.357264152    26.5052   6  13   0.9948   1.1939   2.7101   0.1478   0.7351  -0.9242   0.00    0.0
2026/01/15 00:03:30.000   30.531667791  114.357265098    26.5006   6  13   0.9274   1.1156   2.5011   0.1455   0.6775  -0.8576   0.00    0.0
2026/01/15 00:04:00.000   30.531668324  114.357265338    26.6040   6  13   0.8711   1.0503   2.3231   0.1442   0.6278  -0.8017   0.00    0.0
2026/01/15 00:04:30.000   30.531668304  114.357265033    26.6711   6  13   0.8230   0.9948   2.1684   0.1435   0.5840  -0.7538   0.00    0.0
2026/01/15 00:05:00.000   30.531669040  114.357264947    26.6614   6  13   0.7812   0.9468   2.0319   0.1433   0.5448  -0.7120   0.00    0.0
2026/01/15 00:05:30.000   30.531669328  114.357265503    26.6607   6  13   0.7444   0.9047   1.9100   0.1433   0.5092  -0.6752   0.00    0.0
2026/01/15 00:06:00.000   30.531669633  114.357265791    26.6928   6  13   0.7115   0.8673   1.8002   0.1435   0.4767  -0.6425   0.00    0.0
2026/01/15 00:06:30.000   30.531669583  114.357265618    26.6195   6  13   0.6819   0.8338   1.7005   0.1439   0.4467  -0.6130   0.00    0.0
2026/01/15 00:07:00.000   30.531669525  114.357265126    26.6268   6  13   0.6550   0.8035   1.6096   0.1442   0.4189  -0.5862   0.00    0.0
2026/01/15 00:07:30.000   30.531669586  114.357264598    26.7774   6  13   0.6304   0.7759   1.5262   0.1446   0.3930  -0.5619   0.00    0.0
2026/01/15 00:08:00.000   30.531669582  114.357264806    26.8855   6  13   0.6073   0.7496   1.4473   0.1419   0.3646  -0.5412   0.00    0.0
2026/01/15 00:08:30.000   30.531669378  114.357264760    26.9731   6  13   0.5860   0.7255   1.3750   0.1398   0.3386  -0.5219   0.00    0.0
2026/01/15 00:09:00.000   30.531669487  114.357265045    26.9695   6  13   0.5661   0.7033   1.3085   0.1383   0.3146  -0.5038   0.00    0.0
2026/01/15 00:09:30.000   30.531669453  114.357265627    27.0731   6  15   0.5471   0.6809   1.2449   0.1417   0.2821  -0.4829   0.00    0.0
2026/01/15 00:10:00.000   30.531669460  114.357265664    27.1424   6  15   0.5292   0.6603   1.1849   0.1445   0.2540  -0.4649   0.00    0.0
2026/01/15 00:10:30.000   30.531669529  114.357265594    27.1333   6  14   0.5130   0.6427   1.1326   0.1429   0.2359  -0.4504   0.00    0.0
2026/01/15 00:11:00.000   30.531669767  114.357265650    27.1292   6  14   0.4977   0.6262   1.0837   0.1415   0.2187  -0.4367   0.00    0.0
2026/01/15 00:11:30.000   30.531669930  114.357266066    27.1584   6  14   0.4833   0.6106   1.0380   0.1403   0.2024  -0.4237   0.00    0.0
2026/01/15 00:12:00.000   30.531670051  114.357266377    27.1449   6  14   0.4695   0.5959   0.9952   0.1393   0.1870  -0.4112   0.00    0.0
2026/01/15 00:12:30.000   30.531670215  114.357266561    27.1933   6  14   0.4565   0.5820   0.9549   0.1384   0.1722  -0.3993   0.00    0.0
2026/01/15 00:13:00.000   30.531670452  114.357266378    27.2403   6  15   0.4440   0.5683   0.9167   0.1366   0.1559  -0.3884   0.00    0.0
2026/01/15 00:13:30.000   30.531670805  114.357266576    27.2424   6  15   0.4321   0.5553   0.8807   0.1351   0.1404  -0.3778   0.00    0.0
2026/01/15 00:14:00.000   30.531670994  114.357266560    27.2831   6  15   0.4207   0.5429   0.8469   0.1337   0.1255  -0.3676   0.00    0.0
2026/01/15 00:14:30.000   30.531671118  114.357266458    27.3005   6  15   0.4097   0.5311   0.8150   0.1325   0.1109  -0.3579   0.00    0.0
2026/01/15 00:15:00.000   30.531671274  114.357266323    27.3157   6  15   0.3993   0.5199   0.7849   0.1313   0.0966  -0.3484   0.00    0.0
2026/01/15 00:15:30.000   30.531671524  114.357266557    27.3291   6  16   0.3890   0.5084   0.7556   0.1317   0.0758  -0.3386   0.00    0.0
2026/01/15 00:16:00.000   30.531671640  114.357266675    27.3733   6  16   0.3792   0.4974   0.7280   0.1318   0.0526  -0.3292   0.00    0.0
2026/01/15 00:16:30.000   30.531671904  114.357266625    27.3664   6  16   0.3698   0.4869   0.7020   0.1317   0.0157  -0.3203   0.00    0.0
2026/01/15 00:17:00.000   30.531672122  114.357266603    27.3634   6  15   0.3610   0.4775   0.6781   0.1304  -0.0340  -0.3124   0.00    0.0
2026/01/15 00:17:30.000   30.531672188  114.357266604    27.3758   6  15   0.3525   0.4684   0.6554   0.1291  -0.0486  -0.3047   0.00    0.0
2026/01/15 00:18:00.000   30.531672322  114.357266802    27.3802   6  16   0.3441   0.4591   0.6333   0.1288  -0.0630  -0.2968   0.00    0.0
2026/01/15 00:18:30.000   30.531672512  114.357267018    27.3853   6  16   0.3361   0.4501   0.6124   0.1284  -0.0727  -0.2893   0.00    0.0
2026/01/15 00:19:00.000   30.531672659  114.357267030    27.3921   6  16   0.3284   0.4415   0.5926   0.1278  -0.0799  -0.2821   0.00    0.0
2026/01/15 00:19:30.000   30.531672818  114.357267219    27.3958   6  15   0.3211   0.4336   0.5741   0.1265  -0.0830  -0.2755   0.00    0.0
2026/01/15 00:20:00.000   30.531672984  114.357267515    27.4015   6  16   0.3139   0.4256   0.5562   0.1259  -0.0876  -0.2688   0.00    0.0
2026/01/15 00:20:30.000   30.531673115  114.357267655    27.4217   6  16   0.3069   0.4178   0.5391   0.1251  -0.0911  -0.2624   0.00    0.0
2026/01/15 00:21:00.000   30.531673173  114.357267737    27.4341   6  16   0.3002   0.4103   0.5229   0.1243  -0.0939  -0.2563   0.00    0.0
2026/01/15 00:21:30.000   30.531673250  114.357267769    27.4439   6  16   0.2938   0.4030   0.5074   0.1235  -0.0960  -0.2504   0.00    0.0
2026/01/15 00:22:00.000   30.531673416  114.357267880    27.4318   6  16   0.2875   0.3959   0.4927   0.1226  -0.0976  -0.2447   0.00    0.0
2026/01/15 00:22:30.000   30.531673459  114.357267908    27.4225   6   8   0.2835   0.3898   0.4826   0.1206  -0.0953  -0.2412   0.00    0.0
2026/01/15 00:23:00.000   30.531673494  114.357267939    27.4144   6   8   0.2796   0.3838   0.4729   0.1188  -0.0929  -0.2377   0.00    0.0
2026/01/15 00:23:30.000   30.531673593  114.357267948    27.4169   6  16   0.2735   0.3772   0.4590   0.1180  -0.0945  -0.2322   0.00    0.0
2026/01/15 00:24:00.000   30.531673697  114.357268071    27.4198   6  16   0.2677   0.3708   0.4458   0.1172  -0.0957  -0.2268   0.00    0.0
2026/01/15 00:24:30.000   30.531673702  114.357267992    27.4196   6   9   0.2641   0.3653   0.4372   0.1154  -0.0934  -0.2238   0.00    0.0
2026/01/15 00:25:00.000   30.531673780  114.357268021    27.4275   6  16   0.2585   0.3591   0.4248   0.1146  -0.0944  -0.2186   0.00    0.0
2026/01/15 00:25:30.000   30.531673855  114.357267961    27.4168   6  13   0.2539   0.3536   0.4138   0.1141  -0.0940  -0.2132   0.00    0.0
2026/01/15 00:26:00.000   30.531673853  114.357267881    27.4115   6   9   0.2506   0.3484   0.4061   0.1126  -0.0923  -0.2104   0.00    0.0
2026/01/15 00:26:30.000   30.531673935  114.357267858    27.3977   6   9   0.2474   0.3433   0.4005   0.1112  -0.0893  -0.2076   0.00    0.0
2026/01/15 00:27:00.000   30.531674020  114.357267807    27.3946   6   9   0.2442   0.3384   0.3949   0.1098  -0.0863  -0.2048   0.00    0.0
2026/01/15 00:27:30.000   30.531674174  114.357267786    27.3848   6   9   0.2411   0.3335   0.3895   0.1085  -0.0834  -0.2021   0.00    0.0
2026/01/15 00:28:00.000   30.531674277  114.357267785    27.3858   6  14   0.2366   0.3283   0.3805   0.1081  -0.0820  -0.1963   0.00    0.0
2026/01/15 00:28:30.000   30.531674370  114.357267826    27.3918   6   8   0.2337   0.3237   0.3753   0.1068  -0.0792  -0.1938   0.00    0.0
2026/01/15 00:29:00.000   30.531674396  114.357267781    27.3980   6   8   0.2307   0.3192   0.3702   0.1054  -0.0764  -0.1914   0.00    0.0
2026/01/15 00:29:30.000   30.531674437  114.357267774    27.4069   6   8   0.2279   0.3147   0.3651   0.1041  -0.0737  -0.1889   0.00    0.0
2026/01/15 00:30:00.000   30.531674481  114.357267754    27.4167   6   8   0.2251   0.3104   0.3601   0.1028  -0.0709  -0.1866   0.00    0.0
2026/01/15 00:30:30.000   30.531674570  114.357267688    27.4210   6   8   0.2223   0.3062   0.3551   0.1015  -0.0683  -0.1842   0.00    0.0
2026/01/15 00:31:00.000   30.531674599  114.357267703    27.4292   6   8   0.2195   0.3020   0.3502   0.1002  -0.0656  -0.1819   0.00    0.0
2026/01/15 00:31:30.000   30.531674624  114.357267689    27.4349   6   8   0.2168   0.2979   0.3453   0.0989  -0.0630  -0.1797   0.00    0.0
2026/01/15 00:32:00.000   30.531674677  114.357267769    27.4355   6   8   0.2141   0.2939   0.3406   0.0976  -0.0604  -0.1774   0.00    0.0
2026/01/15 00:32:30.000   30.531674705  114.357267793    27.4385   6   8   0.2115   0.2899   0.3358   0.0964  -0.0579  -0.1752   0.00    0.0
2026/01/15 00:33:30.000   30.531674782  114.357267810    27.4312   6   8   0.2080   0.2844   0.3303   0.0945  -0.0547  -0.1722   0.00    0.0
2026/01/15 00:34:30.000   30.531674799  114.357267707    27.4192   6   7   0.2056   0.2790   0.3246   0.0932  -0.0512  -0.1690   0.00    0.0
2026/01/15 01:00:30.000   30.531675030  114.357268082    27.2345   6  13   0.1727   0.2272   0.2968   0.0745  -0.0453  -0.1415   0.00    0.0
2026/01/15 01:01:00.000   30.531675016  114.357268082    27.2324   6  13   0.1722   0.2264   0.2964   0.0742  -0.0450  -0.1411   0.00    0.0
2026/01/15 01:01:30.000   30.531675033  114.357268110    27.2239   6   6   0.1717   0.2257   0.2961   0.0739  -0.0448  -0.1408   0.00    0.0
2026/01/15 01:02:00.000   30.531675058  114.357268126    27.2159   6  14   0.1712   0.2250   0.2957   0.0735  -0.0445  -0.1404   0.00    0.0
2026/01/15 01:02:30.000   30.531675019  114.357268167    27.2137   6  14   0.1707   0.2243   0.2953   0.0732  -0.0443  -0.1400   0.00    0.0
2026/01/15 01:03:00.000   30.531675005  114.357268180    27.2127   6  14   0.1701   0.2235   0.2949   0.0729  -0.0440  -0.1396   0.00    0.0
2026/01/15 01:03:30.000   30.531674994  114.357268204    27.2082   6  14   0.1696   0.2228   0.2945   0.0726  -0.0437  -0.1392   0.00    0.0
2026/01/15 01:04:00.000   30.531674970  114.357268191    27.2057   6  14   0.1691   0.2221   0.2941   0.0723  -0.0434  -0.1388   0.00    0.0
2026/01/15 01:04:30.000   30.531674986  114.357268166    27.2038   6  14   0.1686   0.2214   0.2936   0.0719  -0.0431  -0.1384   0.00    0.0
2026/01/15 01:05:00.000   30.531674979  114.357268164    27.2002   6   4   0.1681   0.2206   0.2933   0.0716  -0.0429  -0.1380   0.00    0.0
2026/01/15 01:05:30.000   30.531675002  114.357268171    27.1958   6  14   0.1676   0.2199   0.2928   0.0713  -0.0425  -0.1376   0.00    0.0
2026/01/15 01:06:00.000   30.531675005  114.357268165    27.1923   6  14   0.1670   0.2192   0.2923   0.0710  -0.0422  -0.1372   0.00    0.0
2026/01/15 01:06:30.000   30.531675026  114.357268173    27.1890   6  14   0.1665   0.2184   0.2918   0.0706  -0.0418  -0.1368   0.00    0.0
2026/01/15 01:07:00.000   30.531675023  114.357268159    27.1879   6  14   0.1659   0.2177   0.2912   0.0703  -0.0414  -0.1363   0.00    0.0
2026/01/15 01:08:00.000   30.531675011  114.357268108    27.1748   6   4   0.1649   0.2163   0.2905   0.0695  -0.0406  -0.1356   0.00    0.0
2026/01/15 01:09:00.000   30.531674977  114.357268076    27.1646   6   7   0.1639   0.2149   0.2897   0.0688  -0.0398  -0.1349   0.00    0.0
2026/01/15 01:09:30.000   30.531675000  114.357268104    27.1619   6  14   0.1632   0.2141   0.2888   0.0684  -0.0394  -0.1343   0.00    0.0
2026/01/15 01:17:30.000   30.531675136  114.357268168    27.0979   6  14   0.1554   0.2036   0.2812   0.0634  -0.0333  -0.1284   0.00    0.0
2026/01/15 01:18:00.000   30.531675199  114.357268248    27.1059   6  14   0.1538   0.2022   0.2785   0.0626  -0.0325  -0.1269   0.00    0.0
2026/01/15 01:28:30.000   30.531675329  114.357268354    27.0070   6   5   0.1468   0.1917   0.2730   0.0574  -0.0232  -0.1223   0.00    0.0
2026/01/15 01:39:00.000   30.531675260  114.357268233    26.9312   6   4   0.1408   0.1826   0.2680   0.0525  -0.0066  -0.1189   0.00    0.0
