% program   : RTKPOST ver.demo5 b34d
% inp file  : E:\Master courses\SNDP-PROJECT\New_Data\obs\RNXDATA\KIRU00SWE_R_20260150000_01D_30S_MO.rnx
% inp file  : E:\Master courses\SNDP-PROJECT\New_Data\nav\BRDC00IGS_R_20260150000_01D_MN.rnx
% obs start : 2026/01/15 00:00:00.0 GPST (week2401 345600.0s)
% obs end   : 2026/01/15 23:59:30.0 GPST (week2401 431970.0s)
% pos mode  : PPP Static
% solution  : Forward
% elev mask : 15.0 deg
% dynamics  : off
% tidecorr  : off
% tropo opt : Saastamoinen
% ephemeris : Broadcast
% navi sys  : GPS
% antenna1  :                       ( 0.0000  0.0000  0.0620)
%
% (lat/lon/height=WGS84/ellipsoidal,Q=1:fix,2:float,3:sbas,4:dgps,5:single,6:ppp,ns=# of satellites)
%  GPST                  latitude(deg) longitude(deg)  height(m)   Q  ns   sdn(m)   sde(m)   sdu(m)  sdne(m)  sdeu(m)  sdun(m) age(s)  ratio
2026/01/15 00:00:00.000   67.857336178   20.968467794   376.0952   6  10   1.7875   1.5108   4.7002  -0.5368  -1.2306   1.7289   0.00    0.0
2026/01/15 00:00:30.000   67.857337338   20.968467850   375.6280   6  10   1.2667   1.0705   3.3320  -0.3840  -0.8770   1.2266   0.00    0.0
2026/01/15 00:01:00.000   67.857336304   20.968468697   375.5765   6  10   1.0353   0.8751   2.7230  -0.3167  -0.7202   1.0037   0.00    0.0
2026/01/15 00:01:30.000   67.857336264   20.968468601   375.5689   6  10   0.8974   0.7587   2.3594  -0.2766  -0.6271   0.8704   0.00    0.0
2026/01/15 00:02:00.000   67.857336814   20.968469417   375.4686   6  10   0.8033   0.6793   2.1111  -0.2495  -0.5639   0.7795   0.00    0.0
2026/01/15 00:02:30.000   67.857336771   20.968469627   375.4049   6  10   0.7339   0.6207   1.9276  -0.2296  -0.5173   0.7125   0.00    0.0
2026/01/15 00:03:00.000   67.857336533   20.968469312   375.3228   6  10   0.6799   0.5752   1.7850  -0.2143  -0.4813   0.6604   0.00    0.0
2026/01/15 00:03:30.000   67.857336519   20.968469371   375.2501   6  10   0.6364   0.5386   1.6698  -0.2021  -0.4523   0.6185   0.00    0.0
2026/01/15 00:04:00.000   67.857337089   20.968469616   375.4278   6  11   0.5959   0.5080   1.5585  -0.1949  -0.4324   0.5694   0.00    0.0
2026/01/15 00:04:30.000   67.857337613   20.968470224   375.4878   6  11   0.5624   0.4823   1.4672  -0.1883  -0.4147   0.5303   0.00    0.0
2026/01/15 00:05:00.000   67.857337571   20.968470557   375.4345   6  11   0.5341   0.4601   1.3905  -0.1823  -0.3992   0.4983   0.00    0.0
2026/01/15 00:05:30.000   67.857337669   20.968470888   375.3987   6  11   0.5098   0.4409   1.3248  -0.1769  -0.3853   0.4714   0.00    0.0
2026/01/15 00:06:00.000   67.857337617   20.968471146   375.3987   6  11   0.4886   0.4239   1.2676  -0.1719  -0.3729   0.4485   0.00    0.0
2026/01/15 00:06:30.000   67.857337539   20.968471552   375.3902   6  11   0.4699   0.4088   1.2174  -0.1675  -0.3617   0.4287   0.00    0.0
2026/01/15 00:07:00.000   67.857337649   20.968471903   375.4037   6  11   0.4532   0.3953   1.1726  -0.1634  -0.3516   0.4113   0.00    0.0
2026/01/15 00:07:30.000   67.857337791   20.968472164   375.4068   6  11   0.4382   0.3831   1.1325  -0.1597  -0.3423   0.3959   0.00    0.0
2026/01/15 00:08:00.000   67.857337731   20.968472771   375.4305   6  11   0.4247   0.3719   1.0963  -0.1563  -0.3339   0.3822   0.00    0.0
2026/01/15 00:08:30.000   67.857337670   20.968473275   375.4184   6  11   0.4123   0.3618   1.0633  -0.1532  -0.3261   0.3699   0.00    0.0
2026/01/15 00:09:00.000   67.857337738   20.968473445   375.4246   6  11   0.4011   0.3524   1.0332  -0.1503  -0.3189   0.3587   0.00    0.0
2026/01/15 00:09:30.000   67.857337624   20.968473955   375.4673   6  10   0.3917   0.3439   1.0065  -0.1483  -0.3117   0.3467   0.00    0.0
2026/01/15 00:10:00.000   67.857337435   20.968474477   375.5288   6  10   0.3830   0.3360   0.9818  -0.1463  -0.3050   0.3357   0.00    0.0
2026/01/15 00:10:30.000   67.857337301   20.968474658   375.5893   6  10   0.3749   0.3286   0.9589  -0.1445  -0.2988   0.3257   0.00    0.0
2026/01/15 00:11:00.000   67.857337085   20.968475137   375.5891   6  10   0.3673   0.3217   0.9374  -0.1428  -0.2930   0.3165   0.00    0.0
2026/01/15 00:11:30.000   67.857336806   20.968475471   375.5920   6  10   0.3601   0.3153   0.9174  -0.1411  -0.2876   0.3080   0.00    0.0
2026/01/15 00:12:00.000   67.857336655   20.968475847   375.6136   6  10   0.3534   0.3093   0.8986  -0.1395  -0.2825   0.3001   0.00    0.0
2026/01/15 00:12:30.000   67.857336464   20.968476102   375.6352   6  10   0.3471   0.3036   0.8809  -0.1380  -0.2777   0.2928   0.00    0.0
2026/01/15 00:13:00.000   67.857336336   20.968476391   375.6562   6  10   0.3411   0.2982   0.8642  -0.1366  -0.2732   0.2861   0.00    0.0
2026/01/15 00:13:30.000   67.857336214   20.968476634   375.6706   6  10   0.3355   0.2932   0.8484  -0.1352  -0.2689   0.2797   0.00    0.0
2026/01/15 00:14:00.000   67.857336111   20.968477112   375.6930   6  10   0.3301   0.2884   0.8335  -0.1339  -0.2649   0.2738   0.00    0.0
2026/01/15 00:14:30.000   67.857336033   20.968477445   375.7234   6  10   0.3250   0.2838   0.8193  -0.1327  -0.2610   0.2683   0.00    0.0
2026/01/15 00:15:00.000   67.857335935   20.968477759   375.7333   6  10   0.3201   0.2795   0.8057  -0.1315  -0.2574   0.2631   0.00    0.0
2026/01/15 00:15:30.000   67.857335824   20.968478028   375.7659   6  10   0.3155   0.2754   0.7928  -0.1303  -0.2539   0.2582   0.00    0.0
2026/01/15 00:16:00.000   67.857335773   20.968478355   375.7814   6  10   0.3110   0.2715   0.7805  -0.1292  -0.2505   0.2536   0.00    0.0
2026/01/15 00:16:30.000   67.857335701   20.968478519   375.7967   6  10   0.3068   0.2677   0.7688  -0.1282  -0.2474   0.2492   0.00    0.0
2026/01/15 00:17:00.000   67.857335615   20.968478707   375.8106   6  10   0.3027   0.2642   0.7575  -0.1271  -0.2443   0.2451   0.00    0.0
2026/01/15 00:17:30.000   67.857335510   20.968478889   375.8227   6  10   0.2988   0.2607   0.7467  -0.1262  -0.2414   0.2412   0.00    0.0
2026/01/15 00:18:00.000   67.857335418   20.968479193   375.8309   6  10   0.2951   0.2575   0.7364  -0.1252  -0.2386   0.2375   0.00    0.0
2026/01/15 00:18:30.000   67.857335340   20.968479552   375.8598   6  10   0.2915   0.2543   0.7265  -0.1243  -0.2359   0.2339   0.00    0.0
2026/01/15 00:19:00.000   67.857335274   20.968479673   375.8720   6  10   0.2881   0.2513   0.7169  -0.1234  -0.2333   0.2306   0.00    0.0
2026/01/15 00:19:30.000   67.857335211   20.968479795   375.8857   6  10   0.2848   0.2484   0.7077  -0.1225  -0.2308   0.2274   0.00    0.0
2026/01/15 00:20:00.000   67.857335209   20.968479875   375.9080   6  10   0.2816   0.2456   0.6989  -0.1217  -0.2283   0.2243   0.00    0.0
2026/01/15 00:20:30.000   67.857335212   20.968480124   375.9326   6  10   0.2785   0.2429   0.6904  -0.1209  -0.2260   0.2215   0.00    0.0
2026/01/15 00:21:00.000   67.857335149   20.968480505   375.9491   6  10   0.2755   0.2403   0.6821  -0.1201  -0.2238   0.2187   0.00    0.0
2026/01/15 00:21:30.000   67.857335041   20.968480856   375.9530   6  10   0.2726   0.2378   0.6742  -0.1194  -0.2216   0.2161   0.00    0.0
2026/01/15 00:22:00.000   67.857334975   20.968481090   375.9572   6  10   0.2699   0.2353   0.6665  -0.1187  -0.2195   0.2136   0.00    0.0
2026/01/15 00:22:30.000   67.857334946   20.968481365   375.9592   6  10   0.2672   0.2330   0.6591  -0.1180  -0.2174   0.2112   0.00    0.0
2026/01/15 00:23:00.000   67.857334947   20.968481619   375.9631   6  10   0.2646   0.2307   0.6519  -0.1173  -0.2154   0.2089   0.00    0.0
2026/01/15 00:23:30.000   67.857334876   20.968481989   375.9548   6  10   0.2621   0.2285   0.6449  -0.1166  -0.2135   0.2067   0.00    0.0
2026/01/15 00:24:00.000   67.857334799   20.968482407   375.9434   6  10   0.2596   0.2264   0.6381  -0.1160  -0.2116   0.2045   0.00    0.0
2026/01/15 00:24:30.000   67.857334737   20.968482756   375.9215   6  10   0.2573   0.2243   0.6316  -0.1153  -0.2098   0.2025   0.00    0.0
2026/01/15 00:25:00.000   67.857334726   20.968483062   375.9243   6  10   0.2550   0.2223   0.6252  -0.1147  -0.2080   0.2005   0.00    0.0
2026/01/15 00:25:30.000   67.857334728   20.968483465   375.9384   6   9   0.2528   0.2205   0.6196  -0.1140  -0.2059   0.1990   0.00    0.0
2026/01/15 00:26:00.000   67.857334728   20.968483831   375.9469   6   9   0.2507   0.2186   0.6142  -0.1133  -0.2039   0.1976   0.00    0.0
2026/01/15 00:26:30.000   67.857334743   20.968484151   375.9570   6   9   0.2487   0.2169   0.6090  -0.1126  -0.2020   0.1962   0.00    0.0
2026/01/15 00:27:00.000   67.857334770   20.968484355   375.9761   6   9   0.2467   0.2151   0.6039  -0.1120  -0.2001   0.1949   0.00    0.0
2026/01/15 00:27:30.000   67.857334802   20.968484640   375.9928   6   9   0.2448   0.2135   0.5988  -0.1114  -0.1982   0.1935   0.00    0.0
2026/01/15 00:28:00.000   67.857334810   20.968484869   376.0120   6   9   0.2429   0.2118   0.5939  -0.1108  -0.1965   0.1923   0.00    0.0
2026/01/15 00:28:30.000   67.857334843   20.968485015   376.0435   6   9   0.2411   0.2102   0.5892  -0.1102  -0.1947   0.1911   0.00    0.0
2026/01/15 00:29:00.000   67.857334862   20.968485236   376.0706   6   9   0.2393   0.2087   0.5845  -0.1096  -0.1930   0.1899   0.00    0.0
2026/01/15 00:29:30.000   67.857334903   20.968485344   376.1002   6   9   0.2375   0.2071   0.5799  -0.1090  -0.1914   0.1887   0.00    0.0
2026/01/15 00:30:00.000   67.857334943   20.968485439   376.1284   6   9   0.2358   0.2056   0.5754  -0.1085  -0.1897   0.1876   0.00    0.0
2026/01/15 00:30:30.000   67.857334974   20.968485651   376.1449   6   8   0.2346   0.2043   0.5724  -0.1084  -0.1889   0.1879   0.00    0.0
2026/01/15 00:31:00.000   67.857335017   20.968485885   376.1572   6   8   0.2334   0.2030   0.5695  -0.1084  -0.1881   0.1882   0.00    0.0
2026/01/15 00:31:30.000   67.857335031   20.968486101   376.1793   6   8   0.2322   0.2017   0.5665  -0.1083  -0.1873   0.1885   0.00    0.0
2026/01/15 00:32:00.000   67.857335086   20.968486351   376.1922   6   8   0.2310   0.2005   0.5637  -0.1082  -0.1865   0.1888   0.00    0.0
2026/01/15 00:32:30.000   67.857335134   20.968486499   376.2116   6   8   0.2299   0.1993   0.5608  -0.1081  -0.1857   0.1890   0.00    0.0
2026/01/15 00:33:00.000   67.857335183   20.968486650   376.2321   6   8   0.2287   0.1981   0.5580  -0.1080  -0.1849   0.1892   0.00    0.0
2026/01/15 00:33:30.000   67.857335215   20.968486830   376.2467   6   8   0.2277   0.1969   0.5553  -0.1079  -0.1841   0.1894   0.00    0.0
2026/01/15 00:34:00.000   67.857335213   20.968486973   376.2617   6   8   0.2266   0.1958   0.5526  -0.1078  -0.1834   0.1896   0.00    0.0
2026/01/15 00:34:30.000   67.857335206   20.968487116   376.2818   6   8   0.2255   0.1947   0.5500  -0.1077  -0.1826   0.1897   0.00    0.0
2026/01/15 00:35:00.000   67.857335218   20.968487211   376.3035   6   8   0.2245   0.1936   0.5473  -0.1076  -0.1819   0.1899   0.00    0.0
2026/01/15 00:35:30.000   67.857335240   20.968487392   376.3270   6   8   0.2235   0.1925   0.5447  -0.1075  -0.1811   0.1900   0.00    0.0
2026/01/15 00:36:00.000   67.857335273   20.968487622   376.3387   6   8   0.2225   0.1914   0.5422  -0.1074  -0.1804   0.1901   0.00    0.0
2026/01/15 00:36:30.000   67.857335332   20.968487845   376.3524   6   8   0.2215   0.1904   0.5396  -0.1073  -0.1796   0.1902   0.00    0.0
2026/01/15 00:37:00.000   67.857335362   20.968488016   376.3694   6   8   0.2205   0.1894   0.5371  -0.1072  -0.1789   0.1902   0.00    0.0
2026/01/15 00:37:30.000   67.857335378   20.968488143   376.3908   6   8   0.2196   0.1884   0.5347  -0.1070  -0.1782   0.1902   0.00    0.0
2026/01/15 00:38:00.000   67.857335419   20.968488311   376.4081   6   8   0.2187   0.1874   0.5322  -0.1069  -0.1774   0.1902   0.00    0.0
2026/01/15 00:38:30.000   67.857335480   20.968488487   376.4247   6   8   0.2178   0.1864   0.5298  -0.1068  -0.1767   0.1902   0.00    0.0
2026/01/15 00:39:00.000   67.857335548   20.968488617   376.4442   6   8   0.2168   0.1854   0.5274  -0.1066  -0.1760   0.1902   0.00    0.0
2026/01/15 00:39:30.000   67.857335606   20.968488764   376.4620   6   8   0.2160   0.1845   0.5250  -0.1065  -0.1752   0.1902   0.00    0.0
2026/01/15 00:40:00.000   67.857335638   20.968488881   376.4881   6   8   0.2151   0.1836   0.5226  -0.1063  -0.1745   0.1901   0.00    0.0
2026/01/15 00:40:30.000   67.857335682   20.968488975   376.5113   6   8   0.2142   0.1827   0.5203  -0.1062  -0.1738   0.1900   0.00    0.0
2026/01/15 00:41:00.000   67.857335739   20.968489089   376.5411   6   8   0.2134   0.1818   0.5180  -0.1060  -0.1731   0.1899   0.00    0.0
2026/01/15 00:41:30.000   67.857335791   20.968489151   376.5742   6   8   0.2125   0.1809   0.5157  -0.1059  -0.1723   0.1898   0.00    0.0
2026/01/15 00:42:00.000   67.857335844   20.968489176   376.6108   6   8   0.2117   0.1800   0.5134  -0.1057  -0.1716   0.1897   0.00    0.0
2026/01/15 00:42:30.000   67.857335907   20.968489207   376.6405   6   8   0.2109   0.1792   0.5111  -0.1055  -0.1709   0.1895   0.00    0.0
2026/01/15 00:43:00.000   67.857335999   20.968489210   376.6719   6   8   0.2101   0.1783   0.5089  -0.1054  -0.1701   0.1894   0.00    0.0
2026/01/15 00:43:30.000   67.857336091   20.968489303   376.7063   6   8   0.2093   0.1775   0.5066  -0.1052  -0.1694   0.1892   0.00    0.0
2026/01/15 00:44:00.000   67.857336178   20.968489307   376.7355   6   8   0.2085   0.1767   0.5044  -0.1050  -0.1687   0.1890   0.00    0.0
2026/01/15 00:44:30.000   67.857336350   20.968489236   376.7514   6   9   0.2076   0.1758   0.5021  -0.1047  -0.1681   0.1891   0.00    0.0
2026/01/15 00:45:00.000   67.857336501   20.968489111   376.7742   6   9   0.2068   0.1749   0.4997  -0.1043  -0.1675   0.1891   0.00    0.0
2026/01/15 00:45:30.000   67.857336659   20.968489007   376.7961   6   9   0.2059   0.1741   0.4974  -0.1040  -0.1669   0.1891   0.00    0.0
2026/01/15 00:46:00.000   67.857336828   20.968488983   376.8173   6   9   0.2050   0.1732   0.4951  -0.1037  -0.1664   0.1890   0.00    0.0
2026/01/15 00:46:30.000   67.857337013   20.968488883   376.8341   6   9   0.2042   0.1724   0.4929  -0.1033  -0.1658   0.1889   0.00    0.0
2026/01/15 00:47:00.000   67.857337214   20.968488812   376.8575   6   9   0.2034   0.1716   0.4906  -0.1030  -0.1651   0.1889   0.00    0.0
2026/01/15 00:47:30.000   67.857337422   20.968488681   376.8785   6   9   0.2026   0.1708   0.4884  -0.1027  -0.1645   0.1888   0.00    0.0
2026/01/15 00:48:00.000   67.857337621   20.968488576   376.9075   6   9   0.2018   0.1700   0.4862  -0.1023  -0.1639   0.1886   0.00    0.0
2026/01/15 00:48:30.000   67.857337837   20.968488417   376.9379   6   9   0.2010   0.1692   0.4840  -0.1020  -0.1633   0.1885   0.00    0.0
2026/01/15 00:49:00.000   67.857338049   20.968488212   376.9731   6   9   0.2002   0.1684   0.4818  -0.1016  -0.1626   0.1883   0.00    0.0
2026/01/15 00:49:30.000   67.857338293   20.968488005   377.0048   6   9   0.1994   0.1677   0.4797  -0.1013  -0.1620   0.1882   0.00    0.0
2026/01/15 00:50:00.000   67.857338538   20.968487767   377.0324   6   9   0.1986   0.1669   0.4775  -0.1009  -0.1613   0.1880   0.00    0.0
2026/01/15 00:50:30.000   67.857338780   20.968487516   377.0635   6   9   0.1979   0.1661   0.4754  -0.1006  -0.1607   0.1878   0.00    0.0
2026/01/15 00:51:00.000   67.857339020   20.968487330   377.0987   6   9   0.1971   0.1654   0.4733  -0.1002  -0.1600   0.1875   0.00    0.0
2026/01/15 00:51:30.000   67.857339260   20.968487134   377.1354   6   9   0.1964   0.1646   0.4712  -0.0998  -0.1594   0.1873   0.00    0.0
2026/01/15 00:52:00.000   67.857339482   20.968486890   377.1771   6   9   0.1956   0.1639   0.4691  -0.0995  -0.1587   0.1870   0.00    0.0
2026/01/15 00:52:30.000   67.857339721   20.968486604   377.2167   6   9   0.1949   0.1632   0.4670  -0.0991  -0.1580   0.1868   0.00    0.0
2026/01/15 00:53:00.000   67.857339962   20.968486362   377.2580   6   9   0.1941   0.1625   0.4649  -0.0987  -0.1573   0.1865   0.00    0.0
2026/01/15 00:53:30.000   67.857340203   20.968486144   377.2946   6   9   0.1934   0.1617   0.4629  -0.0984  -0.1566   0.1862   0.00    0.0
2026/01/15 00:54:00.000   67.857340438   20.968485922   377.3336   6   9   0.1927   0.1610   0.4608  -0.0980  -0.1559   0.1859   0.00    0.0
2026/01/15 00:54:30.000   67.857340691   20.968485701   377.3709   6   9   0.1920   0.1603   0.4588  -0.0976  -0.1552   0.1856   0.00    0.0
2026/01/15 00:55:00.000   67.857340922   20.968485562   377.4058   6   9   0.1913   0.1596   0.4568  -0.0972  -0.1545   0.1852   0.00    0.0
2026/01/15 00:55:30.000   67.857341152   20.968485373   377.4461   6   9   0.1906   0.1590   0.4548  -0.0969  -0.1538   0.1849   0.00    0.0
2026/01/15 00:56:00.000   67.857341384   20.968485204   377.4873   6   9   0.1899   0.1583   0.4528  -0.0965  -0.1531   0.1845   0.00    0.0
2026/01/15 00:56:30.000   67.857341615   20.968485006   377.5299   6   9   0.1892   0.1576   0.4508  -0.0961  -0.1523   0.1841   0.00    0.0
2026/01/15 00:57:00.000   67.857341899   20.968484791   377.5642   6   8   0.1886   0.1569   0.4489  -0.0957  -0.1516   0.1836   0.00    0.0
2026/01/15 00:57:30.000   67.857342215   20.968484559   377.6179   6   7   0.1880   0.1563   0.4474  -0.0953  -0.1507   0.1832   0.00    0.0
2026/01/15 00:58:00.000   67.857342523   20.968484367   377.6681   6   7   0.1875   0.1557   0.4458  -0.0949  -0.1497   0.1827   0.00    0.0
2026/01/15 00:58:30.000   67.857342821   20.968484233   377.7172   6   7   0.1869   0.1550   0.4443  -0.0945  -0.1488   0.1823   0.00    0.0
2026/01/15 00:59:00.000   67.857343108   20.968484100   377.7692   6   7   0.1863   0.1544   0.4427  -0.0940  -0.1479   0.1819   0.00    0.0
2026/01/15 00:59:30.000   67.857343399   20.968483914   377.8270   6   7   0.1858   0.1538   0.4412  -0.0936  -0.1470   0.1814   0.00    0.0
2026/01/15 01:00:00.000   67.857343616   20.968483919   377.8565   6   7   0.1852   0.1531   0.4396  -0.0930  -0.1458   0.1809   0.00    0.0
2026/01/15 01:00:30.000   67.857343807   20.968483868   377.8935   6   7   0.1846   0.1523   0.4380  -0.0925  -0.1447   0.1804   0.00    0.0
2026/01/15 01:01:00.000   67.857344013   20.968483765   377.9354   6   7   0.1840   0.1516   0.4363  -0.0919  -0.1435   0.1798   0.00    0.0
2026/01/15 01:01:30.000   67.857344230   20.968483724   377.9723   6   7   0.1834   0.1509   0.4347  -0.0914  -0.1424   0.1793   0.00    0.0
2026/01/15 01:02:00.000   67.857344449   20.968483686   378.0105   6   7   0.1829   0.1502   0.4332  -0.0908  -0.1413   0.1788   0.00    0.0
2026/01/15 01:02:30.000   67.857344668   20.968483631   378.0510   6   7   0.1823   0.1495   0.4316  -0.0903  -0.1401   0.1783   0.00    0.0
2026/01/15 01:03:00.000   67.857344921   20.968483403   378.1237   6   8   0.1817   0.1487   0.4295  -0.0896  -0.1386   0.1775   0.00    0.0
2026/01/15 01:03:30.000   67.857345175   20.968483195   378.1925   6   8   0.1811   0.1479   0.4274  -0.0889  -0.1370   0.1768   0.00    0.0
2026/01/15 01:04:00.000   67.857345434   20.968482978   378.2641   6   8   0.1805   0.1471   0.4254  -0.0883  -0.1355   0.1761   0.00    0.0
2026/01/15 01:04:30.000   67.857345698   20.968482709   378.3393   6   8   0.1800   0.1463   0.4234  -0.0877  -0.1339   0.1754   0.00    0.0
2026/01/15 01:05:00.000   67.857345964   20.968482498   378.4083   6   8   0.1794   0.1456   0.4214  -0.0870  -0.1324   0.1748   0.00    0.0
2026/01/15 01:05:30.000   67.857346225   20.968482276   378.4807   6   8   0.1788   0.1448   0.4194  -0.0864  -0.1309   0.1741   0.00    0.0
2026/01/15 01:06:00.000   67.857346485   20.968482111   378.5493   6   8   0.1782   0.1441   0.4175  -0.0858  -0.1294   0.1734   0.00    0.0
2026/01/15 01:06:30.000   67.857346744   20.968481903   378.6195   6   8   0.1777   0.1434   0.4156  -0.0852  -0.1280   0.1727   0.00    0.0
2026/01/15 01:07:00.000   67.857347026   20.968481650   378.6944   6   8   0.1771   0.1426   0.4137  -0.0846  -0.1265   0.1721   0.00    0.0
2026/01/15 01:07:30.000   67.857347303   20.968481397   378.7698   6   8   0.1766   0.1419   0.4118  -0.0840  -0.1251   0.1714   0.00    0.0
2026/01/15 01:08:00.000   67.857347594   20.968481162   378.8467   6   8   0.1760   0.1412   0.4099  -0.0834  -0.1236   0.1707   0.00    0.0
2026/01/15 01:08:30.000   67.857347883   20.968480922   378.9191   6   8   0.1755   0.1405   0.4081  -0.0828  -0.1222   0.1701   0.00    0.0
2026/01/15 01:09:00.000   67.857348166   20.968480722   378.9900   6   8   0.1750   0.1398   0.4062  -0.0822  -0.1208   0.1694   0.00    0.0
2026/01/15 01:09:30.000   67.857348430   20.968480557   379.0583   6   8   0.1744   0.1392   0.4044  -0.0816  -0.1194   0.1688   0.00    0.0
2026/01/15 01:10:00.000   67.857348713   20.968480312   379.1338   6   8   0.1739   0.1385   0.4026  -0.0810  -0.1180   0.1682   0.00    0.0
2026/01/15 01:10:30.000   67.857348995   20.968480058   379.2119   6   8   0.1734   0.1379   0.4008  -0.0805  -0.1166   0.1675   0.00    0.0
2026/01/15 01:11:00.000   67.857349270   20.968479849   379.2870   6   8   0.1729   0.1372   0.3991  -0.0799  -0.1153   0.1669   0.00    0.0
2026/01/15 01:11:30.000   67.857349551   20.968479633   379.3609   6   8   0.1723   0.1366   0.3973  -0.0793  -0.1139   0.1663   0.00    0.0
2026/01/15 01:12:00.000   67.857349851   20.968479423   379.4333   6   8   0.1718   0.1360   0.3956  -0.0788  -0.1126   0.1657   0.00    0.0
2026/01/15 01:12:30.000   67.857350130   20.968479202   379.5112   6   8   0.1713   0.1353   0.3939  -0.0782  -0.1113   0.1650   0.00    0.0
2026/01/15 01:13:00.000   67.857350410   20.968479003   379.5879   6   8   0.1708   0.1347   0.3922  -0.0777  -0.1099   0.1644   0.00    0.0
2026/01/15 01:13:30.000   67.857350693   20.968478784   379.6663   6   8   0.1703   0.1341   0.3905  -0.0772  -0.1086   0.1638   0.00    0.0
2026/01/15 01:14:00.000   67.857350964   20.968478602   379.7420   6   8   0.1698   0.1335   0.3888  -0.0766  -0.1073   0.1632   0.00    0.0
2026/01/15 01:14:30.000   67.857351244   20.968478399   379.8156   6   8   0.1693   0.1330   0.3872  -0.0761  -0.1060   0.1626   0.00    0.0
2026/01/15 01:15:00.000   67.857351524   20.968478225   379.8882   6   8   0.1688   0.1324   0.3855  -0.0756  -0.1048   0.1620   0.00    0.0
2026/01/15 01:15:30.000   67.857351805   20.968478012   379.9630   6   8   0.1684   0.1318   0.3839  -0.0751  -0.1035   0.1614   0.00    0.0
2026/01/15 01:16:00.000   67.857352083   20.968477822   380.0400   6   8   0.1679   0.1313   0.3823  -0.0745  -0.1022   0.1608   0.00    0.0
2026/01/15 01:16:30.000   67.857352357   20.968477659   380.1136   6   8   0.1674   0.1307   0.3807  -0.0740  -0.1010   0.1602   0.00    0.0
2026/01/15 01:17:00.000   67.857352642   20.968477470   380.1905   6   8   0.1669   0.1302   0.3791  -0.0735  -0.0997   0.1597   0.00    0.0
2026/01/15 01:17:30.000   67.857352912   20.968477294   380.2669   6   8   0.1665   0.1296   0.3776  -0.0730  -0.0985   0.1591   0.00    0.0
2026/01/15 01:18:00.000   67.857353197   20.968477098   380.3427   6   8   0.1660   0.1291   0.3760  -0.0725  -0.0973   0.1585   0.00    0.0
2026/01/15 01:18:30.000   67.857353470   20.968476933   380.4164   6   8   0.1655   0.1286   0.3744  -0.0720  -0.0961   0.1579   0.00    0.0
2026/01/15 01:19:00.000   67.857353739   20.968476763   380.4885   6   8   0.1651   0.1281   0.3729  -0.0716  -0.0949   0.1573   0.00    0.0
2026/01/15 01:19:30.000   67.857354010   20.968476628   380.5615   6   8   0.1646   0.1275   0.3714  -0.0711  -0.0937   0.1568   0.00    0.0
2026/01/15 01:20:00.000   67.857354286   20.968476478   380.6341   6   8   0.1641   0.1270   0.3699  -0.0706  -0.0925   0.1562   0.00    0.0
2026/01/15 01:20:30.000   67.857354564   20.968476319   380.7074   6   8   0.1637   0.1265   0.3684  -0.0701  -0.0913   0.1556   0.00    0.0
2026/01/15 01:21:00.000   67.857354830   20.968476189   380.7771   6   8   0.1632   0.1261   0.3669  -0.0697  -0.0901   0.1551   0.00    0.0
2026/01/15 01:21:30.000   67.857355113   20.968476032   380.8490   6   8   0.1628   0.1256   0.3654  -0.0692  -0.0890   0.1545   0.00    0.0
2026/01/15 01:22:00.000   67.857355379   20.968475894   380.9192   6   8   0.1623   0.1251   0.3640  -0.0688  -0.0878   0.1539   0.00    0.0
2026/01/15 01:22:30.000   67.857355660   20.968475738   380.9905   6   8   0.1619   0.1246   0.3625  -0.0683  -0.0867   0.1534   0.00    0.0
2026/01/15 01:23:00.000   67.857355937   20.968475601   381.0594   6   8   0.1615   0.1242   0.3611  -0.0679  -0.0856   0.1528   0.00    0.0
2026/01/15 01:23:30.000   67.857356209   20.968475477   381.1282   6   8   0.1610   0.1237   0.3596  -0.0674  -0.0844   0.1523   0.00    0.0
2026/01/15 01:24:00.000   67.857356474   20.968475337   381.1978   6   8   0.1606   0.1233   0.3582  -0.0670  -0.0833   0.1517   0.00    0.0
2026/01/15 01:24:30.000   67.857356736   20.968475200   381.2676   6   8   0.1602   0.1228   0.3568  -0.0666  -0.0822   0.1512   0.00    0.0
2026/01/15 01:25:00.000   67.857356985   20.968475021   381.3452   6   7   0.1598   0.1224   0.3555  -0.0661  -0.0812   0.1505   0.00    0.0
2026/01/15 01:25:30.000   67.857357219   20.968474911   381.4178   6   7   0.1594   0.1219   0.3542  -0.0657  -0.0801   0.1499   0.00    0.0
2026/01/15 01:26:00.000   67.857357467   20.968474763   381.4943   6   7   0.1589   0.1215   0.3530  -0.0652  -0.0791   0.1493   0.00    0.0
2026/01/15 01:26:30.000   67.857357705   20.968474637   381.5678   6   7   0.1585   0.1211   0.3517  -0.0648  -0.0781   0.1487   0.00    0.0
2026/01/15 01:27:00.000   67.857357950   20.968474505   381.6427   6   7   0.1581   0.1207   0.3504  -0.0644  -0.0771   0.1481   0.00    0.0
2026/01/15 01:27:30.000   67.857358177   20.968474376   381.7148   6   7   0.1577   0.1203   0.3492  -0.0639  -0.0761   0.1475   0.00    0.0
2026/01/15 01:28:00.000   67.857358414   20.968474224   381.7886   6   7   0.1574   0.1199   0.3479  -0.0635  -0.0751   0.1469   0.00    0.0
2026/01/15 01:28:30.000   67.857358641   20.968474101   381.8606   6   7   0.1570   0.1195   0.3467  -0.0631  -0.0741   0.1463   0.00    0.0
2026/01/15 01:29:00.000   67.857358875   20.968473962   381.9346   6   7   0.1566   0.1191   0.3455  -0.0627  -0.0732   0.1457   0.00    0.0
2026/01/15 01:29:30.000   67.857359108   20.968473825   382.0071   6   7   0.1562   0.1187   0.3442  -0.0623  -0.0722   0.1451   0.00    0.0
2026/01/15 01:30:00.000   67.857359333   20.968473701   382.0795   6   7   0.1558   0.1183   0.3430  -0.0619  -0.0712   0.1446   0.00    0.0
2026/01/15 01:30:30.000   67.857359558   20.968473570   382.1508   6   7   0.1554   0.1179   0.3418  -0.0615  -0.0702   0.1440   0.00    0.0
2026/01/15 01:31:00.000   67.857359766   20.968473525   382.2151   6   7   0.1550   0.1176   0.3406  -0.0611  -0.0693   0.1434   0.00    0.0
2026/01/15 01:31:30.000   67.857359987   20.968473427   382.2823   6   7   0.1546   0.1172   0.3394  -0.0608  -0.0683   0.1428   0.00    0.0
2026/01/15 01:32:00.000   67.857360220   20.968473296   382.3546   6   7   0.1543   0.1168   0.3382  -0.0604  -0.0674   0.1423   0.00    0.0
2026/01/15 01:32:30.000   67.857360443   20.968473201   382.4230   6   7   0.1539   0.1165   0.3371  -0.0600  -0.0665   0.1417   0.00    0.0
2026/01/15 01:33:00.000   67.857360661   20.968473108   382.4898   6   7   0.1535   0.1161   0.3359  -0.0597  -0.0655   0.1411   0.00    0.0
2026/01/15 01:33:30.000   67.857360884   20.968472994   382.5579   6   7   0.1531   0.1158   0.3347  -0.0593  -0.0646   0.1406   0.00    0.0
2026/01/15 01:34:00.000   67.857361101   20.968472903   382.6248   6   7   0.1528   0.1154   0.3336  -0.0589  -0.0637   0.1400   0.00    0.0
2026/01/15 01:34:30.000   67.857361311   20.968472837   382.6905   6   7   0.1524   0.1151   0.3324  -0.0586  -0.0628   0.1394   0.00    0.0
2026/01/15 01:35:00.000   67.857361517   20.968472735   382.7567   6   7   0.1520   0.1147   0.3313  -0.0583  -0.0619   0.1389   0.00    0.0
2026/01/15 01:35:30.000   67.857361711   20.968472689   382.8197   6   7   0.1517   0.1144   0.3301  -0.0579  -0.0610   0.1383   0.00    0.0
2026/01/15 01:36:00.000   67.857361915   20.968472599   382.8856   6   7   0.1513   0.1141   0.3290  -0.0576  -0.0601   0.1378   0.00    0.0
2026/01/15 01:36:30.000   67.857362122   20.968472499   382.9513   6   7   0.1510   0.1137   0.3279  -0.0573  -0.0592   0.1373   0.00    0.0
2026/01/15 01:37:00.000   67.857362327   20.968472400   383.0161   6   7   0.1506   0.1134   0.3268  -0.0570  -0.0583   0.1367   0.00    0.0
2026/01/15 01:37:30.000   67.857362530   20.968472301   383.0798   6   7   0.1503   0.1131   0.3256  -0.0566  -0.0574   0.1362   0.00    0.0
2026/01/15 01:38:00.000   67.857362730   20.968472230   383.1443   6   7   0.1499   0.1128   0.3245  -0.0563  -0.0566   0.1356   0.00    0.0
2026/01/15 01:38:30.000   67.857362924   20.968472145   383.2077   6   7   0.1496   0.1125   0.3234  -0.0560  -0.0557   0.1351   0.00    0.0
2026/01/15 01:39:00.000   67.857363109   20.968472070   383.2718   6   7   0.1492   0.1122   0.3223  -0.0557  -0.0548   0.1346   0.00    0.0
2026/01/15 01:39:30.000   67.857363297   20.968471979   383.3334   6   7   0.1489   0.1118   0.3213  -0.0554  -0.0540   0.1340   0.00    0.0
2026/01/15 01:40:00.000   67.857363499   20.968471906   383.3943   6   7   0.1485   0.1115   0.3202  -0.0552  -0.0531   0.1335   0.00    0.0
2026/01/15 01:40:30.000   67.857363693   20.968471806   383.4561   6   7   0.1482   0.1112   0.3191  -0.0549  -0.0523   0.1330   0.00    0.0
2026/01/15 01:41:00.000   67.857363878   20.968471747   383.5142   6   7   0.1478   0.1109   0.3180  -0.0546  -0.0515   0.1325   0.00    0.0
2026/01/15 01:41:30.000   67.857364059   20.968471690   383.5751   6   7   0.1475   0.1107   0.3170  -0.0543  -0.0506   0.1320   0.00    0.0
2026/01/15 01:42:00.000   67.857364238   20.968471618   383.6348   6   7   0.1472   0.1104   0.3159  -0.0541  -0.0498   0.1315   0.00    0.0
2026/01/15 01:42:30.000   67.857364410   20.968471551   383.6925   6   7   0.1468   0.1101   0.3149  -0.0538  -0.0490   0.1309   0.00    0.0
2026/01/15 01:43:00.000   67.857364586   20.968471486   383.7519   6   7   0.1465   0.1098   0.3138  -0.0535  -0.0482   0.1304   0.00    0.0
2026/01/15 01:43:30.000   67.857364756   20.968471438   383.8090   6   7   0.1462   0.1095   0.3128  -0.0533  -0.0474   0.1299   0.00    0.0
2026/01/15 01:44:00.000   67.857364913   20.968471386   383.8652   6   7   0.1458   0.1092   0.3118  -0.0530  -0.0466   0.1294   0.00    0.0
2026/01/15 01:44:30.000   67.857365086   20.968471334   383.9227   6   7   0.1455   0.1090   0.3107  -0.0528  -0.0458   0.1289   0.00    0.0
2026/01/15 01:45:00.000   67.857365249   20.968471301   383.9771   6   7   0.1452   0.1087   0.3097  -0.0526  -0.0450   0.1284   0.00    0.0
2026/01/15 01:45:30.000   67.857365418   20.968471257   384.0330   6   7   0.1449   0.1084   0.3087  -0.0523  -0.0442   0.1280   0.00    0.0
2026/01/15 01:46:00.000   67.857365580   20.968471220   384.0892   6   7   0.1445   0.1082   0.3077  -0.0521  -0.0435   0.1275   0.00    0.0
2026/01/15 01:46:30.000   67.857365736   20.968471172   384.1427   6   7   0.1442   0.1079   0.3067  -0.0519  -0.0427   0.1270   0.00    0.0
2026/01/15 01:47:00.000   67.857365895   20.968471127   384.1955   6   7   0.1439   0.1076   0.3057  -0.0517  -0.0420   0.1265   0.00    0.0
2026/01/15 01:47:30.000   67.857366054   20.968471096   384.2471   6   7   0.1436   0.1074   0.3047  -0.0515  -0.0412   0.1260   0.00    0.0
2026/01/15 01:48:00.000   67.857366202   20.968471066   384.2990   6   7   0.1433   0.1071   0.3038  -0.0513  -0.0405   0.1255   0.00    0.0
2026/01/15 01:48:30.000   67.857366352   20.968471032   384.3486   6   7   0.1430   0.1069   0.3028  -0.0510  -0.0397   0.1251   0.00    0.0
2026/01/15 01:49:00.000   67.857366499   20.968471015   384.3981   6   7   0.1427   0.1066   0.3018  -0.0508  -0.0390   0.1246   0.00    0.0
2026/01/15 01:49:30.000   67.857366664   20.968470989   384.4438   6   8   0.1423   0.1064   0.3008  -0.0506  -0.0383   0.1242   0.00    0.0
2026/01/15 01:50:00.000   67.857366835   20.968470956   384.4896   6   8   0.1420   0.1061   0.2998  -0.0504  -0.0376   0.1238   0.00    0.0
2026/01/15 01:50:30.000   67.857366996   20.968470948   384.5333   6   8   0.1416   0.1059   0.2988  -0.0502  -0.0369   0.1234   0.00    0.0
2026/01/15 01:51:00.000   67.857367162   20.968470912   384.5780   6   8   0.1413   0.1056   0.2978  -0.0500  -0.0363   0.1230   0.00    0.0
2026/01/15 01:51:30.000   67.857367325   20.968470868   384.6228   6   8   0.1410   0.1054   0.2968  -0.0498  -0.0356   0.1226   0.00    0.0
2026/01/15 01:52:00.000   67.857367497   20.968470812   384.6662   6   8   0.1406   0.1051   0.2958  -0.0496  -0.0350   0.1222   0.00    0.0
2026/01/15 01:52:30.000   67.857367664   20.968470781   384.7105   6   8   0.1403   0.1049   0.2949  -0.0495  -0.0343   0.1218   0.00    0.0
2026/01/15 01:53:00.000   67.857367821   20.968470746   384.7528   6   8   0.1400   0.1047   0.2939  -0.0493  -0.0337   0.1214   0.00    0.0
2026/01/15 01:53:30.000   67.857367975   20.968470709   384.7943   6   8   0.1396   0.1044   0.2929  -0.0491  -0.0331   0.1211   0.00    0.0
2026/01/15 01:54:00.000   67.857368133   20.968470674   384.8354   6   8   0.1393   0.1042   0.2920  -0.0489  -0.0325   0.1207   0.00    0.0
2026/01/15 01:54:30.000   67.857368277   20.968470628   384.8753   6   8   0.1390   0.1040   0.2910  -0.0487  -0.0319   0.1203   0.00    0.0
2026/01/15 01:55:00.000   67.857368435   20.968470591   384.9160   6   8   0.1387   0.1038   0.2901  -0.0486  -0.0313   0.1199   0.00    0.0
2026/01/15 01:55:30.000   67.857368590   20.968470535   384.9556   6   8   0.1383   0.1035   0.2892  -0.0484  -0.0307   0.1196   0.00    0.0
2026/01/15 01:56:00.000   67.857368735   20.968470485   384.9954   6   8   0.1380   0.1033   0.2883  -0.0482  -0.0301   0.1192   0.00    0.0
2026/01/15 01:56:30.000   67.857368882   20.968470443   385.0359   6   8   0.1377   0.1031   0.2873  -0.0481  -0.0295   0.1188   0.00    0.0
2026/01/15 01:57:00.000   67.857369028   20.968470405   385.0741   6   8   0.1374   0.1029   0.2864  -0.0479  -0.0290   0.1184   0.00    0.0
2026/01/15 01:57:30.000   67.857369185   20.968470289   385.1015   6   9   0.1370   0.1026   0.2854  -0.0478  -0.0287   0.1181   0.00    0.0
2026/01/15 01:58:00.000   67.857369338   20.968470171   385.1303   6   9   0.1367   0.1024   0.2845  -0.0476  -0.0285   0.1178   0.00    0.0
2026/01/15 01:58:30.000   67.857369487   20.968470054   385.1580   6   9   0.1364   0.1022   0.2835  -0.0474  -0.0282   0.1174   0.00    0.0
2026/01/15 01:59:00.000   67.857369628   20.968469939   385.1852   6   9   0.1361   0.1019   0.2826  -0.0472  -0.0280   0.1171   0.00    0.0
2026/01/15 01:59:30.000   67.857369775   20.968469811   385.2105   6   9   0.1358   0.1017   0.2816  -0.0471  -0.0278   0.1168   0.00    0.0
2026/01/15 02:00:00.000   67.857369894   20.968469669   385.2373   6   9   0.1355   0.1014   0.2807  -0.0469  -0.0275   0.1164   0.00    0.0
2026/01/15 02:00:30.000   67.857370026   20.968469525   385.2624   6   9   0.1352   0.1012   0.2798  -0.0467  -0.0273   0.1161   0.00    0.0
2026/01/15 02:01:00.000   67.857370145   20.968469379   385.2882   6   9   0.1349   0.1010   0.2789  -0.0465  -0.0271   0.1158   0.00    0.0
2026/01/15 02:01:30.000   67.857370271   20.968469242   385.3133   6   9   0.1346   0.1008   0.2780  -0.0463  -0.0269   0.1155   0.00    0.0
2026/01/15 02:02:00.000   67.857370394   20.968469095   385.3386   6   9   0.1343   0.1006   0.2771  -0.0462  -0.0267   0.1152   0.00    0.0
2026/01/15 02:02:30.000   67.857370498   20.968469005   385.3536   6  10   0.1340   0.1003   0.2761  -0.0460  -0.0262   0.1149   0.00    0.0
2026/01/15 02:03:00.000   67.857370590   20.968468917   385.3687   6  10   0.1338   0.1001   0.2751  -0.0457  -0.0258   0.1146   0.00    0.0
2026/01/15 02:03:30.000   67.857370684   20.968468838   385.3837   6  10   0.1335   0.0999   0.2742  -0.0455  -0.0254   0.1142   0.00    0.0
2026/01/15 02:04:00.000   67.857370770   20.968468760   385.3963   6  10   0.1332   0.0996   0.2732  -0.0453  -0.0250   0.1139   0.00    0.0
2026/01/15 02:04:30.000   67.857370867   20.968468674   385.4129   6  10   0.1329   0.0994   0.2723  -0.0451  -0.0246   0.1135   0.00    0.0
2026/01/15 02:05:00.000   67.857370961   20.968468576   385.4294   6  10   0.1326   0.0992   0.2714  -0.0449  -0.0242   0.1132   0.00    0.0
2026/01/15 02:05:30.000   67.857371058   20.968468490   385.4427   6  10   0.1323   0.0989   0.2704  -0.0447  -0.0238   0.1129   0.00    0.0
2026/01/15 02:06:00.000   67.857371149   20.968468403   385.4566   6  10   0.1320   0.0987   0.2695  -0.0445  -0.0235   0.1125   0.00    0.0
2026/01/15 02:06:30.000   67.857371240   20.968468296   385.4689   6  10   0.1317   0.0985   0.2686  -0.0444  -0.0231   0.1122   0.00    0.0
2026/01/15 02:07:00.000   67.857371326   20.968468202   385.4843   6  10   0.1315   0.0983   0.2677  -0.0442  -0.0228   0.1119   0.00    0.0
2026/01/15 02:07:30.000   67.857371413   20.968468110   385.5007   6  10   0.1312   0.0980   0.2669  -0.0440  -0.0224   0.1116   0.00    0.0
2026/01/15 02:08:00.000   67.857371492   20.968468009   385.5149   6  10   0.1309   0.0978   0.2660  -0.0438  -0.0221   0.1113   0.00    0.0
2026/01/15 02:08:30.000   67.857371494   20.968467920   385.5128   6  11   0.1306   0.0976   0.2650  -0.0436  -0.0218   0.1108   0.00    0.0
2026/01/15 02:09:00.000   67.857371489   20.968467849   385.5087   6  11   0.1302   0.0974   0.2640  -0.0434  -0.0215   0.1103   0.00    0.0
2026/01/15 02:09:30.000   67.857371482   20.968467751   385.5014   6  11   0.1299   0.0972   0.2630  -0.0433  -0.0212   0.1098   0.00    0.0
2026/01/15 02:10:00.000   67.857371478   20.968467667   385.4985   6  11   0.1295   0.0969   0.2621  -0.0431  -0.0210   0.1094   0.00    0.0
2026/01/15 02:10:30.000   67.857371459   20.968467581   385.4908   6  11   0.1292   0.0967   0.2611  -0.0429  -0.0207   0.1089   0.00    0.0
2026/01/15 02:11:00.000   67.857371439   20.968467504   385.4844   6  11   0.1289   0.0965   0.2602  -0.0428  -0.0205   0.1085   0.00    0.0
2026/01/15 02:11:30.000   67.857371439   20.968467407   385.4827   6  11   0.1286   0.0963   0.2593  -0.0426  -0.0203   0.1080   0.00    0.0
2026/01/15 02:12:00.000   67.857371415   20.968467303   385.4674   6  10   0.1283   0.0961   0.2586  -0.0425  -0.0205   0.1078   0.00    0.0
2026/01/15 02:12:30.000   67.857371392   20.968467204   385.4543   6  10   0.1281   0.0959   0.2580  -0.0425  -0.0208   0.1077   0.00    0.0
2026/01/15 02:13:00.000   67.857371360   20.968467101   385.4422   6  10   0.1278   0.0957   0.2573  -0.0424  -0.0210   0.1075   0.00    0.0
2026/01/15 02:13:30.000   67.857371332   20.968467015   385.4293   6  10   0.1276   0.0955   0.2567  -0.0423  -0.0212   0.1073   0.00    0.0
2026/01/15 02:14:00.000   67.857371297   20.968466930   385.4159   6  10   0.1273   0.0953   0.2561  -0.0423  -0.0214   0.1071   0.00    0.0
2026/01/15 02:14:30.000   67.857371260   20.968466837   385.4013   6  10   0.1271   0.0951   0.2555  -0.0422  -0.0216   0.1069   0.00    0.0
2026/01/15 02:15:00.000   67.857371230   20.968466763   385.3876   6  10   0.1268   0.0949   0.2548  -0.0421  -0.0218   0.1067   0.00    0.0
2026/01/15 02:15:30.000   67.857371194   20.968466689   385.3753   6  10   0.1266   0.0947   0.2542  -0.0421  -0.0221   0.1065   0.00    0.0
2026/01/15 02:16:00.000   67.857371151   20.968466619   385.3621   6  10   0.1264   0.0945   0.2536  -0.0420  -0.0223   0.1063   0.00    0.0
2026/01/15 02:16:30.000   67.857371119   20.968466525   385.3495   6  10   0.1261   0.0943   0.2530  -0.0419  -0.0225   0.1061   0.00    0.0
2026/01/15 02:17:00.000   67.857371096   20.968466426   385.3366   6  10   0.1259   0.0941   0.2524  -0.0418  -0.0227   0.1059   0.00    0.0
2026/01/15 02:17:30.000   67.857371074   20.968466338   385.3262   6  10   0.1256   0.0939   0.2518  -0.0418  -0.0229   0.1057   0.00    0.0
2026/01/15 02:18:00.000   67.857371047   20.968466253   385.3167   6  10   0.1254   0.0937   0.2512  -0.0417  -0.0231   0.1055   0.00    0.0
2026/01/15 02:18:30.000   67.857371020   20.968466162   385.3060   6  10   0.1251   0.0935   0.2506  -0.0416  -0.0233   0.1053   0.00    0.0
2026/01/15 02:19:00.000   67.857370990   20.968466078   385.2940   6  10   0.1249   0.0934   0.2501  -0.0416  -0.0235   0.1051   0.00    0.0
2026/01/15 02:19:30.000   67.857370956   20.968465981   385.2818   6  10   0.1247   0.0932   0.2495  -0.0415  -0.0237   0.1049   0.00    0.0
2026/01/15 02:20:00.000   67.857370925   20.968465877   385.2700   6  10   0.1244   0.0930   0.2489  -0.0414  -0.0238   0.1047   0.00    0.0
2026/01/15 02:20:30.000   67.857370884   20.968465783   385.2577   6  10   0.1242   0.0928   0.2483  -0.0414  -0.0240   0.1045   0.00    0.0
2026/01/15 02:21:00.000   67.857370840   20.968465677   385.2452   6  10   0.1239   0.0926   0.2478  -0.0413  -0.0242   0.1043   0.00    0.0
2026/01/15 02:21:30.000   67.857370799   20.968465566   385.2345   6  10   0.1237   0.0924   0.2472  -0.0412  -0.0244   0.1041   0.00    0.0
2026/01/15 02:22:00.000   67.857370773   20.968465460   385.2251   6  10   0.1235   0.0922   0.2467  -0.0411  -0.0246   0.1039   0.00    0.0
2026/01/15 02:22:30.000   67.857370736   20.968465358   385.2149   6  10   0.1232   0.0920   0.2461  -0.0411  -0.0248   0.1037   0.00    0.0
2026/01/15 02:23:00.000   67.857370692   20.968465259   385.2037   6  10   0.1230   0.0918   0.2456  -0.0410  -0.0249   0.1035   0.00    0.0
2026/01/15 02:23:30.000   67.857370652   20.968465150   385.1942   6  10   0.1227   0.0916   0.2450  -0.0409  -0.0251   0.1032   0.00    0.0
2026/01/15 02:24:00.000   67.857370610   20.968465044   385.1859   6  10   0.1225   0.0915   0.2445  -0.0409  -0.0253   0.1030   0.00    0.0
2026/01/15 02:24:30.000   67.857370570   20.968464946   385.1783   6  10   0.1223   0.0913   0.2439  -0.0408  -0.0254   0.1028   0.00    0.0
2026/01/15 02:25:00.000   67.857370534   20.968464832   385.1709   6  10   0.1220   0.0911   0.2434  -0.0407  -0.0256   0.1026   0.00    0.0
2026/01/15 02:25:30.000   67.857370499   20.968464730   385.1631   6  10   0.1218   0.0909   0.2429  -0.0406  -0.0258   0.1024   0.00    0.0
2026/01/15 02:26:00.000   67.857370469   20.968464630   385.1557   6  10   0.1216   0.0907   0.2423  -0.0406  -0.0259   0.1022   0.00    0.0
2026/01/15 02:26:30.000   67.857370440   20.968464520   385.1481   6  10   0.1213   0.0905   0.2418  -0.0405  -0.0261   0.1020   0.00    0.0
2026/01/15 02:27:00.000   67.857370398   20.968464392   385.1446   6   9   0.1211   0.0904   0.2413  -0.0404  -0.0263   0.1018   0.00    0.0
2026/01/15 02:27:30.000   67.857370360   20.968464263   385.1410   6   9   0.1209   0.0902   0.2409  -0.0403  -0.0265   0.1015   0.00    0.0
2026/01/15 02:28:00.000   67.857370317   20.968464131   385.1374   6   9   0.1206   0.0900   0.2404  -0.0403  -0.0267   0.1013   0.00    0.0
2026/01/15 02:28:30.000   67.857370273   20.968463995   385.1334   6   9   0.1204   0.0898   0.2399  -0.0402  -0.0269   0.1011   0.00    0.0
2026/01/15 02:29:00.000   67.857370237   20.968463876   385.1301   6   9   0.1202   0.0896   0.2394  -0.0401  -0.0271   0.1009   0.00    0.0
2026/01/15 02:29:30.000   67.857370193   20.968463749   385.1277   6   9   0.1199   0.0895   0.2390  -0.0400  -0.0273   0.1006   0.00    0.0
2026/01/15 02:30:00.000   67.857370151   20.968463621   385.1262   6   9   0.1197   0.0893   0.2385  -0.0399  -0.0275   0.1004   0.00    0.0
2026/01/15 02:30:30.000   67.857370113   20.968463489   385.1230   6   9   0.1195   0.0891   0.2380  -0.0399  -0.0277   0.1002   0.00    0.0
2026/01/15 02:31:00.000   67.857370075   20.968463358   385.1219   6   9   0.1193   0.0889   0.2376  -0.0398  -0.0279   0.1000   0.00    0.0
2026/01/15 02:31:30.000   67.857370041   20.968463235   385.1207   6   9   0.1190   0.0888   0.2371  -0.0397  -0.0280   0.0997   0.00    0.0
2026/01/15 02:32:00.000   67.857370004   20.968463099   385.1199   6   9   0.1188   0.0886   0.2367  -0.0396  -0.0282   0.0995   0.00    0.0
2026/01/15 02:32:30.000   67.857369961   20.968462970   385.1186   6   9   0.1186   0.0884   0.2362  -0.0395  -0.0284   0.0993   0.00    0.0
2026/01/15 02:33:00.000   67.857369924   20.968462841   385.1183   6   9   0.1184   0.0882   0.2358  -0.0395  -0.0285   0.0991   0.00    0.0
2026/01/15 02:33:30.000   67.857369886   20.968462717   385.1185   6   9   0.1181   0.0881   0.2353  -0.0394  -0.0287   0.0988   0.00    0.0
2026/01/15 02:34:00.000   67.857369850   20.968462603   385.1200   6   9   0.1179   0.0879   0.2349  -0.0393  -0.0289   0.0986   0.00    0.0
2026/01/15 02:34:30.000   67.857369809   20.968462469   385.1205   6   9   0.1177   0.0877   0.2345  -0.0392  -0.0290   0.0984   0.00    0.0
2026/01/15 02:35:00.000   67.857369773   20.968462332   385.1218   6   9   0.1175   0.0876   0.2340  -0.0391  -0.0292   0.0982   0.00    0.0
2026/01/15 02:35:30.000   67.857369737   20.968462201   385.1230   6   9   0.1173   0.0874   0.2336  -0.0391  -0.0293   0.0979   0.00    0.0
2026/01/15 02:36:00.000   67.857369702   20.968462078   385.1241   6   9   0.1170   0.0872   0.2332  -0.0390  -0.0294   0.0977   0.00    0.0
2026/01/15 02:36:30.000   67.857369663   20.968461939   385.1257   6   9   0.1168   0.0870   0.2328  -0.0389  -0.0296   0.0975   0.00    0.0
2026/01/15 02:37:00.000   67.857369628   20.968461809   385.1269   6   9   0.1166   0.0869   0.2323  -0.0388  -0.0297   0.0973   0.00    0.0
2026/01/15 02:37:30.000   67.857369594   20.968461683   385.1291   6   9   0.1164   0.0867   0.2319  -0.0387  -0.0298   0.0971   0.00    0.0
2026/01/15 02:38:00.000   67.857369564   20.968461553   385.1320   6   9   0.1162   0.0865   0.2315  -0.0387  -0.0300   0.0969   0.00    0.0
2026/01/15 02:38:30.000   67.857369531   20.968461422   385.1350   6   9   0.1160   0.0864   0.2311  -0.0386  -0.0301   0.0966   0.00    0.0
2026/01/15 02:39:00.000   67.857369498   20.968461302   385.1380   6   9   0.1157   0.0862   0.2307  -0.0385  -0.0302   0.0964   0.00    0.0
2026/01/15 02:39:30.000   67.857369467   20.968461180   385.1414   6   9   0.1155   0.0860   0.2303  -0.0384  -0.0303   0.0962   0.00    0.0
2026/01/15 02:40:00.000   67.857369435   20.968461054   385.1448   6   9   0.1153   0.0859   0.2299  -0.0384  -0.0304   0.0960   0.00    0.0
2026/01/15 02:40:30.000   67.857369411   20.968460921   385.1486   6   9   0.1151   0.0857   0.2295  -0.0383  -0.0306   0.0958   0.00    0.0
2026/01/15 02:41:00.000   67.857369385   20.968460792   385.1527   6   9   0.1149   0.0855   0.2291  -0.0382  -0.0307   0.0956   0.00    0.0
2026/01/15 02:41:30.000   67.857369356   20.968460653   385.1565   6   9   0.1147   0.0854   0.2287  -0.0381  -0.0308   0.0954   0.00    0.0
2026/01/15 02:42:00.000   67.857369332   20.968460513   385.1605   6   9   0.1145   0.0852   0.2283  -0.0381  -0.0309   0.0952   0.00    0.0
2026/01/15 02:42:30.000   67.857369303   20.968460378   385.1646   6   9   0.1143   0.0851   0.2279  -0.0380  -0.0310   0.0950   0.00    0.0
2026/01/15 02:43:00.000   67.857369276   20.968460230   385.1694   6   9   0.1140   0.0849   0.2275  -0.0379  -0.0310   0.0947   0.00    0.0
2026/01/15 02:43:30.000   67.857369250   20.968460103   385.1743   6   9   0.1138   0.0847   0.2272  -0.0378  -0.0311   0.0945   0.00    0.0
2026/01/15 02:44:00.000   67.857369222   20.968459976   385.1799   6   9   0.1136   0.0846   0.2268  -0.0378  -0.0312   0.0943   0.00    0.0
2026/01/15 02:44:30.000   67.857369198   20.968459834   385.1849   6   9   0.1134   0.0844   0.2264  -0.0377  -0.0313   0.0941   0.00    0.0
2026/01/15 02:45:00.000   67.857369169   20.968459702   385.1901   6   9   0.1132   0.0842   0.2260  -0.0376  -0.0314   0.0939   0.00    0.0
2026/01/15 02:45:30.000   67.857369146   20.968459565   385.1967   6   9   0.1130   0.0841   0.2256  -0.0375  -0.0315   0.0937   0.00    0.0
2026/01/15 02:46:00.000   67.857369125   20.968459426   385.2034   6   9   0.1128   0.0839   0.2253  -0.0374  -0.0315   0.0935   0.00    0.0
2026/01/15 02:46:30.000   67.857369105   20.968459284   385.2112   6   9   0.1126   0.0838   0.2249  -0.0374  -0.0316   0.0933   0.00    0.0
2026/01/15 02:47:00.000   67.857369086   20.968459150   385.2182   6   9   0.1124   0.0836   0.2245  -0.0373  -0.0317   0.0931   0.00    0.0
2026/01/15 02:47:30.000   67.857369065   20.968459021   385.2246   6   9   0.1122   0.0835   0.2242  -0.0372  -0.0317   0.0929   0.00    0.0
2026/01/15 02:48:00.000   67.857369044   20.968458877   385.2318   6   9   0.1120   0.0833   0.2238  -0.0372  -0.0318   0.0927   0.00    0.0
2026/01/15 02:48:30.000   67.857369019   20.968458734   385.2391   6   9   0.1118   0.0831   0.2234  -0.0371  -0.0319   0.0925   0.00    0.0
2026/01/15 02:49:00.000   67.857369005   20.968458582   385.2463   6   9   0.1116   0.0830   0.2231  -0.0370  -0.0319   0.0923   0.00    0.0
2026/01/15 02:49:30.000   67.857368984   20.968458434   385.2545   6   9   0.1114   0.0828   0.2227  -0.0369  -0.0320   0.0921   0.00    0.0
2026/01/15 02:50:00.000   67.857368968   20.968458280   385.2616   6   9   0.1112   0.0827   0.2224  -0.0369  -0.0320   0.0919   0.00    0.0
2026/01/15 02:50:30.000   67.857368945   20.968458142   385.2695   6   9   0.1110   0.0825   0.2220  -0.0368  -0.0321   0.0917   0.00    0.0
2026/01/15 02:51:00.000   67.857368919   20.968457998   385.2783   6   9   0.1108   0.0824   0.2217  -0.0367  -0.0321   0.0916   0.00    0.0
2026/01/15 02:51:30.000   67.857368902   20.968457853   385.2866   6   9   0.1106   0.0822   0.2213  -0.0366  -0.0322   0.0914   0.00    0.0
2026/01/15 02:52:00.000   67.857368883   20.968457705   385.2949   6   9   0.1105   0.0821   0.2210  -0.0366  -0.0322   0.0912   0.00    0.0
2026/01/15 02:52:30.000   67.857368866   20.968457563   385.3039   6   9   0.1103   0.0819   0.2206  -0.0365  -0.0322   0.0910   0.00    0.0
2026/01/15 02:53:00.000   67.857368851   20.968457419   385.3133   6   9   0.1101   0.0818   0.2203  -0.0364  -0.0323   0.0908   0.00    0.0
2026/01/15 02:53:30.000   67.857368842   20.968457273   385.3229   6   9   0.1099   0.0816   0.2199  -0.0364  -0.0323   0.0906   0.00    0.0
2026/01/15 02:54:00.000   67.857368833   20.968457120   385.3331   6   9   0.1097   0.0815   0.2196  -0.0363  -0.0323   0.0904   0.00    0.0
2026/01/15 02:54:30.000   67.857368823   20.968456977   385.3421   6   9   0.1095   0.0813   0.2193  -0.0362  -0.0324   0.0902   0.00    0.0
2026/01/15 02:55:00.000   67.857368812   20.968456829   385.3517   6   9   0.1093   0.0812   0.2189  -0.0361  -0.0324   0.0901   0.00    0.0
2026/01/15 02:55:30.000   67.857368806   20.968456680   385.3621   6   9   0.1091   0.0810   0.2186  -0.0361  -0.0324   0.0899   0.00    0.0
2026/01/15 02:56:00.000   67.857368802   20.968456539   385.3721   6   9   0.1090   0.0809   0.2182  -0.0360  -0.0324   0.0897   0.00    0.0
2026/01/15 02:56:30.000   67.857368798   20.968456390   385.3826   6   9   0.1088   0.0807   0.2179  -0.0359  -0.0324   0.0895   0.00    0.0
2026/01/15 02:57:00.000   67.857368794   20.968456242   385.3937   6   9   0.1086   0.0806   0.2176  -0.0359  -0.0324   0.0893   0.00    0.0
2026/01/15 02:57:30.000   67.857368783   20.968456091   385.4046   6   9   0.1084   0.0805   0.2172  -0.0358  -0.0325   0.0891   0.00    0.0
2026/01/15 02:58:00.000   67.857368772   20.968455944   385.4147   6   9   0.1082   0.0803   0.2169  -0.0357  -0.0325   0.0890   0.00    0.0
2026/01/15 02:58:30.000   67.857368775   20.968455776   385.4240   6  10   0.1081   0.0802   0.2166  -0.0356  -0.0325   0.0888   0.00    0.0
2026/01/15 02:59:00.000   67.857368774   20.968455610   385.4334   6  10   0.1079   0.0800   0.2162  -0.0355  -0.0326   0.0886   0.00    0.0
2026/01/15 02:59:30.000   67.857368784   20.968455436   385.4428   6  10   0.1077   0.0799   0.2159  -0.0355  -0.0326   0.0885   0.00    0.0
2026/01/15 03:00:00.000   67.857368796   20.968455277   385.4571   6  10   0.1075   0.0797   0.2155  -0.0354  -0.0327   0.0883   0.00    0.0
2026/01/15 03:00:30.000   67.857368814   20.968455109   385.4713   6  10   0.1073   0.0795   0.2151  -0.0353  -0.0327   0.0880   0.00    0.0
2026/01/15 03:01:00.000   67.857368821   20.968454934   385.4841   6  10   0.1071   0.0794   0.2147  -0.0352  -0.0328   0.0878   0.00    0.0
2026/01/15 03:01:30.000   67.857368829   20.968454759   385.4969   6  10   0.1068   0.0792   0.2144  -0.0351  -0.0328   0.0876   0.00    0.0
2026/01/15 03:02:00.000   67.857368845   20.968454588   385.5094   6  10   0.1066   0.0791   0.2140  -0.0350  -0.0329   0.0874   0.00    0.0
2026/01/15 03:02:30.000   67.857368859   20.968454420   385.5231   6  10   0.1064   0.0789   0.2136  -0.0350  -0.0329   0.0872   0.00    0.0
2026/01/15 03:03:00.000   67.857368877   20.968454255   385.5363   6  10   0.1062   0.0788   0.2132  -0.0349  -0.0329   0.0870   0.00    0.0
2026/01/15 03:03:30.000   67.857368888   20.968454096   385.5495   6  10   0.1060   0.0786   0.2129  -0.0348  -0.0329   0.0868   0.00    0.0
2026/01/15 03:04:00.000   67.857368898   20.968453934   385.5635   6  10   0.1058   0.0785   0.2125  -0.0347  -0.0330   0.0866   0.00    0.0
2026/01/15 03:04:30.000   67.857368910   20.968453785   385.5783   6  10   0.1056   0.0783   0.2121  -0.0346  -0.0330   0.0864   0.00    0.0
2026/01/15 03:05:00.000   67.857368925   20.968453619   385.5932   6  10   0.1054   0.0782   0.2118  -0.0345  -0.0330   0.0862   0.00    0.0
2026/01/15 03:05:30.000   67.857368944   20.968453446   385.6081   6  10   0.1052   0.0780   0.2114  -0.0344  -0.0330   0.0861   0.00    0.0
2026/01/15 03:06:00.000   67.857368956   20.968453268   385.6227   6  10   0.1050   0.0779   0.2111  -0.0344  -0.0331   0.0859   0.00    0.0
2026/01/15 03:06:30.000   67.857368956   20.968453088   385.6336   6  11   0.1048   0.0777   0.2107  -0.0343  -0.0331   0.0856   0.00    0.0
2026/01/15 03:07:00.000   67.857368957   20.968452912   385.6439   6  11   0.1046   0.0776   0.2103  -0.0342  -0.0331   0.0854   0.00    0.0
2026/01/15 03:07:30.000   67.857368962   20.968452749   385.6570   6  11   0.1043   0.0774   0.2098  -0.0341  -0.0332   0.0851   0.00    0.0
2026/01/15 03:08:00.000   67.857368969   20.968452587   385.6702   6  11   0.1041   0.0773   0.2094  -0.0341  -0.0332   0.0848   0.00    0.0
2026/01/15 03:08:30.000   67.857368980   20.968452425   385.6832   6  11   0.1039   0.0771   0.2090  -0.0340  -0.0332   0.0846   0.00    0.0
2026/01/15 03:09:00.000   67.857368984   20.968452261   385.6955   6  11   0.1037   0.0770   0.2086  -0.0339  -0.0332   0.0843   0.00    0.0
2026/01/15 03:09:30.000   67.857368991   20.968452100   385.7071   6  11   0.1034   0.0768   0.2082  -0.0339  -0.0333   0.0841   0.00    0.0
2026/01/15 03:10:00.000   67.857368994   20.968451932   385.7178   6  11   0.1032   0.0767   0.2078  -0.0338  -0.0333   0.0838   0.00    0.0
2026/01/15 03:10:30.000   67.857368971   20.968451785   385.7218   6  10   0.1031   0.0765   0.2076  -0.0337  -0.0333   0.0837   0.00    0.0
2026/01/15 03:11:00.000   67.857368955   20.968451632   385.7267   6  10   0.1029   0.0764   0.2073  -0.0336  -0.0333   0.0836   0.00    0.0
2026/01/15 03:11:30.000   67.857368938   20.968451491   385.7320   6  10   0.1027   0.0763   0.2070  -0.0335  -0.0332   0.0834   0.00    0.0
2026/01/15 03:12:00.000   67.857368924   20.968451354   385.7375   6  10   0.1025   0.0761   0.2067  -0.0334  -0.0332   0.0833   0.00    0.0
2026/01/15 03:12:30.000   67.857368916   20.968451205   385.7437   6  10   0.1023   0.0760   0.2064  -0.0333  -0.0332   0.0832   0.00    0.0
2026/01/15 03:13:00.000   67.857368902   20.968451070   385.7500   6  10   0.1022   0.0759   0.2061  -0.0333  -0.0332   0.0830   0.00    0.0
2026/01/15 03:13:30.000   67.857368892   20.968450924   385.7568   6  10   0.1020   0.0757   0.2058  -0.0332  -0.0332   0.0829   0.00    0.0
2026/01/15 03:14:00.000   67.857368880   20.968450778   385.7637   6  10   0.1018   0.0756   0.2056  -0.0331  -0.0331   0.0828   0.00    0.0
2026/01/15 03:14:30.000   67.857368870   20.968450636   385.7715   6  10   0.1016   0.0754   0.2053  -0.0330  -0.0331   0.0826   0.00    0.0
2026/01/15 03:15:00.000   67.857368863   20.968450486   385.7794   6  10   0.1015   0.0753   0.2050  -0.0329  -0.0331   0.0825   0.00    0.0
2026/01/15 03:15:30.000   67.857368857   20.968450343   385.7863   6  10   0.1013   0.0752   0.2047  -0.0328  -0.0331   0.0823   0.00    0.0
2026/01/15 03:16:00.000   67.857368851   20.968450200   385.7940   6  10   0.1011   0.0750   0.2044  -0.0328  -0.0330   0.0822   0.00    0.0
2026/01/15 03:16:30.000   67.857368846   20.968450062   385.8031   6  10   0.1009   0.0749   0.2042  -0.0327  -0.0330   0.0821   0.00    0.0
2026/01/15 03:17:00.000   67.857368844   20.968449920   385.8121   6  10   0.1008   0.0748   0.2039  -0.0326  -0.0330   0.0819   0.00    0.0
2026/01/15 03:17:30.000   67.857368849   20.968449773   385.8199   6  10   0.1006   0.0746   0.2036  -0.0325  -0.0329   0.0818   0.00    0.0
2026/01/15 03:18:00.000   67.857368848   20.968449641   385.8292   6  10   0.1004   0.0745   0.2033  -0.0324  -0.0329   0.0817   0.00    0.0
2026/01/15 03:18:30.000   67.857368849   20.968449511   385.8375   6  10   0.1003   0.0744   0.2030  -0.0323  -0.0329   0.0815   0.00    0.0
2026/01/15 03:19:00.000   67.857368853   20.968449387   385.8470   6  10   0.1001   0.0742   0.2028  -0.0323  -0.0328   0.0814   0.00    0.0
2026/01/15 03:19:30.000   67.857368852   20.968449257   385.8565   6  10   0.0999   0.0741   0.2025  -0.0322  -0.0328   0.0813   0.00    0.0
2026/01/15 03:20:00.000   67.857368858   20.968449131   385.8662   6  10   0.0998   0.0740   0.2022  -0.0321  -0.0327   0.0811   0.00    0.0
2026/01/15 03:20:30.000   67.857368870   20.968448997   385.8763   6  10   0.0996   0.0739   0.2019  -0.0320  -0.0327   0.0810   0.00    0.0
2026/01/15 03:21:00.000   67.857368878   20.968448870   385.8869   6  10   0.0994   0.0737   0.2017  -0.0319  -0.0326   0.0809   0.00    0.0
2026/01/15 03:21:30.000   67.857368890   20.968448736   385.8973   6  10   0.0993   0.0736   0.2014  -0.0319  -0.0326   0.0807   0.00    0.0
2026/01/15 03:22:00.000   67.857368900   20.968448596   385.9082   6  10   0.0991   0.0735   0.2011  -0.0318  -0.0325   0.0806   0.00    0.0
2026/01/15 03:22:30.000   67.857368918   20.968448454   385.9189   6  10   0.0989   0.0734   0.2008  -0.0317  -0.0325   0.0805   0.00    0.0
2026/01/15 03:23:00.000   67.857368930   20.968448311   385.9305   6  10   0.0988   0.0732   0.2006  -0.0316  -0.0324   0.0803   0.00    0.0
2026/01/15 03:23:30.000   67.857368945   20.968448170   385.9426   6  10   0.0986   0.0731   0.2003  -0.0315  -0.0324   0.0802   0.00    0.0
2026/01/15 03:24:00.000   67.857368964   20.968448025   385.9547   6  10   0.0984   0.0730   0.2000  -0.0315  -0.0323   0.0801   0.00    0.0
2026/01/15 03:24:30.000   67.857368978   20.968447905   385.9657   6  10   0.0983   0.0729   0.1998  -0.0314  -0.0323   0.0799   0.00    0.0
2026/01/15 03:25:00.000   67.857368996   20.968447774   385.9775   6  10   0.0981   0.0727   0.1995  -0.0313  -0.0322   0.0798   0.00    0.0
2026/01/15 03:25:30.000   67.857369017   20.968447648   385.9889   6  10   0.0979   0.0726   0.1992  -0.0312  -0.0322   0.0797   0.00    0.0
2026/01/15 03:26:00.000   67.857369034   20.968447518   386.0021   6  10   0.0978   0.0725   0.1989  -0.0312  -0.0321   0.0795   0.00    0.0
2026/01/15 03:26:30.000   67.857369051   20.968447397   386.0158   6  10   0.0976   0.0724   0.1987  -0.0311  -0.0321   0.0794   0.00    0.0
2026/01/15 03:27:00.000   67.857369068   20.968447279   386.0282   6  10   0.0975   0.0723   0.1984  -0.0310  -0.0320   0.0793   0.00    0.0
2026/01/15 03:27:30.000   67.857369086   20.968447147   386.0415   6  10   0.0973   0.0721   0.1981  -0.0309  -0.0319   0.0791   0.00    0.0
2026/01/15 03:28:00.000   67.857369108   20.968447034   386.0544   6  10   0.0971   0.0720   0.1979  -0.0309  -0.0319   0.0790   0.00    0.0
2026/01/15 03:28:30.000   67.857369135   20.968446910   386.0681   6  10   0.0970   0.0719   0.1976  -0.0308  -0.0318   0.0789   0.00    0.0
2026/01/15 03:29:00.000   67.857369157   20.968446777   386.0816   6  10   0.0968   0.0718   0.1973  -0.0307  -0.0317   0.0787   0.00    0.0
