% program   : RTKPOST ver.demo5 b34d
% inp file  : E:\Master courses\SNDP-PROJECT\New_Data\obs\RNXDATA\KIRU00SWE_R_20260150000_01D_30S_MO.rnx
% inp file  : E:\Master courses\SNDP-PROJECT\New_Data\nav\BRDC00IGS_R_20260150000_01D_MN.rnx
% inp file  : E:\Master courses\SNDP-PROJECT\New_Data\DATA_FINAL_ANT_EXTRA\COD0MGXFIN_20260150000_01D_05M_ORB.SP3
% inp file  : E:\Master courses\SNDP-PROJECT\New_Data\DATA_FINAL_ANT_EXTRA\COD0MGXFIN_20260150000_01D_30S_CLK.CLK
% obs start : 2026/01/15 00:00:00.0 GPST (week2401 345600.0s)
% obs end   : 2026/01/15 02:00:00.0 GPST (week2401 352800.0s)
% pos mode  : PPP Static
% solution  : Forward
% elev mask : 15.0 deg
% dynamics  : off
% tidecorr  : off
% tropo opt : Saastamoinen
% ephemeris : Precise
% navi sys  : GPS Galileo BDS
% antenna1  : SEPCHOKE_B3E6   SPKE  ( 0.0000  0.0000  0.0620)
%
% (lat/lon/height=WGS84/ellipsoidal,Q=1:fix,2:float,3:sbas,4:dgps,5:single,6:ppp,ns=# of satellites)
%  GPST                  latitude(deg) longitude(deg)  height(m)   Q  ns   sdn(m)   sde(m)   sdu(m)  sdne(m)  sdeu(m)  sdun(m) age(s)  ratio
2026/01/15 00:00:00.000   67.857348167   20.968500449   392.9394   6  26   0.8849   0.7003   2.0452  -0.3319  -0.0916   0.7669   0.00    0.0
2026/01/15 00:00:30.000   67.857351901   20.968494718   392.1929   6  28   0.6101   0.4723   1.4278  -0.1875  -0.1930   0.5655   0.00    0.0
2026/01/15 00:01:00.000   67.857348993   20.968493641   392.1972   6  28   0.4950   0.3812   1.1606  -0.1430  -0.1747   0.4650   0.00    0.0
2026/01/15 00:01:30.000   67.857349653   20.968493218   392.4433   6  28   0.4274   0.3285   1.0019  -0.1200  -0.1582   0.4032   0.00    0.0
2026/01/15 00:02:00.000   67.857350891   20.968491814   392.5057   6  28   0.3816   0.2930   0.8936  -0.1055  -0.1454   0.3602   0.00    0.0
2026/01/15 00:02:30.000   67.857350725   20.968490736   392.5581   6  28   0.3479   0.2671   0.8135  -0.0954  -0.1353   0.3280   0.00    0.0
2026/01/15 00:03:00.000   67.857350372   20.968489987   392.4877   6  28   0.3216   0.2470   0.7504  -0.0878  -0.1270   0.3024   0.00    0.0
2026/01/15 00:03:30.000   67.857350675   20.968491965   392.4786   6  28   0.3003   0.2308   0.6988  -0.0818  -0.1201   0.2813   0.00    0.0
2026/01/15 00:04:00.000   67.857350864   20.968491135   392.5580   6  29   0.2818   0.2174   0.6534  -0.0776  -0.1154   0.2614   0.00    0.0
2026/01/15 00:04:30.000   67.857351148   20.968490093   392.5608   6  28   0.2664   0.2062   0.6163  -0.0736  -0.1128   0.2441   0.00    0.0
2026/01/15 00:05:00.000   67.857350708   20.968490128   392.4074   6  28   0.2531   0.1966   0.5842  -0.0701  -0.1101   0.2292   0.00    0.0
2026/01/15 00:05:30.000   67.857350906   20.968490337   392.2721   6  28   0.2416   0.1883   0.5561  -0.0671  -0.1073   0.2163   0.00    0.0
2026/01/15 00:06:00.000   67.857350941   20.968490293   392.2964   6  28   0.2314   0.1809   0.5311  -0.0645  -0.1047   0.2050   0.00    0.0
2026/01/15 00:06:30.000   67.857350807   20.968490135   392.3141   6  28   0.2224   0.1743   0.5089  -0.0621  -0.1022   0.1949   0.00    0.0
2026/01/15 00:07:00.000   67.857350765   20.968489642   392.3025   6  28   0.2143   0.1684   0.4890  -0.0600  -0.0998   0.1860   0.00    0.0
2026/01/15 00:07:30.000   67.857350603   20.968489809   392.2825   6  28   0.2071   0.1631   0.4710  -0.0582  -0.0975   0.1779   0.00    0.0
2026/01/15 00:08:00.000   67.857350210   20.968490294   392.2586   6  28   0.2004   0.1583   0.4541  -0.0564  -0.0952   0.1703   0.00    0.0
2026/01/15 00:08:30.000   67.857350170   20.968489878   392.2093   6  28   0.1942   0.1538   0.4382  -0.0548  -0.0929   0.1631   0.00    0.0
2026/01/15 00:09:00.000   67.857350001   20.968489751   392.1357   6  28   0.1884   0.1497   0.4232  -0.0532  -0.0907   0.1562   0.00    0.0
2026/01/15 00:09:30.000   67.857349930   20.968489926   392.1170   6  27   0.1832   0.1458   0.4092  -0.0520  -0.0885   0.1495   0.00    0.0
2026/01/15 00:10:00.000   67.857350065   20.968489848   392.1409   6  27   0.1784   0.1423   0.3961  -0.0508  -0.0863   0.1432   0.00    0.0
2026/01/15 00:10:30.000   67.857350062   20.968489476   392.1428   6  27   0.1739   0.1390   0.3839  -0.0497  -0.0843   0.1373   0.00    0.0
2026/01/15 00:11:00.000   67.857349901   20.968489674   392.0911   6  28   0.1696   0.1359   0.3721  -0.0488  -0.0820   0.1321   0.00    0.0
2026/01/15 00:11:30.000   67.857349772   20.968489939   392.0335   6  28   0.1656   0.1329   0.3613  -0.0480  -0.0799   0.1272   0.00    0.0
2026/01/15 00:12:00.000   67.857349980   20.968490090   392.0161   6  28   0.1619   0.1302   0.3512  -0.0472  -0.0780   0.1228   0.00    0.0
2026/01/15 00:12:30.000   67.857349864   20.968489909   391.9863   6  28   0.1585   0.1276   0.3419  -0.0465  -0.0762   0.1187   0.00    0.0
2026/01/15 00:13:00.000   67.857349814   20.968489698   391.9745   6  28   0.1551   0.1251   0.3328  -0.0458  -0.0744   0.1146   0.00    0.0
2026/01/15 00:13:30.000   67.857349819   20.968489039   391.9738   6  28   0.1519   0.1228   0.3238  -0.0451  -0.0727   0.1105   0.00    0.0
2026/01/15 00:14:00.000   67.857349692   20.968489022   391.9390   6  28   0.1488   0.1206   0.3151  -0.0444  -0.0709   0.1065   0.00    0.0
2026/01/15 00:14:30.000   67.857349637   20.968488969   391.9204   6  28   0.1459   0.1185   0.3067  -0.0437  -0.0692   0.1027   0.00    0.0
2026/01/15 00:15:00.000   67.857349499   20.968488910   391.8813   6  29   0.1431   0.1164   0.2986  -0.0429  -0.0677   0.0991   0.00    0.0
2026/01/15 00:15:30.000   67.857349406   20.968488633   391.8768   6  29   0.1403   0.1145   0.2909  -0.0421  -0.0662   0.0957   0.00    0.0
2026/01/15 00:16:00.000   67.857349350   20.968488549   391.8628   6  29   0.1378   0.1127   0.2836  -0.0414  -0.0649   0.0925   0.00    0.0
2026/01/15 00:16:30.000   67.857349170   20.968488585   391.8434   6  29   0.1354   0.1109   0.2769  -0.0407  -0.0636   0.0895   0.00    0.0
2026/01/15 00:17:00.000   67.857349105   20.968488571   391.8175   6  29   0.1331   0.1092   0.2706  -0.0401  -0.0624   0.0868   0.00    0.0
2026/01/15 00:17:30.000   67.857349122   20.968488667   391.8124   6  29   0.1310   0.1076   0.2647  -0.0395  -0.0613   0.0843   0.00    0.0
2026/01/15 00:18:00.000   67.857349080   20.968488759   391.8179   6  29   0.1289   0.1061   0.2590  -0.0389  -0.0601   0.0816   0.00    0.0
2026/01/15 00:18:30.000   67.857348952   20.968488711   391.8090   6  29   0.1269   0.1046   0.2532  -0.0383  -0.0590   0.0788   0.00    0.0
2026/01/15 00:19:00.000   67.857348858   20.968488657   391.7916   6  29   0.1249   0.1031   0.2475  -0.0377  -0.0578   0.0759   0.00    0.0
2026/01/15 00:19:30.000   67.857348836   20.968488772   391.7815   6  29   0.1229   0.1017   0.2419  -0.0371  -0.0567   0.0731   0.00    0.0
2026/01/15 00:20:00.000   67.857348854   20.968488663   391.7551   6  29   0.1211   0.1004   0.2365  -0.0366  -0.0555   0.0703   0.00    0.0
2026/01/15 00:20:30.000   67.857348894   20.968488529   391.7451   6  29   0.1193   0.0990   0.2315  -0.0360  -0.0544   0.0679   0.00    0.0
2026/01/15 00:21:00.000   67.857348903   20.968488527   391.7399   6  29   0.1177   0.0978   0.2268  -0.0355  -0.0534   0.0655   0.00    0.0
2026/01/15 00:21:30.000   67.857348915   20.968488376   391.7304   6  28   0.1161   0.0966   0.2229  -0.0351  -0.0528   0.0636   0.00    0.0
2026/01/15 00:22:00.000   67.857348945   20.968488279   391.7339   6  28   0.1147   0.0955   0.2193  -0.0347  -0.0522   0.0619   0.00    0.0
2026/01/15 00:22:30.000   67.857348987   20.968488341   391.7420   6  28   0.1133   0.0944   0.2158  -0.0343  -0.0517   0.0603   0.00    0.0
2026/01/15 00:23:00.000   67.857349050   20.968488398   391.7370   6  28   0.1119   0.0934   0.2123  -0.0340  -0.0511   0.0585   0.00    0.0
2026/01/15 00:23:30.000   67.857348962   20.968488264   391.7344   6  28   0.1105   0.0923   0.2087  -0.0336  -0.0505   0.0567   0.00    0.0
2026/01/15 00:24:00.000   67.857348858   20.968488090   391.7276   6  28   0.1092   0.0913   0.2051  -0.0332  -0.0499   0.0548   0.00    0.0
2026/01/15 00:24:30.000   67.857348816   20.968487832   391.7137   6  28   0.1078   0.0903   0.2016  -0.0328  -0.0493   0.0529   0.00    0.0
2026/01/15 00:25:00.000   67.857348770   20.968487812   391.7265   6  28   0.1066   0.0894   0.1982  -0.0325  -0.0487   0.0509   0.00    0.0
2026/01/15 00:25:30.000   67.857348802   20.968487912   391.7362   6  27   0.1054   0.0885   0.1951  -0.0321  -0.0480   0.0494   0.00    0.0
2026/01/15 00:26:00.000   67.857348830   20.968488017   391.7421   6  27   0.1042   0.0877   0.1922  -0.0318  -0.0473   0.0479   0.00    0.0
2026/01/15 00:26:30.000   67.857348854   20.968488107   391.7392   6  27   0.1031   0.0868   0.1895  -0.0315  -0.0467   0.0465   0.00    0.0
2026/01/15 00:27:00.000   67.857348844   20.968488099   391.7417   6  27   0.1021   0.0860   0.1869  -0.0312  -0.0462   0.0452   0.00    0.0
2026/01/15 00:27:30.000   67.857348810   20.968488192   391.7418   6  27   0.1010   0.0853   0.1844  -0.0309  -0.0456   0.0441   0.00    0.0
2026/01/15 00:28:00.000   67.857348703   20.968488236   391.7458   6  27   0.1000   0.0846   0.1819  -0.0307  -0.0450   0.0428   0.00    0.0
2026/01/15 00:28:30.000   67.857348707   20.968488069   391.7454   6  27   0.0990   0.0838   0.1793  -0.0304  -0.0444   0.0414   0.00    0.0
2026/01/15 00:29:00.000   67.857348716   20.968487980   391.7490   6  27   0.0980   0.0831   0.1767  -0.0301  -0.0438   0.0400   0.00    0.0
2026/01/15 00:29:30.000   67.857348684   20.968487843   391.7417   6  27   0.0971   0.0824   0.1741  -0.0299  -0.0432   0.0385   0.00    0.0
2026/01/15 00:30:00.000   67.857348676   20.968487912   391.7371   6  27   0.0961   0.0817   0.1715  -0.0296  -0.0426   0.0369   0.00    0.0
2026/01/15 00:30:30.000   67.857348730   20.968487936   391.7340   6  26   0.0952   0.0811   0.1695  -0.0294  -0.0421   0.0360   0.00    0.0
2026/01/15 00:31:00.000   67.857348728   20.968487956   391.7333   6  26   0.0944   0.0804   0.1676  -0.0292  -0.0416   0.0350   0.00    0.0
2026/01/15 00:31:30.000   67.857348650   20.968487959   391.7463   6  26   0.0935   0.0798   0.1657  -0.0290  -0.0412   0.0342   0.00    0.0
2026/01/15 00:32:00.000   67.857348659   20.968487951   391.7470   6  26   0.0928   0.0792   0.1640  -0.0288  -0.0408   0.0334   0.00    0.0
2026/01/15 00:32:30.000   67.857348644   20.968487945   391.7557   6  26   0.0920   0.0786   0.1623  -0.0287  -0.0404   0.0327   0.00    0.0
2026/01/15 00:33:00.000   67.857348659   20.968487998   391.7607   6  26   0.0912   0.0780   0.1605  -0.0285  -0.0399   0.0319   0.00    0.0
2026/01/15 00:33:30.000   67.857348674   20.968488012   391.7661   6  26   0.0905   0.0775   0.1588  -0.0284  -0.0395   0.0311   0.00    0.0
2026/01/15 00:34:00.000   67.857348667   20.968487889   391.7701   6  26   0.0898   0.0769   0.1570  -0.0283  -0.0390   0.0302   0.00    0.0
2026/01/15 00:34:30.000   67.857348656   20.968487989   391.7726   6  26   0.0891   0.0763   0.1553  -0.0281  -0.0385   0.0293   0.00    0.0
2026/01/15 00:35:00.000   67.857348651   20.968487872   391.7777   6  26   0.0884   0.0758   0.1535  -0.0280  -0.0381   0.0283   0.00    0.0
2026/01/15 00:35:30.000   67.857348661   20.968487882   391.7802   6  26   0.0877   0.0753   0.1518  -0.0279  -0.0376   0.0274   0.00    0.0
2026/01/15 00:36:00.000   67.857348639   20.968487892   391.7803   6  26   0.0871   0.0747   0.1501  -0.0278  -0.0371   0.0265   0.00    0.0
2026/01/15 00:36:30.000   67.857348599   20.968487829   391.7793   6  26   0.0864   0.0742   0.1485  -0.0276  -0.0367   0.0257   0.00    0.0
2026/01/15 00:37:00.000   67.857348567   20.968487780   391.7809   6  26   0.0858   0.0737   0.1470  -0.0275  -0.0363   0.0249   0.00    0.0
2026/01/15 00:37:30.000   67.857348534   20.968487803   391.7826   6  26   0.0852   0.0733   0.1456  -0.0274  -0.0359   0.0242   0.00    0.0
2026/01/15 00:38:00.000   67.857348515   20.968487718   391.7771   6  26   0.0846   0.0728   0.1441  -0.0273  -0.0355   0.0234   0.00    0.0
2026/01/15 00:38:30.000   67.857348503   20.968487773   391.7727   6  26   0.0840   0.0723   0.1426  -0.0272  -0.0351   0.0225   0.00    0.0
2026/01/15 00:39:00.000   67.857348510   20.968487740   391.7742   6  26   0.0834   0.0718   0.1410  -0.0271  -0.0347   0.0214   0.00    0.0
2026/01/15 00:39:30.000   67.857348524   20.968487700   391.7639   6  26   0.0828   0.0714   0.1395  -0.0270  -0.0343   0.0202   0.00    0.0
2026/01/15 00:40:00.000   67.857348546   20.968487722   391.7638   6  26   0.0822   0.0709   0.1379  -0.0269  -0.0338   0.0189   0.00    0.0
2026/01/15 00:40:30.000   67.857348485   20.968487726   391.7639   6  26   0.0816   0.0705   0.1364  -0.0267  -0.0334   0.0176   0.00    0.0
2026/01/15 00:41:00.000   67.857348437   20.968487633   391.7611   6  26   0.0811   0.0700   0.1350  -0.0266  -0.0330   0.0164   0.00    0.0
2026/01/15 00:41:30.000   67.857348440   20.968487595   391.7565   6  26   0.0806   0.0696   0.1336  -0.0265  -0.0326   0.0151   0.00    0.0
2026/01/15 00:42:00.000   67.857348412   20.968487612   391.7553   6  26   0.0800   0.0692   0.1323  -0.0264  -0.0322   0.0139   0.00    0.0
2026/01/15 00:42:30.000   67.857348398   20.968487650   391.7516   6  26   0.0795   0.0688   0.1311  -0.0263  -0.0319   0.0129   0.00    0.0
2026/01/15 00:43:00.000   67.857348409   20.968487605   391.7490   6  26   0.0791   0.0684   0.1300  -0.0263  -0.0315   0.0119   0.00    0.0
2026/01/15 00:43:30.000   67.857348433   20.968487745   391.7501   6  26   0.0786   0.0680   0.1288  -0.0262  -0.0311   0.0107   0.00    0.0
2026/01/15 00:44:00.000   67.857348420   20.968487704   391.7466   6  26   0.0781   0.0676   0.1277  -0.0261  -0.0308   0.0093   0.00    0.0
2026/01/15 00:44:30.000   67.857348393   20.968487814   391.7442   6  27   0.0776   0.0672   0.1265  -0.0259  -0.0304   0.0078   0.00    0.0
2026/01/15 00:45:00.000   67.857348344   20.968487804   391.7408   6  27   0.0771   0.0669   0.1253  -0.0258  -0.0300   0.0059   0.00    0.0
2026/01/15 00:45:30.000   67.857348328   20.968487810   391.7399   6  27   0.0766   0.0665   0.1242  -0.0256  -0.0296   0.0033   0.00    0.0
2026/01/15 00:46:00.000   67.857348277   20.968487951   391.7394   6  27   0.0761   0.0662   0.1231  -0.0255  -0.0292  -0.0034   0.00    0.0
2026/01/15 00:46:30.000   67.857348304   20.968487913   391.7401   6  26   0.0757   0.0658   0.1222  -0.0254  -0.0289  -0.0045   0.00    0.0
2026/01/15 00:47:00.000   67.857348318   20.968488008   391.7458   6  26   0.0753   0.0655   0.1214  -0.0253  -0.0285  -0.0053   0.00    0.0
2026/01/15 00:47:30.000   67.857348304   20.968488023   391.7513   6  25   0.0749   0.0652   0.1206  -0.0251  -0.0282  -0.0057   0.00    0.0
2026/01/15 00:48:00.000   67.857348316   20.968488026   391.7536   6  26   0.0745   0.0649   0.1198  -0.0250  -0.0278  -0.0065   0.00    0.0
2026/01/15 00:48:30.000   67.857348331   20.968488022   391.7530   6  26   0.0741   0.0645   0.1189  -0.0249  -0.0274  -0.0073   0.00    0.0
2026/01/15 00:49:00.000   67.857348304   20.968488061   391.7574   6  25   0.0737   0.0642   0.1180  -0.0248  -0.0270  -0.0083   0.00    0.0
2026/01/15 00:49:30.000   67.857348278   20.968488185   391.7609   6  25   0.0733   0.0639   0.1172  -0.0247  -0.0266  -0.0094   0.00    0.0
2026/01/15 00:50:00.000   67.857348273   20.968488271   391.7592   6  25   0.0730   0.0636   0.1163  -0.0246  -0.0261  -0.0103   0.00    0.0
2026/01/15 00:50:30.000   67.857348274   20.968488485   391.7560   6  26   0.0726   0.0633   0.1154  -0.0245  -0.0257  -0.0111   0.00    0.0
2026/01/15 00:51:00.000   67.857348301   20.968488570   391.7574   6  25   0.0722   0.0630   0.1146  -0.0244  -0.0253  -0.0118   0.00    0.0
2026/01/15 00:51:30.000   67.857348306   20.968488601   391.7620   6  24   0.0719   0.0627   0.1139  -0.0243  -0.0250  -0.0122   0.00    0.0
2026/01/15 00:52:00.000   67.857348286   20.968488646   391.7682   6  25   0.0715   0.0624   0.1133  -0.0242  -0.0246  -0.0126   0.00    0.0
2026/01/15 00:52:30.000   67.857348268   20.968488662   391.7733   6  25   0.0712   0.0621   0.1127  -0.0241  -0.0243  -0.0129   0.00    0.0
2026/01/15 00:53:00.000   67.857348262   20.968488680   391.7785   6  25   0.0709   0.0619   0.1121  -0.0240  -0.0240  -0.0132   0.00    0.0
2026/01/15 00:53:30.000   67.857348248   20.968488682   391.7841   6  25   0.0705   0.0616   0.1115  -0.0239  -0.0237  -0.0137   0.00    0.0
2026/01/15 00:54:00.000   67.857348264   20.968488856   391.7823   6  26   0.0702   0.0613   0.1109  -0.0238  -0.0233  -0.0142   0.00    0.0
2026/01/15 00:54:30.000   67.857348267   20.968488805   391.7872   6  25   0.0698   0.0610   0.1102  -0.0237  -0.0229  -0.0147   0.00    0.0
2026/01/15 00:55:00.000   67.857348248   20.968488800   391.7951   6  25   0.0695   0.0607   0.1096  -0.0236  -0.0226  -0.0152   0.00    0.0
2026/01/15 00:55:30.000   67.857348253   20.968488857   391.7932   6  26   0.0692   0.0605   0.1089  -0.0234  -0.0222  -0.0156   0.00    0.0
2026/01/15 00:56:00.000   67.857348248   20.968488818   391.7981   6  25   0.0688   0.0602   0.1083  -0.0233  -0.0218  -0.0161   0.00    0.0
2026/01/15 00:56:30.000   67.857348241   20.968488749   391.8024   6  25   0.0685   0.0599   0.1077  -0.0232  -0.0215  -0.0164   0.00    0.0
2026/01/15 00:57:00.000   67.857348248   20.968488836   391.8015   6  25   0.0682   0.0597   0.1072  -0.0232  -0.0211  -0.0168   0.00    0.0
2026/01/15 00:57:30.000   67.857348243   20.968488832   391.8064   6  23   0.0679   0.0594   0.1066  -0.0231  -0.0208  -0.0171   0.00    0.0
2026/01/15 00:58:00.000   67.857348260   20.968488896   391.8092   6  23   0.0676   0.0592   0.1061  -0.0230  -0.0205  -0.0175   0.00    0.0
2026/01/15 00:58:30.000   67.857348257   20.968488980   391.8077   6  24   0.0673   0.0589   0.1055  -0.0229  -0.0200  -0.0179   0.00    0.0
2026/01/15 00:59:00.000   67.857348263   20.968489083   391.8051   6  24   0.0670   0.0587   0.1049  -0.0228  -0.0196  -0.0183   0.00    0.0
2026/01/15 00:59:30.000   67.857348229   20.968489207   391.8040   6  24   0.0667   0.0584   0.1043  -0.0227  -0.0192  -0.0188   0.00    0.0
2026/01/15 01:00:00.000   67.857348244   20.968489159   391.8049   6  23   0.0665   0.0582   0.1038  -0.0226  -0.0188  -0.0189   0.00    0.0
2026/01/15 01:00:30.000   67.857348234   20.968489163   391.8084   6  23   0.0663   0.0580   0.1033  -0.0225  -0.0185  -0.0191   0.00    0.0
2026/01/15 01:01:00.000   67.857348230   20.968489293   391.8065   6  23   0.0660   0.0577   0.1028  -0.0224  -0.0181  -0.0193   0.00    0.0
2026/01/15 01:01:30.000   67.857348237   20.968489238   391.8074   6  22   0.0658   0.0575   0.1023  -0.0223  -0.0177  -0.0195   0.00    0.0
2026/01/15 01:02:00.000   67.857348243   20.968489320   391.8041   6  23   0.0656   0.0573   0.1019  -0.0223  -0.0174  -0.0196   0.00    0.0
2026/01/15 01:02:30.000   67.857348265   20.968489370   391.8031   6  23   0.0654   0.0571   0.1015  -0.0222  -0.0170  -0.0197   0.00    0.0
2026/01/15 01:03:00.000   67.857348275   20.968489484   391.8001   6  24   0.0652   0.0568   0.1010  -0.0221  -0.0166  -0.0199   0.00    0.0
2026/01/15 01:03:30.000   67.857348285   20.968489484   391.7982   6  24   0.0650   0.0566   0.1005  -0.0220  -0.0162  -0.0201   0.00    0.0
2026/01/15 01:04:00.000   67.857348288   20.968489596   391.7958   6  24   0.0648   0.0564   0.1000  -0.0219  -0.0157  -0.0203   0.00    0.0
2026/01/15 01:04:30.000   67.857348257   20.968489643   391.7976   6  24   0.0646   0.0562   0.0995  -0.0218  -0.0153  -0.0205   0.00    0.0
2026/01/15 01:05:00.000   67.857348263   20.968489633   391.8000   6  23   0.0644   0.0560   0.0990  -0.0218  -0.0149  -0.0207   0.00    0.0
2026/01/15 01:05:30.000   67.857348253   20.968489729   391.7985   6  24   0.0642   0.0557   0.0985  -0.0217  -0.0144  -0.0209   0.00    0.0
2026/01/15 01:06:00.000   67.857348262   20.968489725   391.8011   6  23   0.0640   0.0555   0.0980  -0.0216  -0.0140  -0.0210   0.00    0.0
2026/01/15 01:06:30.000   67.857348247   20.968489800   391.7986   6  24   0.0638   0.0553   0.0975  -0.0215  -0.0136  -0.0212   0.00    0.0
2026/01/15 01:07:00.000   67.857348268   20.968489866   391.7959   6  24   0.0636   0.0551   0.0971  -0.0214  -0.0132  -0.0213   0.00    0.0
2026/01/15 01:07:30.000   67.857348252   20.968489952   391.7951   6  24   0.0634   0.0549   0.0967  -0.0214  -0.0128  -0.0214   0.00    0.0
2026/01/15 01:08:00.000   67.857348230   20.968489971   391.7955   6  24   0.0632   0.0547   0.0962  -0.0213  -0.0123  -0.0216   0.00    0.0
2026/01/15 01:08:30.000   67.857348231   20.968490027   391.7936   6  24   0.0631   0.0545   0.0957  -0.0212  -0.0119  -0.0218   0.00    0.0
2026/01/15 01:09:00.000   67.857348219   20.968490083   391.7936   6  24   0.0629   0.0543   0.0952  -0.0211  -0.0114  -0.0219   0.00    0.0
2026/01/15 01:09:30.000   67.857348197   20.968490092   391.7935   6  24   0.0627   0.0541   0.0947  -0.0210  -0.0109  -0.0221   0.00    0.0
2026/01/15 01:10:00.000   67.857348171   20.968490169   391.7932   6  24   0.0625   0.0539   0.0942  -0.0210  -0.0103  -0.0223   0.00    0.0
2026/01/15 01:10:30.000   67.857348148   20.968490178   391.7942   6  24   0.0623   0.0537   0.0937  -0.0209  -0.0098  -0.0225   0.00    0.0
2026/01/15 01:11:00.000   67.857348142   20.968490199   391.7945   6  24   0.0621   0.0535   0.0932  -0.0208  -0.0092  -0.0227   0.00    0.0
2026/01/15 01:11:30.000   67.857348151   20.968490202   391.7930   6  24   0.0619   0.0533   0.0928  -0.0207  -0.0087  -0.0229   0.00    0.0
2026/01/15 01:12:00.000   67.857348180   20.968490246   391.7891   6  24   0.0617   0.0531   0.0923  -0.0207  -0.0082  -0.0230   0.00    0.0
2026/01/15 01:12:30.000   67.857348163   20.968490302   391.7905   6  24   0.0615   0.0529   0.0919  -0.0206  -0.0076  -0.0231   0.00    0.0
2026/01/15 01:13:00.000   67.857348171   20.968490344   391.7857   6  24   0.0614   0.0528   0.0915  -0.0205  -0.0071  -0.0233   0.00    0.0
2026/01/15 01:13:30.000   67.857348154   20.968490374   391.7848   6  24   0.0612   0.0526   0.0910  -0.0205  -0.0064  -0.0234   0.00    0.0
2026/01/15 01:14:00.000   67.857348163   20.968490367   391.7839   6  24   0.0610   0.0524   0.0905  -0.0204  -0.0057  -0.0236   0.00    0.0
2026/01/15 01:14:30.000   67.857348173   20.968490413   391.7809   6  24   0.0608   0.0522   0.0900  -0.0203  -0.0048  -0.0238   0.00    0.0
2026/01/15 01:15:00.000   67.857348187   20.968490464   391.7784   6  24   0.0606   0.0520   0.0895  -0.0203  -0.0038  -0.0240   0.00    0.0
2026/01/15 01:15:30.000   67.857348183   20.968490459   391.7757   6  23   0.0604   0.0519   0.0890  -0.0202  -0.0025  -0.0241   0.00    0.0
2026/01/15 01:16:00.000   67.857348186   20.968490564   391.7738   6  24   0.0603   0.0517   0.0885  -0.0201   0.0013  -0.0243   0.00    0.0
2026/01/15 01:16:30.000   67.857348180   20.968490657   391.7726   6  24   0.0601   0.0515   0.0881  -0.0201   0.0030  -0.0244   0.00    0.0
2026/01/15 01:17:00.000   67.857348205   20.968490660   391.7679   6  24   0.0599   0.0514   0.0876  -0.0200   0.0040  -0.0246   0.00    0.0
2026/01/15 01:17:30.000   67.857348188   20.968490680   391.7659   6  24   0.0597   0.0512   0.0872  -0.0200   0.0047  -0.0247   0.00    0.0
2026/01/15 01:18:00.000   67.857348197   20.968490687   391.7651   6  24   0.0596   0.0510   0.0868  -0.0199   0.0054  -0.0248   0.00    0.0
2026/01/15 01:18:30.000   67.857348189   20.968490774   391.7637   6  24   0.0594   0.0509   0.0863  -0.0199   0.0060  -0.0249   0.00    0.0
2026/01/15 01:19:00.000   67.857348176   20.968490797   391.7624   6  24   0.0592   0.0507   0.0859  -0.0198   0.0065  -0.0251   0.00    0.0
2026/01/15 01:19:30.000   67.857348173   20.968490863   391.7611   6  24   0.0590   0.0505   0.0854  -0.0197   0.0070  -0.0252   0.00    0.0
2026/01/15 01:20:00.000   67.857348182   20.968490882   391.7582   6  24   0.0589   0.0504   0.0849  -0.0197   0.0075  -0.0254   0.00    0.0
2026/01/15 01:20:30.000   67.857348181   20.968490881   391.7544   6  26   0.0587   0.0502   0.0844  -0.0196   0.0079  -0.0255   0.00    0.0
2026/01/15 01:21:00.000   67.857348172   20.968490836   391.7510   6  25   0.0585   0.0501   0.0839  -0.0195   0.0082  -0.0256   0.00    0.0
2026/01/15 01:21:30.000   67.857348191   20.968490845   391.7484   6  26   0.0583   0.0499   0.0835  -0.0195   0.0086  -0.0257   0.00    0.0
2026/01/15 01:22:00.000   67.857348204   20.968490809   391.7456   6  26   0.0581   0.0497   0.0830  -0.0194   0.0088  -0.0257   0.00    0.0
2026/01/15 01:22:30.000   67.857348233   20.968490763   391.7421   6  26   0.0579   0.0496   0.0826  -0.0194   0.0091  -0.0258   0.00    0.0
2026/01/15 01:23:00.000   67.857348240   20.968490732   391.7381   6  26   0.0577   0.0494   0.0822  -0.0193   0.0093  -0.0259   0.00    0.0
2026/01/15 01:23:30.000   67.857348257   20.968490692   391.7368   6  25   0.0576   0.0493   0.0817  -0.0193   0.0096  -0.0259   0.00    0.0
2026/01/15 01:24:00.000   67.857348277   20.968490611   391.7365   6  25   0.0574   0.0491   0.0813  -0.0192   0.0098  -0.0260   0.00    0.0
2026/01/15 01:24:30.000   67.857348289   20.968490573   391.7349   6  25   0.0572   0.0490   0.0808  -0.0192   0.0100  -0.0261   0.00    0.0
2026/01/15 01:25:00.000   67.857348299   20.968490506   391.7353   6  24   0.0570   0.0488   0.0804  -0.0191   0.0102  -0.0262   0.00    0.0
2026/01/15 01:25:30.000   67.857348296   20.968490477   391.7337   6  24   0.0568   0.0487   0.0799  -0.0190   0.0103  -0.0263   0.00    0.0
2026/01/15 01:26:00.000   67.857348286   20.968490396   391.7352   6  24   0.0566   0.0485   0.0795  -0.0190   0.0105  -0.0264   0.00    0.0
2026/01/15 01:26:30.000   67.857348278   20.968490404   391.7352   6  24   0.0565   0.0484   0.0791  -0.0189   0.0106  -0.0265   0.00    0.0
2026/01/15 01:27:00.000   67.857348286   20.968490367   391.7352   6  24   0.0563   0.0482   0.0787  -0.0189   0.0108  -0.0266   0.00    0.0
2026/01/15 01:27:30.000   67.857348289   20.968490349   391.7364   6  24   0.0561   0.0481   0.0783  -0.0188   0.0109  -0.0266   0.00    0.0
2026/01/15 01:28:00.000   67.857348298   20.968490276   391.7364   6  24   0.0559   0.0479   0.0779  -0.0188   0.0110  -0.0267   0.00    0.0
2026/01/15 01:28:30.000   67.857348308   20.968490263   391.7356   6  24   0.0558   0.0478   0.0775  -0.0188   0.0112  -0.0268   0.00    0.0
2026/01/15 01:29:00.000   67.857348290   20.968490145   391.7370   6  23   0.0556   0.0477   0.0771  -0.0187   0.0113  -0.0268   0.00    0.0
2026/01/15 01:29:30.000   67.857348277   20.968490126   391.7376   6  24   0.0554   0.0475   0.0766  -0.0187   0.0114  -0.0269   0.00    0.0
2026/01/15 01:30:00.000   67.857348282   20.968490098   391.7367   6  24   0.0552   0.0474   0.0762  -0.0187   0.0115  -0.0270   0.00    0.0
2026/01/15 01:30:30.000   67.857348308   20.968490040   391.7335   6  24   0.0551   0.0472   0.0758  -0.0186   0.0117  -0.0271   0.00    0.0
2026/01/15 01:31:00.000   67.857348313   20.968490037   391.7312   6  24   0.0549   0.0471   0.0753  -0.0186   0.0118  -0.0272   0.00    0.0
2026/01/15 01:31:30.000   67.857348311   20.968489977   391.7304   6  24   0.0547   0.0470   0.0749  -0.0186   0.0119  -0.0273   0.00    0.0
2026/01/15 01:32:00.000   67.857348305   20.968489917   391.7301   6  24   0.0546   0.0468   0.0746  -0.0185   0.0120  -0.0273   0.00    0.0
2026/01/15 01:32:30.000   67.857348298   20.968489878   391.7289   6  24   0.0544   0.0467   0.0742  -0.0185   0.0120  -0.0273   0.00    0.0
2026/01/15 01:33:00.000   67.857348306   20.968489851   391.7257   6  24   0.0542   0.0466   0.0738  -0.0185   0.0121  -0.0274   0.00    0.0
2026/01/15 01:33:30.000   67.857348326   20.968489811   391.7235   6  24   0.0541   0.0464   0.0734  -0.0184   0.0122  -0.0274   0.00    0.0
2026/01/15 01:34:00.000   67.857348346   20.968489728   391.7205   6  24   0.0539   0.0463   0.0730  -0.0184   0.0123  -0.0275   0.00    0.0
2026/01/15 01:34:30.000   67.857348358   20.968489762   391.7177   6  24   0.0537   0.0462   0.0726  -0.0184   0.0124  -0.0276   0.00    0.0
2026/01/15 01:35:00.000   67.857348348   20.968489721   391.7174   6  24   0.0535   0.0460   0.0722  -0.0184   0.0124  -0.0276   0.00    0.0
2026/01/15 01:35:30.000   67.857348333   20.968489753   391.7156   6  24   0.0534   0.0459   0.0718  -0.0183   0.0125  -0.0277   0.00    0.0
2026/01/15 01:36:00.000   67.857348343   20.968489681   391.7132   6  24   0.0532   0.0458   0.0714  -0.0183   0.0126  -0.0278   0.00    0.0
2026/01/15 01:36:30.000   67.857348350   20.968489658   391.7102   6  24   0.0530   0.0456   0.0710  -0.0183   0.0126  -0.0278   0.00    0.0
2026/01/15 01:37:00.000   67.857348369   20.968489585   391.7064   6  24   0.0529   0.0455   0.0706  -0.0183   0.0127  -0.0278   0.00    0.0
2026/01/15 01:37:30.000   67.857348361   20.968489516   391.7058   6  24   0.0527   0.0454   0.0703  -0.0183   0.0127  -0.0278   0.00    0.0
2026/01/15 01:38:00.000   67.857348344   20.968489542   391.7055   6  24   0.0525   0.0453   0.0699  -0.0182   0.0128  -0.0279   0.00    0.0
2026/01/15 01:38:30.000   67.857348340   20.968489497   391.7035   6  24   0.0524   0.0451   0.0696  -0.0182   0.0128  -0.0279   0.00    0.0
2026/01/15 01:39:00.000   67.857348351   20.968489444   391.7004   6  24   0.0522   0.0450   0.0692  -0.0182   0.0128  -0.0279   0.00    0.0
2026/01/15 01:39:30.000   67.857348364   20.968489394   391.6969   6  24   0.0520   0.0449   0.0688  -0.0182   0.0129  -0.0280   0.00    0.0
2026/01/15 01:40:00.000   67.857348370   20.968489373   391.6926   6  24   0.0519   0.0448   0.0684  -0.0182   0.0129  -0.0280   0.00    0.0
2026/01/15 01:40:30.000   67.857348376   20.968489290   391.6891   6  24   0.0517   0.0446   0.0680  -0.0182   0.0130  -0.0281   0.00    0.0
2026/01/15 01:41:00.000   67.857348360   20.968489266   391.6870   6  24   0.0515   0.0445   0.0676  -0.0181   0.0130  -0.0281   0.00    0.0
2026/01/15 01:41:30.000   67.857348358   20.968489233   391.6849   6  24   0.0514   0.0444   0.0673  -0.0181   0.0130  -0.0281   0.00    0.0
2026/01/15 01:42:00.000   67.857348377   20.968489188   391.6811   6  24   0.0512   0.0443   0.0669  -0.0181   0.0131  -0.0281   0.00    0.0
2026/01/15 01:42:30.000   67.857348391   20.968489169   391.6782   6  24   0.0510   0.0442   0.0666  -0.0181   0.0131  -0.0281   0.00    0.0
2026/01/15 01:43:00.000   67.857348395   20.968489118   391.6760   6  24   0.0509   0.0440   0.0663  -0.0181   0.0131  -0.0281   0.00    0.0
2026/01/15 01:43:30.000   67.857348406   20.968489087   391.6720   6  24   0.0507   0.0439   0.0659  -0.0181   0.0131  -0.0282   0.00    0.0
2026/01/15 01:44:00.000   67.857348410   20.968489075   391.6678   6  24   0.0506   0.0438   0.0655  -0.0180   0.0131  -0.0282   0.00    0.0
2026/01/15 01:44:30.000   67.857348431   20.968489028   391.6631   6  24   0.0504   0.0437   0.0652  -0.0180   0.0131  -0.0282   0.00    0.0
2026/01/15 01:45:00.000   67.857348450   20.968488973   391.6583   6  24   0.0502   0.0436   0.0648  -0.0180   0.0131  -0.0282   0.00    0.0
2026/01/15 01:45:30.000   67.857348464   20.968488913   391.6544   6  24   0.0501   0.0435   0.0644  -0.0180   0.0131  -0.0282   0.00    0.0
2026/01/15 01:46:00.000   67.857348484   20.968488825   391.6502   6  24   0.0499   0.0433   0.0641  -0.0180   0.0132  -0.0282   0.00    0.0
2026/01/15 01:46:30.000   67.857348496   20.968488740   391.6463   6  24   0.0498   0.0432   0.0638  -0.0179   0.0132  -0.0282   0.00    0.0
2026/01/15 01:47:00.000   67.857348498   20.968488712   391.6428   6  24   0.0496   0.0431   0.0634  -0.0179   0.0132  -0.0282   0.00    0.0
2026/01/15 01:47:30.000   67.857348508   20.968488644   391.6391   6  24   0.0495   0.0430   0.0631  -0.0179   0.0132  -0.0282   0.00    0.0
2026/01/15 01:48:00.000   67.857348505   20.968488636   391.6372   6  24   0.0493   0.0429   0.0628  -0.0179   0.0132  -0.0281   0.00    0.0
2026/01/15 01:48:30.000   67.857348511   20.968488566   391.6334   6  24   0.0492   0.0428   0.0625  -0.0179   0.0132  -0.0281   0.00    0.0
2026/01/15 01:49:00.000   67.857348519   20.968488509   391.6293   6  24   0.0490   0.0427   0.0622  -0.0179   0.0132  -0.0281   0.00    0.0
2026/01/15 01:49:30.000   67.857348521   20.968488475   391.6254   6  25   0.0489   0.0426   0.0618  -0.0179   0.0132  -0.0281   0.00    0.0
2026/01/15 01:50:00.000   67.857348532   20.968488435   391.6210   6  25   0.0487   0.0424   0.0615  -0.0178   0.0132  -0.0281   0.00    0.0
2026/01/15 01:50:30.000   67.857348540   20.968488397   391.6160   6  25   0.0485   0.0423   0.0611  -0.0178   0.0132  -0.0281   0.00    0.0
2026/01/15 01:51:00.000   67.857348551   20.968488352   391.6120   6  25   0.0484   0.0422   0.0608  -0.0178   0.0132  -0.0281   0.00    0.0
2026/01/15 01:51:30.000   67.857348563   20.968488283   391.6086   6  25   0.0482   0.0421   0.0605  -0.0178   0.0132  -0.0280   0.00    0.0
2026/01/15 01:52:00.000   67.857348584   20.968488218   391.6048   6  25   0.0481   0.0420   0.0602  -0.0178   0.0132  -0.0280   0.00    0.0
2026/01/15 01:52:30.000   67.857348584   20.968488188   391.6039   6  25   0.0479   0.0419   0.0599  -0.0178   0.0132  -0.0280   0.00    0.0
2026/01/15 01:53:00.000   67.857348591   20.968488110   391.6006   6  24   0.0478   0.0418   0.0596  -0.0178   0.0132  -0.0279   0.00    0.0
2026/01/15 01:53:30.000   67.857348591   20.968488009   391.5970   6  24   0.0476   0.0417   0.0593  -0.0177   0.0132  -0.0279   0.00    0.0
2026/01/15 01:54:00.000   67.857348607   20.968487947   391.5918   6  25   0.0475   0.0416   0.0590  -0.0177   0.0132  -0.0279   0.00    0.0
2026/01/15 01:54:30.000   67.857348618   20.968487858   391.5873   6  25   0.0473   0.0415   0.0587  -0.0177   0.0132  -0.0279   0.00    0.0
2026/01/15 01:55:00.000   67.857348643   20.968487827   391.5816   6  25   0.0472   0.0414   0.0583  -0.0177   0.0132  -0.0278   0.00    0.0
2026/01/15 01:55:30.000   67.857348659   20.968487780   391.5772   6  25   0.0470   0.0413   0.0580  -0.0177   0.0132  -0.0278   0.00    0.0
2026/01/15 01:56:00.000   67.857348673   20.968487716   391.5723   6  25   0.0468   0.0412   0.0577  -0.0177   0.0132  -0.0278   0.00    0.0
2026/01/15 01:56:30.000   67.857348682   20.968487698   391.5690   6  25   0.0467   0.0411   0.0574  -0.0177   0.0132  -0.0277   0.00    0.0
2026/01/15 01:57:00.000   67.857348696   20.968487657   391.5657   6  25   0.0465   0.0410   0.0571  -0.0177   0.0132  -0.0277   0.00    0.0
2026/01/15 01:57:30.000   67.857348696   20.968487629   391.5619   6  26   0.0464   0.0409   0.0569  -0.0176   0.0132  -0.0276   0.00    0.0
2026/01/15 01:58:00.000   67.857348713   20.968487560   391.5576   6  26   0.0462   0.0408   0.0566  -0.0176   0.0131  -0.0276   0.00    0.0
2026/01/15 01:58:30.000   67.857348731   20.968487476   391.5521   6  26   0.0461   0.0407   0.0563  -0.0176   0.0131  -0.0275   0.00    0.0
2026/01/15 01:59:00.000   67.857348738   20.968487381   391.5472   6  26   0.0459   0.0405   0.0560  -0.0176   0.0131  -0.0275   0.00    0.0
2026/01/15 01:59:30.000   67.857348743   20.968487317   391.5417   6  26   0.0458   0.0404   0.0557  -0.0176   0.0130  -0.0275   0.00    0.0
2026/01/15 02:00:00.000   67.857348747   20.968487240   391.5372   6  26   0.0456   0.0403   0.0554  -0.0175   0.0130  -0.0274   0.00    0.0
