% program   : RTKPOST ver.demo5 b34d
% inp file  : E:\Master courses\SNDP-PROJECT\New_Data\obs\RNXDATA\KIRU00SWE_R_20260150000_01D_30S_MO.rnx
% inp file  : E:\Master courses\SNDP-PROJECT\New_Data\nav\BRDC00IGS_R_20260150000_01D_MN.rnx
% inp file  : E:\Master courses\SNDP-PROJECT\New_Data\DATA_FINAL_ANT_EXTRA\COD0MGXFIN_20260150000_01D_05M_ORB.SP3
% inp file  : E:\Master courses\SNDP-PROJECT\New_Data\DATA_FINAL_ANT_EXTRA\COD0MGXFIN_20260150000_01D_30S_CLK.CLK
% obs start : 2026/01/15 00:00:00.0 GPST (week2401 345600.0s)
% obs end   : 2026/01/15 23:59:30.0 GPST (week2401 431970.0s)
% pos mode  : PPP Static
% solution  : Forward
% elev mask : 15.0 deg
% dynamics  : off
% tidecorr  : off
% tropo opt : Saastamoinen
% ephemeris : Precise
% navi sys  : GPS
% antenna1  : SEPCHOKE_B3E6   SPKE  ( 0.0000  0.0000  0.0620)
%
% (lat/lon/height=WGS84/ellipsoidal,Q=1:fix,2:float,3:sbas,4:dgps,5:single,6:ppp,ns=# of satellites)
%  GPST                  latitude(deg) longitude(deg)  height(m)   Q  ns   sdn(m)   sde(m)   sdu(m)  sdne(m)  sdeu(m)  sdun(m) age(s)  ratio
2026/01/15 00:00:00.000   67.857352297   20.968478500   393.1924   6  10   1.3120   1.0939   3.4040  -0.2861  -0.8747   1.2223   0.00    0.0
2026/01/15 00:00:30.000   67.857352959   20.968479140   392.2601   6  10   0.9284   0.7742   2.4085  -0.2047  -0.6215   0.8648   0.00    0.0
2026/01/15 00:01:00.000   67.857348184   20.968478182   392.3814   6  10   0.7582   0.6326   1.9657  -0.1690  -0.5093   0.7055   0.00    0.0
2026/01/15 00:01:30.000   67.857349058   20.968474881   392.6289   6  10   0.6567   0.5482   1.7007  -0.1477  -0.4424   0.6100   0.00    0.0
2026/01/15 00:02:00.000   67.857350635   20.968474947   392.6041   6  10   0.5873   0.4907   1.5192  -0.1332  -0.3968   0.5443   0.00    0.0
2026/01/15 00:02:30.000   67.857349256   20.968473266   392.5965   6  10   0.5361   0.4482   1.3846  -0.1224  -0.3631   0.4955   0.00    0.0
2026/01/15 00:03:00.000   67.857348805   20.968470964   392.4236   6  10   0.4960   0.4151   1.2783  -0.1139  -0.3365   0.4567   0.00    0.0
2026/01/15 00:03:30.000   67.857349072   20.968472464   392.4474   6  10   0.4635   0.3884   1.1913  -0.1071  -0.3150   0.4248   0.00    0.0
2026/01/15 00:04:00.000   67.857349052   20.968472949   392.5992   6  11   0.4338   0.3661   1.1094  -0.1038  -0.2995   0.3892   0.00    0.0
2026/01/15 00:04:30.000   67.857349622   20.968472521   392.5363   6  11   0.4090   0.3472   1.0410  -0.1005  -0.2857   0.3600   0.00    0.0
2026/01/15 00:05:00.000   67.857349212   20.968472253   392.2407   6  11   0.3879   0.3309   0.9826  -0.0972  -0.2735   0.3355   0.00    0.0
2026/01/15 00:05:30.000   67.857349296   20.968472346   392.0535   6  11   0.3697   0.3167   0.9319  -0.0942  -0.2625   0.3145   0.00    0.0
2026/01/15 00:06:00.000   67.857349260   20.968471933   392.0965   6  11   0.3537   0.3042   0.8875  -0.0914  -0.2526   0.2963   0.00    0.0
2026/01/15 00:06:30.000   67.857349201   20.968472049   392.0781   6  11   0.3396   0.2931   0.8481  -0.0887  -0.2436   0.2804   0.00    0.0
2026/01/15 00:07:00.000   67.857349277   20.968472087   392.0815   6  11   0.3270   0.2831   0.8130  -0.0863  -0.2354   0.2662   0.00    0.0
2026/01/15 00:07:30.000   67.857349161   20.968472481   392.1148   6  11   0.3157   0.2741   0.7815  -0.0840  -0.2280   0.2536   0.00    0.0
2026/01/15 00:08:00.000   67.857348684   20.968473604   392.1733   6  11   0.3053   0.2658   0.7520  -0.0817  -0.2207   0.2418   0.00    0.0
2026/01/15 00:08:30.000   67.857348683   20.968473855   392.0628   6  11   0.2958   0.2582   0.7243  -0.0794  -0.2138   0.2306   0.00    0.0
2026/01/15 00:09:00.000   67.857348677   20.968473328   392.0309   6  11   0.2869   0.2512   0.6982  -0.0772  -0.2072   0.2199   0.00    0.0
2026/01/15 00:09:30.000   67.857348931   20.968473868   391.9836   6  10   0.2793   0.2447   0.6744  -0.0755  -0.2006   0.2085   0.00    0.0
2026/01/15 00:10:00.000   67.857348982   20.968474412   391.9999   6  10   0.2723   0.2387   0.6520  -0.0739  -0.1944   0.1978   0.00    0.0
2026/01/15 00:10:30.000   67.857349139   20.968473921   392.0525   6  10   0.2658   0.2331   0.6311  -0.0724  -0.1886   0.1879   0.00    0.0
2026/01/15 00:11:00.000   67.857349171   20.968474084   391.9837   6  10   0.2596   0.2278   0.6116  -0.0709  -0.1831   0.1787   0.00    0.0
2026/01/15 00:11:30.000   67.857348935   20.968473837   391.9717   6  10   0.2539   0.2229   0.5936  -0.0696  -0.1781   0.1703   0.00    0.0
2026/01/15 00:12:00.000   67.857349064   20.968473424   391.9713   6  10   0.2486   0.2183   0.5769  -0.0684  -0.1734   0.1625   0.00    0.0
2026/01/15 00:12:30.000   67.857348613   20.968473583   391.9125   6  10   0.2436   0.2140   0.5614  -0.0672  -0.1690   0.1555   0.00    0.0
2026/01/15 00:13:00.000   67.857348502   20.968473807   391.8891   6  10   0.2388   0.2099   0.5460  -0.0660  -0.1647   0.1483   0.00    0.0
2026/01/15 00:13:30.000   67.857348597   20.968472809   391.8788   6  10   0.2341   0.2060   0.5309  -0.0648  -0.1603   0.1411   0.00    0.0
2026/01/15 00:14:00.000   67.857348631   20.968472843   391.8747   6  10   0.2297   0.2022   0.5160  -0.0635  -0.1561   0.1340   0.00    0.0
2026/01/15 00:14:30.000   67.857348718   20.968473047   391.8647   6  10   0.2254   0.1986   0.5016  -0.0623  -0.1519   0.1270   0.00    0.0
2026/01/15 00:15:00.000   67.857348665   20.968473122   391.8225   6  10   0.2213   0.1952   0.4878  -0.0611  -0.1479   0.1202   0.00    0.0
2026/01/15 00:15:30.000   67.857348473   20.968472963   391.8207   6  10   0.2174   0.1919   0.4747  -0.0600  -0.1441   0.1138   0.00    0.0
2026/01/15 00:16:00.000   67.857348550   20.968473217   391.7806   6  10   0.2137   0.1888   0.4624  -0.0589  -0.1405   0.1077   0.00    0.0
2026/01/15 00:16:30.000   67.857348385   20.968473252   391.7484   6  10   0.2102   0.1858   0.4510  -0.0580  -0.1371   0.1021   0.00    0.0
2026/01/15 00:17:00.000   67.857348396   20.968473208   391.7323   6  10   0.2069   0.1830   0.4404  -0.0571  -0.1340   0.0969   0.00    0.0
2026/01/15 00:17:30.000   67.857348454   20.968473170   391.7091   6  10   0.2038   0.1804   0.4305  -0.0563  -0.1311   0.0921   0.00    0.0
2026/01/15 00:18:00.000   67.857348557   20.968473560   391.6979   6  10   0.2007   0.1778   0.4213  -0.0554  -0.1283   0.0864   0.00    0.0
2026/01/15 00:18:30.000   67.857348423   20.968473640   391.7195   6  10   0.1978   0.1752   0.4119  -0.0544  -0.1254   0.0803   0.00    0.0
2026/01/15 00:19:00.000   67.857348358   20.968473634   391.6956   6  10   0.1949   0.1728   0.4027  -0.0534  -0.1225   0.0739   0.00    0.0
2026/01/15 00:19:30.000   67.857348306   20.968473777   391.6681   6  10   0.1921   0.1704   0.3936  -0.0524  -0.1197   0.0673   0.00    0.0
2026/01/15 00:20:00.000   67.857348414   20.968473765   391.6266   6  10   0.1894   0.1681   0.3847  -0.0515  -0.1169   0.0604   0.00    0.0
2026/01/15 00:20:30.000   67.857348439   20.968473408   391.6225   6  10   0.1870   0.1658   0.3767  -0.0506  -0.1143   0.0548   0.00    0.0
2026/01/15 00:21:00.000   67.857348397   20.968473579   391.6127   6  10   0.1847   0.1637   0.3691  -0.0497  -0.1117   0.0492   0.00    0.0
2026/01/15 00:21:30.000   67.857348371   20.968473501   391.5871   6  10   0.1825   0.1617   0.3619  -0.0489  -0.1094   0.0437   0.00    0.0
2026/01/15 00:22:00.000   67.857348448   20.968473589   391.5725   6  10   0.1803   0.1597   0.3553  -0.0482  -0.1072   0.0382   0.00    0.0
2026/01/15 00:22:30.000   67.857348487   20.968473977   391.5708   6  10   0.1783   0.1578   0.3491  -0.0476  -0.1051   0.0328   0.00    0.0
2026/01/15 00:23:00.000   67.857348528   20.968474146   391.5739   6  10   0.1763   0.1560   0.3427  -0.0468  -0.1030   0.0259   0.00    0.0
2026/01/15 00:23:30.000   67.857348459   20.968473946   391.5554   6  10   0.1744   0.1542   0.3362  -0.0461  -0.1008   0.0159   0.00    0.0
2026/01/15 00:24:00.000   67.857348299   20.968473760   391.5251   6  10   0.1724   0.1524   0.3296  -0.0453  -0.0987  -0.0128   0.00    0.0
2026/01/15 00:24:30.000   67.857348211   20.968473418   391.4931   6  10   0.1705   0.1506   0.3232  -0.0445  -0.0965  -0.0238   0.00    0.0
2026/01/15 00:25:00.000   67.857348206   20.968473307   391.5009   6  10   0.1687   0.1489   0.3169  -0.0438  -0.0944  -0.0308   0.00    0.0
2026/01/15 00:25:30.000   67.857348194   20.968473409   391.5118   6   9   0.1670   0.1473   0.3119  -0.0430  -0.0924  -0.0336   0.00    0.0
2026/01/15 00:26:00.000   67.857348199   20.968473620   391.5007   6   9   0.1654   0.1458   0.3071  -0.0424  -0.0905  -0.0360   0.00    0.0
2026/01/15 00:26:30.000   67.857348242   20.968473805   391.4807   6   9   0.1638   0.1443   0.3025  -0.0417  -0.0887  -0.0379   0.00    0.0
2026/01/15 00:27:00.000   67.857348304   20.968473801   391.4658   6   9   0.1623   0.1430   0.2982  -0.0412  -0.0871  -0.0394   0.00    0.0
2026/01/15 00:27:30.000   67.857348267   20.968473837   391.4688   6   9   0.1609   0.1417   0.2942  -0.0407  -0.0855  -0.0406   0.00    0.0
2026/01/15 00:28:00.000   67.857348181   20.968473612   391.4723   6   9   0.1595   0.1405   0.2901  -0.0402  -0.0838  -0.0420   0.00    0.0
2026/01/15 00:28:30.000   67.857348190   20.968473358   391.4785   6   9   0.1580   0.1393   0.2858  -0.0397  -0.0822  -0.0436   0.00    0.0
2026/01/15 00:29:00.000   67.857348236   20.968473284   391.4762   6   9   0.1566   0.1381   0.2814  -0.0391  -0.0804  -0.0452   0.00    0.0
2026/01/15 00:29:30.000   67.857348164   20.968472832   391.4734   6   9   0.1552   0.1369   0.2771  -0.0385  -0.0787  -0.0467   0.00    0.0
2026/01/15 00:30:00.000   67.857348184   20.968472786   391.4677   6   9   0.1538   0.1357   0.2728  -0.0380  -0.0771  -0.0482   0.00    0.0
2026/01/15 00:30:30.000   67.857348353   20.968472863   391.4705   6   8   0.1526   0.1346   0.2704  -0.0376  -0.0758  -0.0479   0.00    0.0
2026/01/15 00:31:00.000   67.857348385   20.968472761   391.4776   6   8   0.1514   0.1335   0.2680  -0.0373  -0.0746  -0.0476   0.00    0.0
2026/01/15 00:31:30.000   67.857348263   20.968472746   391.5030   6   8   0.1503   0.1325   0.2657  -0.0370  -0.0735  -0.0473   0.00    0.0
2026/01/15 00:32:00.000   67.857348357   20.968472879   391.4980   6   8   0.1492   0.1314   0.2636  -0.0367  -0.0724  -0.0469   0.00    0.0
2026/01/15 00:32:30.000   67.857348405   20.968472710   391.5063   6   8   0.1481   0.1305   0.2615  -0.0365  -0.0714  -0.0465   0.00    0.0
2026/01/15 00:33:00.000   67.857348417   20.968472700   391.5152   6   8   0.1470   0.1295   0.2593  -0.0362  -0.0704  -0.0463   0.00    0.0
2026/01/15 00:33:30.000   67.857348417   20.968472599   391.5294   6   8   0.1461   0.1286   0.2573  -0.0361  -0.0692  -0.0458   0.00    0.0
2026/01/15 00:34:00.000   67.857348440   20.968472589   391.5291   6   8   0.1452   0.1276   0.2552  -0.0361  -0.0680  -0.0455   0.00    0.0
2026/01/15 00:34:30.000   67.857348445   20.968472749   391.5347   6   8   0.1444   0.1267   0.2530  -0.0360  -0.0667  -0.0452   0.00    0.0
2026/01/15 00:35:00.000   67.857348512   20.968472660   391.5418   6   8   0.1435   0.1258   0.2509  -0.0359  -0.0654  -0.0450   0.00    0.0
2026/01/15 00:35:30.000   67.857348550   20.968472947   391.5522   6   8   0.1426   0.1250   0.2488  -0.0358  -0.0642  -0.0449   0.00    0.0
2026/01/15 00:36:00.000   67.857348553   20.968473029   391.5536   6   8   0.1418   0.1241   0.2468  -0.0358  -0.0630  -0.0448   0.00    0.0
2026/01/15 00:36:30.000   67.857348528   20.968472796   391.5676   6   8   0.1410   0.1233   0.2448  -0.0357  -0.0618  -0.0446   0.00    0.0
2026/01/15 00:37:00.000   67.857348478   20.968472774   391.5758   6   8   0.1402   0.1225   0.2429  -0.0356  -0.0607  -0.0444   0.00    0.0
2026/01/15 00:37:30.000   67.857348463   20.968472738   391.5838   6   8   0.1394   0.1217   0.2411  -0.0356  -0.0597  -0.0442   0.00    0.0
2026/01/15 00:38:00.000   67.857348553   20.968472792   391.5776   6   8   0.1386   0.1210   0.2392  -0.0355  -0.0586  -0.0441   0.00    0.0
2026/01/15 00:38:30.000   67.857348610   20.968472779   391.5789   6   8   0.1378   0.1202   0.2372  -0.0354  -0.0574  -0.0441   0.00    0.0
2026/01/15 00:39:00.000   67.857348660   20.968472772   391.5785   6   8   0.1370   0.1194   0.2351  -0.0353  -0.0562  -0.0443   0.00    0.0
2026/01/15 00:39:30.000   67.857348704   20.968472769   391.5782   6   8   0.1362   0.1186   0.2330  -0.0351  -0.0550  -0.0445   0.00    0.0
2026/01/15 00:40:00.000   67.857348703   20.968472847   391.5866   6   8   0.1355   0.1179   0.2310  -0.0350  -0.0538  -0.0448   0.00    0.0
2026/01/15 00:40:30.000   67.857348644   20.968472832   391.5888   6   8   0.1347   0.1172   0.2289  -0.0348  -0.0525  -0.0450   0.00    0.0
2026/01/15 00:41:00.000   67.857348665   20.968472796   391.5911   6   8   0.1340   0.1164   0.2269  -0.0347  -0.0514  -0.0453   0.00    0.0
2026/01/15 00:41:30.000   67.857348654   20.968472810   391.5990   6   8   0.1332   0.1157   0.2250  -0.0346  -0.0502  -0.0455   0.00    0.0
2026/01/15 00:42:00.000   67.857348625   20.968472929   391.6070   6   8   0.1325   0.1151   0.2232  -0.0345  -0.0491  -0.0457   0.00    0.0
2026/01/15 00:42:30.000   67.857348624   20.968472951   391.6026   6   8   0.1319   0.1145   0.2215  -0.0345  -0.0480  -0.0457   0.00    0.0
2026/01/15 00:43:00.000   67.857348683   20.968472920   391.5966   6   8   0.1312   0.1138   0.2197  -0.0344  -0.0468  -0.0459   0.00    0.0
2026/01/15 00:43:30.000   67.857348699   20.968473135   391.6053   6   8   0.1305   0.1132   0.2179  -0.0343  -0.0455  -0.0461   0.00    0.0
2026/01/15 00:44:00.000   67.857348739   20.968473036   391.6038   6   8   0.1298   0.1126   0.2160  -0.0342  -0.0442  -0.0465   0.00    0.0
2026/01/15 00:44:30.000   67.857348815   20.968473083   391.5986   6   9   0.1290   0.1120   0.2140  -0.0339  -0.0430  -0.0466   0.00    0.0
2026/01/15 00:45:00.000   67.857348760   20.968473014   391.6028   6   9   0.1283   0.1113   0.2121  -0.0336  -0.0418  -0.0467   0.00    0.0
2026/01/15 00:45:30.000   67.857348767   20.968473018   391.6074   6   9   0.1276   0.1107   0.2101  -0.0333  -0.0406  -0.0469   0.00    0.0
2026/01/15 00:46:00.000   67.857348763   20.968473140   391.6144   6   9   0.1268   0.1101   0.2082  -0.0331  -0.0394  -0.0470   0.00    0.0
2026/01/15 00:46:30.000   67.857348841   20.968473035   391.6102   6   9   0.1261   0.1095   0.2064  -0.0328  -0.0383  -0.0470   0.00    0.0
2026/01/15 00:47:00.000   67.857348896   20.968473154   391.6146   6   9   0.1254   0.1089   0.2047  -0.0326  -0.0373  -0.0470   0.00    0.0
2026/01/15 00:47:30.000   67.857348856   20.968473008   391.6219   6   9   0.1248   0.1084   0.2031  -0.0323  -0.0363  -0.0469   0.00    0.0
2026/01/15 00:48:00.000   67.857348861   20.968473026   391.6283   6   9   0.1241   0.1078   0.2014  -0.0321  -0.0353  -0.0470   0.00    0.0
2026/01/15 00:48:30.000   67.857348923   20.968472992   391.6235   6   9   0.1234   0.1073   0.1996  -0.0318  -0.0341  -0.0471   0.00    0.0
2026/01/15 00:49:00.000   67.857348904   20.968473017   391.6294   6   9   0.1228   0.1067   0.1978  -0.0316  -0.0329  -0.0473   0.00    0.0
2026/01/15 00:49:30.000   67.857348912   20.968473080   391.6312   6   9   0.1221   0.1062   0.1960  -0.0313  -0.0317  -0.0475   0.00    0.0
2026/01/15 00:50:00.000   67.857348960   20.968473096   391.6215   6   9   0.1214   0.1057   0.1942  -0.0310  -0.0304  -0.0478   0.00    0.0
2026/01/15 00:50:30.000   67.857349003   20.968473062   391.6202   6   9   0.1208   0.1051   0.1924  -0.0308  -0.0291  -0.0480   0.00    0.0
2026/01/15 00:51:00.000   67.857349054   20.968473140   391.6184   6   9   0.1201   0.1046   0.1906  -0.0305  -0.0279  -0.0482   0.00    0.0
2026/01/15 00:51:30.000   67.857349105   20.968473142   391.6164   6   9   0.1195   0.1041   0.1890  -0.0303  -0.0267  -0.0483   0.00    0.0
2026/01/15 00:52:00.000   67.857349093   20.968473151   391.6196   6   9   0.1189   0.1036   0.1874  -0.0301  -0.0256  -0.0484   0.00    0.0
2026/01/15 00:52:30.000   67.857349077   20.968473098   391.6199   6   9   0.1183   0.1032   0.1859  -0.0299  -0.0245  -0.0484   0.00    0.0
2026/01/15 00:53:00.000   67.857349071   20.968473085   391.6182   6   9   0.1177   0.1027   0.1844  -0.0297  -0.0233  -0.0484   0.00    0.0
2026/01/15 00:53:30.000   67.857349081   20.968473174   391.6146   6   9   0.1171   0.1022   0.1828  -0.0294  -0.0221  -0.0486   0.00    0.0
2026/01/15 00:54:00.000   67.857349096   20.968473261   391.6135   6   9   0.1165   0.1017   0.1811  -0.0292  -0.0206  -0.0488   0.00    0.0
2026/01/15 00:54:30.000   67.857349105   20.968473193   391.6095   6   9   0.1159   0.1013   0.1795  -0.0290  -0.0191  -0.0490   0.00    0.0
2026/01/15 00:55:00.000   67.857349086   20.968473158   391.6106   6   9   0.1153   0.1008   0.1778  -0.0287  -0.0175  -0.0493   0.00    0.0
2026/01/15 00:55:30.000   67.857349122   20.968473084   391.6068   6   9   0.1147   0.1004   0.1762  -0.0285  -0.0158  -0.0495   0.00    0.0
2026/01/15 00:56:00.000   67.857349153   20.968472996   391.6025   6   9   0.1141   0.0999   0.1746  -0.0283  -0.0140  -0.0497   0.00    0.0
2026/01/15 00:56:30.000   67.857349134   20.968472718   391.6023   6   9   0.1135   0.0995   0.1731  -0.0281  -0.0121  -0.0498   0.00    0.0
2026/01/15 00:57:00.000   67.857349186   20.968472727   391.5927   6   8   0.1131   0.0991   0.1718  -0.0280  -0.0100  -0.0501   0.00    0.0
2026/01/15 00:57:30.000   67.857349222   20.968472663   391.5870   6   7   0.1126   0.0987   0.1705  -0.0279  -0.0070  -0.0503   0.00    0.0
2026/01/15 00:58:00.000   67.857349258   20.968472783   391.5810   6   7   0.1121   0.0983   0.1693  -0.0277   0.0021  -0.0505   0.00    0.0
2026/01/15 00:58:30.000   67.857349220   20.968472724   391.5838   6   7   0.1117   0.0979   0.1679  -0.0276   0.0075  -0.0508   0.00    0.0
2026/01/15 00:59:00.000   67.857349245   20.968472652   391.5804   6   7   0.1112   0.0976   0.1666  -0.0274   0.0105  -0.0512   0.00    0.0
2026/01/15 00:59:30.000   67.857349243   20.968472645   391.5789   6   7   0.1107   0.0972   0.1652  -0.0272   0.0128  -0.0515   0.00    0.0
2026/01/15 01:00:00.000   67.857349294   20.968472477   391.5707   6   7   0.1103   0.0969   0.1639  -0.0270   0.0147  -0.0517   0.00    0.0
2026/01/15 01:00:30.000   67.857349293   20.968472396   391.5674   6   7   0.1100   0.0965   0.1626  -0.0268   0.0164  -0.0518   0.00    0.0
2026/01/15 01:01:00.000   67.857349301   20.968472442   391.5627   6   7   0.1096   0.0962   0.1614  -0.0266   0.0178  -0.0520   0.00    0.0
2026/01/15 01:01:30.000   67.857349335   20.968472390   391.5555   6   7   0.1092   0.0958   0.1602  -0.0265   0.0190  -0.0521   0.00    0.0
2026/01/15 01:02:00.000   67.857349332   20.968472331   391.5512   6   7   0.1089   0.0955   0.1591  -0.0263   0.0200  -0.0521   0.00    0.0
2026/01/15 01:02:30.000   67.857349346   20.968472231   391.5466   6   7   0.1085   0.0952   0.1580  -0.0261   0.0208  -0.0521   0.00    0.0
2026/01/15 01:03:00.000   67.857349387   20.968472164   391.5420   6   8   0.1082   0.0948   0.1569  -0.0260   0.0219  -0.0522   0.00    0.0
2026/01/15 01:03:30.000   67.857349435   20.968472058   391.5349   6   8   0.1078   0.0945   0.1557  -0.0259   0.0228  -0.0523   0.00    0.0
2026/01/15 01:04:00.000   67.857349418   20.968472077   391.5341   6   8   0.1075   0.0941   0.1545  -0.0257   0.0238  -0.0524   0.00    0.0
2026/01/15 01:04:30.000   67.857349387   20.968471996   391.5367   6   8   0.1071   0.0938   0.1533  -0.0256   0.0247  -0.0525   0.00    0.0
2026/01/15 01:05:00.000   67.857349407   20.968471957   391.5300   6   8   0.1068   0.0935   0.1521  -0.0254   0.0255  -0.0526   0.00    0.0
2026/01/15 01:05:30.000   67.857349427   20.968471911   391.5253   6   8   0.1064   0.0931   0.1509  -0.0253   0.0263  -0.0527   0.00    0.0
2026/01/15 01:06:00.000   67.857349481   20.968471993   391.5188   6   8   0.1061   0.0928   0.1497  -0.0251   0.0270  -0.0528   0.00    0.0
2026/01/15 01:06:30.000   67.857349475   20.968471964   391.5145   6   8   0.1058   0.0925   0.1486  -0.0250   0.0276  -0.0529   0.00    0.0
2026/01/15 01:07:00.000   67.857349516   20.968471849   391.5111   6   8   0.1054   0.0922   0.1476  -0.0249   0.0281  -0.0529   0.00    0.0
2026/01/15 01:07:30.000   67.857349503   20.968471758   391.5105   6   8   0.1051   0.0919   0.1466  -0.0248   0.0286  -0.0529   0.00    0.0
2026/01/15 01:08:00.000   67.857349459   20.968471733   391.5138   6   8   0.1048   0.0916   0.1456  -0.0247   0.0291  -0.0530   0.00    0.0
2026/01/15 01:08:30.000   67.857349454   20.968471703   391.5108   6   8   0.1044   0.0912   0.1446  -0.0246   0.0296  -0.0531   0.00    0.0
2026/01/15 01:09:00.000   67.857349450   20.968471747   391.5083   6   8   0.1041   0.0909   0.1435  -0.0244   0.0301  -0.0532   0.00    0.0
2026/01/15 01:09:30.000   67.857349416   20.968471777   391.5067   6   8   0.1038   0.0906   0.1424  -0.0243   0.0305  -0.0533   0.00    0.0
2026/01/15 01:10:00.000   67.857349412   20.968471664   391.5045   6   8   0.1035   0.0903   0.1413  -0.0242   0.0310  -0.0534   0.00    0.0
2026/01/15 01:10:30.000   67.857349398   20.968471506   391.5057   6   8   0.1031   0.0900   0.1402  -0.0241   0.0314  -0.0535   0.00    0.0
2026/01/15 01:11:00.000   67.857349388   20.968471512   391.5040   6   8   0.1028   0.0897   0.1391  -0.0240   0.0317  -0.0536   0.00    0.0
2026/01/15 01:11:30.000   67.857349403   20.968471420   391.5010   6   8   0.1025   0.0895   0.1382  -0.0239   0.0321  -0.0536   0.00    0.0
2026/01/15 01:12:00.000   67.857349461   20.968471364   391.4935   6   8   0.1022   0.0892   0.1372  -0.0238   0.0324  -0.0537   0.00    0.0
2026/01/15 01:12:30.000   67.857349427   20.968471283   391.4941   6   8   0.1019   0.0889   0.1364  -0.0237   0.0326  -0.0537   0.00    0.0
2026/01/15 01:13:00.000   67.857349455   20.968471310   391.4879   6   8   0.1016   0.0886   0.1354  -0.0236   0.0329  -0.0537   0.00    0.0
2026/01/15 01:13:30.000   67.857349438   20.968471256   391.4868   6   8   0.1012   0.0883   0.1345  -0.0236   0.0331  -0.0538   0.00    0.0
2026/01/15 01:14:00.000   67.857349454   20.968471205   391.4832   6   8   0.1009   0.0881   0.1335  -0.0235   0.0334  -0.0538   0.00    0.0
2026/01/15 01:14:30.000   67.857349482   20.968471106   391.4785   6   8   0.1006   0.0878   0.1325  -0.0234   0.0336  -0.0539   0.00    0.0
2026/01/15 01:15:00.000   67.857349502   20.968471072   391.4754   6   8   0.1003   0.0875   0.1315  -0.0233   0.0338  -0.0540   0.00    0.0
2026/01/15 01:15:30.000   67.857349528   20.968470997   391.4690   6   8   0.1000   0.0873   0.1306  -0.0232   0.0340  -0.0541   0.00    0.0
2026/01/15 01:16:00.000   67.857349515   20.968470990   391.4687   6   8   0.0997   0.0870   0.1296  -0.0232   0.0342  -0.0542   0.00    0.0
2026/01/15 01:16:30.000   67.857349517   20.968471034   391.4658   6   8   0.0994   0.0867   0.1287  -0.0231   0.0343  -0.0542   0.00    0.0
2026/01/15 01:17:00.000   67.857349555   20.968471027   391.4608   6   8   0.0991   0.0865   0.1279  -0.0230   0.0345  -0.0542   0.00    0.0
2026/01/15 01:17:30.000   67.857349547   20.968471057   391.4586   6   8   0.0988   0.0862   0.1271  -0.0230   0.0346  -0.0542   0.00    0.0
2026/01/15 01:18:00.000   67.857349555   20.968470985   391.4561   6   8   0.0985   0.0860   0.1263  -0.0229   0.0347  -0.0542   0.00    0.0
2026/01/15 01:18:30.000   67.857349555   20.968471021   391.4544   6   8   0.0982   0.0857   0.1254  -0.0229   0.0348  -0.0543   0.00    0.0
2026/01/15 01:19:00.000   67.857349541   20.968470894   391.4524   6   8   0.0979   0.0855   0.1245  -0.0228   0.0349  -0.0543   0.00    0.0
2026/01/15 01:19:30.000   67.857349561   20.968470937   391.4489   6   8   0.0975   0.0852   0.1236  -0.0228   0.0350  -0.0544   0.00    0.0
2026/01/15 01:20:00.000   67.857349588   20.968470897   391.4432   6   8   0.0972   0.0849   0.1227  -0.0227   0.0351  -0.0544   0.00    0.0
2026/01/15 01:20:30.000   67.857349621   20.968470857   391.4381   6   8   0.0969   0.0847   0.1219  -0.0227   0.0351  -0.0544   0.00    0.0
2026/01/15 01:21:00.000   67.857349627   20.968470846   391.4345   6   8   0.0966   0.0845   0.1210  -0.0226   0.0352  -0.0545   0.00    0.0
2026/01/15 01:21:30.000   67.857349654   20.968470758   391.4307   6   8   0.0963   0.0842   0.1202  -0.0226   0.0352  -0.0545   0.00    0.0
2026/01/15 01:22:00.000   67.857349688   20.968470683   391.4256   6   8   0.0960   0.0840   0.1195  -0.0225   0.0353  -0.0545   0.00    0.0
2026/01/15 01:22:30.000   67.857349732   20.968470595   391.4215   6   8   0.0957   0.0837   0.1187  -0.0225   0.0353  -0.0544   0.00    0.0
2026/01/15 01:23:00.000   67.857349731   20.968470564   391.4197   6   8   0.0954   0.0835   0.1180  -0.0225   0.0353  -0.0544   0.00    0.0
2026/01/15 01:23:30.000   67.857349727   20.968470553   391.4172   6   8   0.0951   0.0833   0.1172  -0.0224   0.0353  -0.0544   0.00    0.0
2026/01/15 01:24:00.000   67.857349720   20.968470399   391.4146   6   8   0.0948   0.0830   0.1164  -0.0224   0.0353  -0.0544   0.00    0.0
2026/01/15 01:24:30.000   67.857349741   20.968470331   391.4098   6   8   0.0945   0.0828   0.1156  -0.0224   0.0353  -0.0544   0.00    0.0
2026/01/15 01:25:00.000   67.857349749   20.968470270   391.4074   6   7   0.0942   0.0825   0.1148  -0.0223   0.0353  -0.0545   0.00    0.0
2026/01/15 01:25:30.000   67.857349748   20.968470233   391.4044   6   7   0.0939   0.0823   0.1140  -0.0223   0.0353  -0.0545   0.00    0.0
2026/01/15 01:26:00.000   67.857349748   20.968470082   391.4025   6   7   0.0937   0.0821   0.1133  -0.0223   0.0352  -0.0545   0.00    0.0
2026/01/15 01:26:30.000   67.857349748   20.968470049   391.4001   6   7   0.0934   0.0819   0.1126  -0.0222   0.0352  -0.0546   0.00    0.0
2026/01/15 01:27:00.000   67.857349756   20.968469979   391.3983   6   7   0.0931   0.0816   0.1119  -0.0222   0.0352  -0.0546   0.00    0.0
2026/01/15 01:27:30.000   67.857349743   20.968469964   391.3975   6   7   0.0928   0.0814   0.1113  -0.0222   0.0351  -0.0545   0.00    0.0
2026/01/15 01:28:00.000   67.857349753   20.968469856   391.3952   6   7   0.0926   0.0812   0.1106  -0.0222   0.0351  -0.0546   0.00    0.0
2026/01/15 01:28:30.000   67.857349757   20.968469794   391.3926   6   7   0.0924   0.0810   0.1100  -0.0222   0.0351  -0.0546   0.00    0.0
2026/01/15 01:29:00.000   67.857349747   20.968469688   391.3916   6   7   0.0921   0.0808   0.1093  -0.0223   0.0350  -0.0547   0.00    0.0
2026/01/15 01:29:30.000   67.857349736   20.968469575   391.3904   6   7   0.0919   0.0805   0.1086  -0.0223   0.0350  -0.0548   0.00    0.0
2026/01/15 01:30:00.000   67.857349728   20.968469518   391.3888   6   7   0.0916   0.0803   0.1079  -0.0224   0.0350  -0.0548   0.00    0.0
2026/01/15 01:30:30.000   67.857349749   20.968469437   391.3854   6   7   0.0913   0.0801   0.1072  -0.0225   0.0349  -0.0549   0.00    0.0
2026/01/15 01:31:00.000   67.857349759   20.968469503   391.3806   6   7   0.0911   0.0799   0.1065  -0.0225   0.0349  -0.0549   0.00    0.0
2026/01/15 01:31:30.000   67.857349763   20.968469412   391.3777   6   7   0.0908   0.0797   0.1059  -0.0226   0.0348  -0.0549   0.00    0.0
2026/01/15 01:32:00.000   67.857349764   20.968469314   391.3763   6   7   0.0906   0.0795   0.1053  -0.0227   0.0348  -0.0549   0.00    0.0
2026/01/15 01:32:30.000   67.857349757   20.968469313   391.3745   6   7   0.0904   0.0793   0.1048  -0.0227   0.0347  -0.0549   0.00    0.0
2026/01/15 01:33:00.000   67.857349775   20.968469302   391.3698   6   7   0.0901   0.0791   0.1042  -0.0228   0.0347  -0.0549   0.00    0.0
2026/01/15 01:33:30.000   67.857349796   20.968469261   391.3663   6   7   0.0899   0.0789   0.1036  -0.0229   0.0346  -0.0549   0.00    0.0
2026/01/15 01:34:00.000   67.857349827   20.968469162   391.3623   6   7   0.0896   0.0787   0.1030  -0.0230   0.0346  -0.0549   0.00    0.0
2026/01/15 01:34:30.000   67.857349839   20.968469204   391.3600   6   7   0.0894   0.0785   0.1023  -0.0231   0.0345  -0.0550   0.00    0.0
2026/01/15 01:35:00.000   67.857349823   20.968469164   391.3590   6   7   0.0891   0.0782   0.1017  -0.0232   0.0344  -0.0550   0.00    0.0
2026/01/15 01:35:30.000   67.857349823   20.968469201   391.3569   6   7   0.0889   0.0780   0.1011  -0.0233   0.0344  -0.0550   0.00    0.0
2026/01/15 01:36:00.000   67.857349811   20.968469155   391.3564   6   7   0.0886   0.0778   0.1005  -0.0234   0.0343  -0.0550   0.00    0.0
2026/01/15 01:36:30.000   67.857349805   20.968469069   391.3546   6   7   0.0884   0.0776   0.0999  -0.0235   0.0342  -0.0550   0.00    0.0
2026/01/15 01:37:00.000   67.857349821   20.968469010   391.3506   6   7   0.0881   0.0774   0.0994  -0.0236   0.0341  -0.0549   0.00    0.0
2026/01/15 01:37:30.000   67.857349804   20.968468949   391.3501   6   7   0.0879   0.0773   0.0989  -0.0237   0.0341  -0.0549   0.00    0.0
2026/01/15 01:38:00.000   67.857349788   20.968468981   391.3502   6   7   0.0876   0.0771   0.0983  -0.0238   0.0340  -0.0549   0.00    0.0
2026/01/15 01:38:30.000   67.857349789   20.968468898   391.3481   6   7   0.0874   0.0769   0.0978  -0.0239   0.0339  -0.0549   0.00    0.0
2026/01/15 01:39:00.000   67.857349780   20.968468820   391.3470   6   7   0.0871   0.0767   0.0972  -0.0240   0.0338  -0.0548   0.00    0.0
2026/01/15 01:39:30.000   67.857349781   20.968468731   391.3444   6   7   0.0869   0.0765   0.0966  -0.0241   0.0338  -0.0548   0.00    0.0
2026/01/15 01:40:00.000   67.857349807   20.968468731   391.3404   6   7   0.0866   0.0763   0.0960  -0.0242   0.0337  -0.0548   0.00    0.0
2026/01/15 01:40:30.000   67.857349810   20.968468643   391.3371   6   7   0.0863   0.0761   0.0955  -0.0244   0.0336  -0.0548   0.00    0.0
2026/01/15 01:41:00.000   67.857349806   20.968468643   391.3343   6   7   0.0861   0.0759   0.0949  -0.0245   0.0335  -0.0547   0.00    0.0
2026/01/15 01:41:30.000   67.857349778   20.968468599   391.3348   6   7   0.0858   0.0757   0.0944  -0.0246   0.0334  -0.0547   0.00    0.0
2026/01/15 01:42:00.000   67.857349792   20.968468572   391.3312   6   7   0.0856   0.0755   0.0939  -0.0247   0.0333  -0.0546   0.00    0.0
2026/01/15 01:42:30.000   67.857349784   20.968468566   391.3289   6   7   0.0853   0.0753   0.0935  -0.0248   0.0332  -0.0546   0.00    0.0
2026/01/15 01:43:00.000   67.857349769   20.968468511   391.3284   6   7   0.0851   0.0751   0.0930  -0.0249   0.0332  -0.0545   0.00    0.0
2026/01/15 01:43:30.000   67.857349766   20.968468528   391.3261   6   7   0.0848   0.0749   0.0925  -0.0250   0.0331  -0.0544   0.00    0.0
2026/01/15 01:44:00.000   67.857349747   20.968468532   391.3242   6   7   0.0846   0.0748   0.0919  -0.0252   0.0330  -0.0544   0.00    0.0
2026/01/15 01:44:30.000   67.857349765   20.968468462   391.3208   6   7   0.0843   0.0746   0.0914  -0.0253   0.0329  -0.0543   0.00    0.0
2026/01/15 01:45:00.000   67.857349778   20.968468408   391.3170   6   7   0.0840   0.0744   0.0909  -0.0254   0.0328  -0.0543   0.00    0.0
2026/01/15 01:45:30.000   67.857349792   20.968468361   391.3135   6   7   0.0838   0.0742   0.0903  -0.0256   0.0327  -0.0542   0.00    0.0
2026/01/15 01:46:00.000   67.857349800   20.968468292   391.3107   6   7   0.0835   0.0740   0.0898  -0.0257   0.0326  -0.0541   0.00    0.0
2026/01/15 01:46:30.000   67.857349809   20.968468198   391.3068   6   7   0.0833   0.0738   0.0894  -0.0258   0.0325  -0.0540   0.00    0.0
2026/01/15 01:47:00.000   67.857349818   20.968468176   391.3037   6   7   0.0830   0.0736   0.0889  -0.0259   0.0324  -0.0540   0.00    0.0
2026/01/15 01:47:30.000   67.857349828   20.968468140   391.3015   6   7   0.0828   0.0735   0.0885  -0.0260   0.0323  -0.0539   0.00    0.0
2026/01/15 01:48:00.000   67.857349805   20.968468102   391.3014   6   7   0.0825   0.0733   0.0880  -0.0262   0.0322  -0.0538   0.00    0.0
2026/01/15 01:48:30.000   67.857349829   20.968467976   391.2963   6   7   0.0823   0.0731   0.0876  -0.0263   0.0321  -0.0537   0.00    0.0
2026/01/15 01:49:00.000   67.857349823   20.968467929   391.2940   6   7   0.0820   0.0729   0.0871  -0.0264   0.0320  -0.0537   0.00    0.0
2026/01/15 01:49:30.000   67.857349836   20.968467924   391.2907   6   8   0.0817   0.0727   0.0866  -0.0265   0.0319  -0.0535   0.00    0.0
2026/01/15 01:50:00.000   67.857349869   20.968467878   391.2860   6   8   0.0814   0.0725   0.0861  -0.0266   0.0317  -0.0534   0.00    0.0
2026/01/15 01:50:30.000   67.857349873   20.968467913   391.2829   6   8   0.0811   0.0724   0.0856  -0.0267   0.0316  -0.0533   0.00    0.0
2026/01/15 01:51:00.000   67.857349878   20.968467836   391.2808   6   8   0.0808   0.0722   0.0851  -0.0268   0.0315  -0.0531   0.00    0.0
2026/01/15 01:51:30.000   67.857349881   20.968467784   391.2788   6   8   0.0805   0.0720   0.0847  -0.0269   0.0314  -0.0530   0.00    0.0
2026/01/15 01:52:00.000   67.857349905   20.968467689   391.2757   6   8   0.0802   0.0718   0.0842  -0.0270   0.0313  -0.0529   0.00    0.0
2026/01/15 01:52:30.000   67.857349897   20.968467694   391.2753   6   8   0.0800   0.0716   0.0838  -0.0271   0.0312  -0.0527   0.00    0.0
2026/01/15 01:53:00.000   67.857349907   20.968467666   391.2722   6   8   0.0797   0.0715   0.0834  -0.0272   0.0310  -0.0526   0.00    0.0
2026/01/15 01:53:30.000   67.857349900   20.968467598   391.2701   6   8   0.0794   0.0713   0.0829  -0.0273   0.0309  -0.0525   0.00    0.0
2026/01/15 01:54:00.000   67.857349927   20.968467545   391.2649   6   8   0.0791   0.0711   0.0825  -0.0274   0.0308  -0.0523   0.00    0.0
2026/01/15 01:54:30.000   67.857349921   20.968467437   391.2617   6   8   0.0788   0.0709   0.0820  -0.0275   0.0307  -0.0522   0.00    0.0
2026/01/15 01:55:00.000   67.857349922   20.968467433   391.2594   6   8   0.0785   0.0707   0.0815  -0.0276   0.0305  -0.0520   0.00    0.0
2026/01/15 01:55:30.000   67.857349925   20.968467336   391.2566   6   8   0.0782   0.0705   0.0811  -0.0277   0.0304  -0.0519   0.00    0.0
2026/01/15 01:56:00.000   67.857349931   20.968467260   391.2538   6   8   0.0779   0.0704   0.0806  -0.0278   0.0303  -0.0517   0.00    0.0
2026/01/15 01:56:30.000   67.857349950   20.968467211   391.2505   6   8   0.0776   0.0702   0.0802  -0.0278   0.0302  -0.0516   0.00    0.0
2026/01/15 01:57:00.000   67.857349962   20.968467178   391.2479   6   8   0.0773   0.0700   0.0798  -0.0279   0.0300  -0.0514   0.00    0.0
2026/01/15 01:57:30.000   67.857349963   20.968467198   391.2449   6   9   0.0771   0.0698   0.0794  -0.0279   0.0299  -0.0513   0.00    0.0
2026/01/15 01:58:00.000   67.857349966   20.968467164   391.2427   6   9   0.0768   0.0696   0.0790  -0.0280   0.0297  -0.0511   0.00    0.0
2026/01/15 01:58:30.000   67.857349991   20.968467081   391.2380   6   9   0.0765   0.0694   0.0786  -0.0280   0.0295  -0.0509   0.00    0.0
2026/01/15 01:59:00.000   67.857349983   20.968467058   391.2359   6   9   0.0762   0.0692   0.0782  -0.0280   0.0294  -0.0508   0.00    0.0
2026/01/15 01:59:30.000   67.857350018   20.968466971   391.2302   6   9   0.0758   0.0690   0.0777  -0.0281   0.0292  -0.0506   0.00    0.0
2026/01/15 02:00:00.000   67.857350011   20.968466907   391.2282   6   9   0.0755   0.0688   0.0773  -0.0281   0.0290  -0.0504   0.00    0.0
2026/01/15 02:00:30.000   67.857350040   20.968466802   391.2233   6   9   0.0752   0.0686   0.0768  -0.0281   0.0288  -0.0502   0.00    0.0
2026/01/15 02:01:00.000   67.857350055   20.968466728   391.2194   6   9   0.0749   0.0684   0.0764  -0.0282   0.0287  -0.0500   0.00    0.0
2026/01/15 02:01:30.000   67.857350088   20.968466698   391.2149   6   9   0.0746   0.0682   0.0760  -0.0282   0.0285  -0.0498   0.00    0.0
2026/01/15 02:02:00.000   67.857350106   20.968466649   391.2107   6   9   0.0743   0.0680   0.0756  -0.0282   0.0283  -0.0497   0.00    0.0
2026/01/15 02:02:30.000   67.857350134   20.968466579   391.2058   6  10   0.0741   0.0678   0.0752  -0.0282   0.0282  -0.0495   0.00    0.0
2026/01/15 02:03:00.000   67.857350155   20.968466523   391.2011   6  10   0.0738   0.0676   0.0749  -0.0282   0.0280  -0.0493   0.00    0.0
2026/01/15 02:03:30.000   67.857350175   20.968466482   391.1964   6  10   0.0735   0.0674   0.0745  -0.0283   0.0278  -0.0491   0.00    0.0
2026/01/15 02:04:00.000   67.857350196   20.968466438   391.1912   6  10   0.0732   0.0672   0.0741  -0.0283   0.0277  -0.0489   0.00    0.0
2026/01/15 02:04:30.000   67.857350219   20.968466404   391.1871   6  10   0.0729   0.0670   0.0736  -0.0283   0.0275  -0.0487   0.00    0.0
2026/01/15 02:05:00.000   67.857350220   20.968466372   391.1847   6  10   0.0725   0.0668   0.0732  -0.0283   0.0273  -0.0486   0.00    0.0
2026/01/15 02:05:30.000   67.857350234   20.968466374   391.1806   6  10   0.0722   0.0666   0.0728  -0.0284   0.0271  -0.0484   0.00    0.0
2026/01/15 02:06:00.000   67.857350227   20.968466398   391.1786   6  10   0.0719   0.0664   0.0724  -0.0284   0.0270  -0.0482   0.00    0.0
2026/01/15 02:06:30.000   67.857350234   20.968466366   391.1749   6  10   0.0716   0.0661   0.0720  -0.0284   0.0268  -0.0480   0.00    0.0
2026/01/15 02:07:00.000   67.857350233   20.968466353   391.1725   6  10   0.0714   0.0659   0.0717  -0.0284   0.0266  -0.0478   0.00    0.0
2026/01/15 02:07:30.000   67.857350250   20.968466322   391.1689   6  10   0.0711   0.0657   0.0713  -0.0284   0.0265  -0.0476   0.00    0.0
2026/01/15 02:08:00.000   67.857350257   20.968466273   391.1658   6  10   0.0708   0.0655   0.0710  -0.0284   0.0263  -0.0474   0.00    0.0
2026/01/15 02:08:30.000   67.857350271   20.968466211   391.1629   6  11   0.0705   0.0653   0.0706  -0.0284   0.0261  -0.0472   0.00    0.0
2026/01/15 02:09:00.000   67.857350263   20.968466209   391.1610   6  11   0.0702   0.0651   0.0703  -0.0284   0.0260  -0.0471   0.00    0.0
2026/01/15 02:09:30.000   67.857350259   20.968466124   391.1571   6  11   0.0699   0.0649   0.0699  -0.0284   0.0258  -0.0469   0.00    0.0
2026/01/15 02:10:00.000   67.857350262   20.968466093   391.1535   6  11   0.0696   0.0647   0.0695  -0.0285   0.0256  -0.0467   0.00    0.0
2026/01/15 02:10:30.000   67.857350262   20.968466039   391.1482   6  11   0.0694   0.0645   0.0692  -0.0285   0.0255  -0.0465   0.00    0.0
2026/01/15 02:11:00.000   67.857350257   20.968466041   391.1444   6  11   0.0691   0.0643   0.0688  -0.0286   0.0253  -0.0464   0.00    0.0
2026/01/15 02:11:30.000   67.857350277   20.968466007   391.1401   6  11   0.0688   0.0641   0.0685  -0.0287   0.0252  -0.0462   0.00    0.0
2026/01/15 02:12:00.000   67.857350304   20.968465951   391.1380   6  10   0.0686   0.0640   0.0683  -0.0287   0.0250  -0.0460   0.00    0.0
2026/01/15 02:12:30.000   67.857350333   20.968465907   391.1365   6  10   0.0684   0.0638   0.0681  -0.0288   0.0249  -0.0459   0.00    0.0
2026/01/15 02:13:00.000   67.857350342   20.968465835   391.1365   6  10   0.0681   0.0636   0.0680  -0.0288   0.0248  -0.0457   0.00    0.0
2026/01/15 02:13:30.000   67.857350364   20.968465830   391.1357   6  10   0.0679   0.0634   0.0678  -0.0289   0.0247  -0.0455   0.00    0.0
2026/01/15 02:14:00.000   67.857350378   20.968465847   391.1345   6  10   0.0676   0.0633   0.0677  -0.0289   0.0246  -0.0454   0.00    0.0
2026/01/15 02:14:30.000   67.857350387   20.968465796   391.1329   6  10   0.0674   0.0631   0.0675  -0.0290   0.0245  -0.0452   0.00    0.0
2026/01/15 02:15:00.000   67.857350394   20.968465798   391.1315   6  10   0.0671   0.0629   0.0673  -0.0291   0.0244  -0.0450   0.00    0.0
2026/01/15 02:15:30.000   67.857350390   20.968465777   391.1312   6  10   0.0669   0.0627   0.0671  -0.0292   0.0243  -0.0449   0.00    0.0
2026/01/15 02:16:00.000   67.857350375   20.968465780   391.1312   6  10   0.0666   0.0625   0.0670  -0.0292   0.0242  -0.0447   0.00    0.0
2026/01/15 02:16:30.000   67.857350391   20.968465726   391.1291   6  10   0.0664   0.0624   0.0668  -0.0293   0.0241  -0.0446   0.00    0.0
2026/01/15 02:17:00.000   67.857350411   20.968465692   391.1272   6  10   0.0661   0.0622   0.0667  -0.0293   0.0240  -0.0444   0.00    0.0
2026/01/15 02:17:30.000   67.857350421   20.968465711   391.1270   6  10   0.0659   0.0620   0.0665  -0.0293   0.0239  -0.0443   0.00    0.0
2026/01/15 02:18:00.000   67.857350417   20.968465706   391.1279   6  10   0.0657   0.0619   0.0664  -0.0294   0.0238  -0.0441   0.00    0.0
2026/01/15 02:18:30.000   67.857350430   20.968465638   391.1269   6  10   0.0655   0.0617   0.0662  -0.0294   0.0237  -0.0439   0.00    0.0
2026/01/15 02:19:00.000   67.857350430   20.968465651   391.1265   6  10   0.0652   0.0615   0.0661  -0.0295   0.0236  -0.0438   0.00    0.0
2026/01/15 02:19:30.000   67.857350433   20.968465667   391.1257   6  10   0.0650   0.0613   0.0659  -0.0295   0.0235  -0.0436   0.00    0.0
2026/01/15 02:20:00.000   67.857350431   20.968465672   391.1255   6  10   0.0647   0.0611   0.0657  -0.0296   0.0234  -0.0435   0.00    0.0
2026/01/15 02:20:30.000   67.857350429   20.968465644   391.1249   6  10   0.0645   0.0610   0.0656  -0.0296   0.0233  -0.0433   0.00    0.0
2026/01/15 02:21:00.000   67.857350419   20.968465581   391.1240   6  10   0.0643   0.0608   0.0654  -0.0297   0.0232  -0.0432   0.00    0.0
2026/01/15 02:21:30.000   67.857350414   20.968465528   391.1238   6  10   0.0640   0.0606   0.0653  -0.0297   0.0231  -0.0430   0.00    0.0
2026/01/15 02:22:00.000   67.857350429   20.968465497   391.1225   6  10   0.0638   0.0605   0.0651  -0.0298   0.0230  -0.0429   0.00    0.0
2026/01/15 02:22:30.000   67.857350439   20.968465486   391.1213   6  10   0.0636   0.0603   0.0650  -0.0298   0.0230  -0.0427   0.00    0.0
2026/01/15 02:23:00.000   67.857350443   20.968465444   391.1198   6  10   0.0634   0.0601   0.0648  -0.0298   0.0229  -0.0426   0.00    0.0
2026/01/15 02:23:30.000   67.857350440   20.968465431   391.1197   6  10   0.0632   0.0600   0.0647  -0.0298   0.0228  -0.0424   0.00    0.0
2026/01/15 02:24:00.000   67.857350438   20.968465388   391.1194   6  10   0.0630   0.0598   0.0645  -0.0299   0.0227  -0.0423   0.00    0.0
2026/01/15 02:24:30.000   67.857350434   20.968465369   391.1194   6  10   0.0627   0.0596   0.0644  -0.0299   0.0226  -0.0421   0.00    0.0
2026/01/15 02:25:00.000   67.857350439   20.968465326   391.1191   6  10   0.0625   0.0594   0.0642  -0.0300   0.0225  -0.0420   0.00    0.0
2026/01/15 02:25:30.000   67.857350434   20.968465315   391.1193   6  10   0.0623   0.0593   0.0640  -0.0300   0.0224  -0.0418   0.00    0.0
2026/01/15 02:26:00.000   67.857350438   20.968465317   391.1188   6  10   0.0620   0.0591   0.0639  -0.0300   0.0223  -0.0417   0.00    0.0
2026/01/15 02:26:30.000   67.857350453   20.968465270   391.1172   6  10   0.0618   0.0589   0.0637  -0.0301   0.0222  -0.0415   0.00    0.0
2026/01/15 02:27:00.000   67.857350468   20.968465229   391.1160   6   9   0.0616   0.0588   0.0636  -0.0301   0.0221  -0.0414   0.00    0.0
2026/01/15 02:27:30.000   67.857350479   20.968465213   391.1150   6   9   0.0614   0.0586   0.0635  -0.0301   0.0220  -0.0413   0.00    0.0
2026/01/15 02:28:00.000   67.857350486   20.968465147   391.1138   6   9   0.0612   0.0584   0.0633  -0.0301   0.0219  -0.0411   0.00    0.0
2026/01/15 02:28:30.000   67.857350481   20.968465115   391.1135   6   9   0.0610   0.0583   0.0632  -0.0301   0.0219  -0.0410   0.00    0.0
2026/01/15 02:29:00.000   67.857350492   20.968465087   391.1120   6   9   0.0608   0.0581   0.0630  -0.0301   0.0218  -0.0409   0.00    0.0
2026/01/15 02:29:30.000   67.857350491   20.968465035   391.1114   6   9   0.0606   0.0579   0.0629  -0.0301   0.0217  -0.0407   0.00    0.0
2026/01/15 02:30:00.000   67.857350500   20.968465003   391.1105   6   9   0.0604   0.0578   0.0627  -0.0302   0.0216  -0.0406   0.00    0.0
2026/01/15 02:30:30.000   67.857350524   20.968464967   391.1081   6   9   0.0602   0.0576   0.0625  -0.0302   0.0215  -0.0405   0.00    0.0
2026/01/15 02:31:00.000   67.857350537   20.968464927   391.1073   6   9   0.0600   0.0574   0.0624  -0.0302   0.0214  -0.0403   0.00    0.0
2026/01/15 02:31:30.000   67.857350563   20.968464894   391.1053   6   9   0.0598   0.0573   0.0622  -0.0302   0.0213  -0.0402   0.00    0.0
2026/01/15 02:32:00.000   67.857350568   20.968464856   391.1047   6   9   0.0596   0.0571   0.0621  -0.0302   0.0212  -0.0401   0.00    0.0
2026/01/15 02:32:30.000   67.857350569   20.968464845   391.1039   6   9   0.0594   0.0569   0.0620  -0.0302   0.0211  -0.0399   0.00    0.0
2026/01/15 02:33:00.000   67.857350579   20.968464816   391.1027   6   9   0.0592   0.0568   0.0618  -0.0302   0.0211  -0.0398   0.00    0.0
2026/01/15 02:33:30.000   67.857350595   20.968464751   391.1010   6   9   0.0590   0.0566   0.0617  -0.0302   0.0210  -0.0397   0.00    0.0
2026/01/15 02:34:00.000   67.857350598   20.968464734   391.1010   6   9   0.0588   0.0564   0.0615  -0.0302   0.0209  -0.0395   0.00    0.0
2026/01/15 02:34:30.000   67.857350612   20.968464675   391.0996   6   9   0.0586   0.0563   0.0614  -0.0302   0.0208  -0.0394   0.00    0.0
2026/01/15 02:35:00.000   67.857350621   20.968464618   391.0986   6   9   0.0584   0.0561   0.0612  -0.0302   0.0207  -0.0393   0.00    0.0
2026/01/15 02:35:30.000   67.857350638   20.968464580   391.0967   6   9   0.0582   0.0559   0.0610  -0.0302   0.0206  -0.0391   0.00    0.0
2026/01/15 02:36:00.000   67.857350649   20.968464575   391.0952   6   9   0.0580   0.0558   0.0609  -0.0302   0.0205  -0.0390   0.00    0.0
2026/01/15 02:36:30.000   67.857350647   20.968464539   391.0950   6   9   0.0578   0.0556   0.0607  -0.0302   0.0205  -0.0389   0.00    0.0
2026/01/15 02:37:00.000   67.857350656   20.968464534   391.0938   6   9   0.0576   0.0554   0.0606  -0.0302   0.0204  -0.0387   0.00    0.0
2026/01/15 02:37:30.000   67.857350665   20.968464520   391.0932   6   9   0.0575   0.0553   0.0605  -0.0302   0.0203  -0.0386   0.00    0.0
2026/01/15 02:38:00.000   67.857350680   20.968464452   391.0922   6   9   0.0573   0.0551   0.0603  -0.0302   0.0202  -0.0385   0.00    0.0
2026/01/15 02:38:30.000   67.857350681   20.968464428   391.0918   6   9   0.0571   0.0550   0.0602  -0.0302   0.0201  -0.0383   0.00    0.0
2026/01/15 02:39:00.000   67.857350685   20.968464413   391.0911   6   9   0.0569   0.0548   0.0600  -0.0301   0.0200  -0.0382   0.00    0.0
2026/01/15 02:39:30.000   67.857350697   20.968464386   391.0898   6   9   0.0567   0.0546   0.0598  -0.0301   0.0200  -0.0381   0.00    0.0
2026/01/15 02:40:00.000   67.857350694   20.968464345   391.0897   6   9   0.0565   0.0544   0.0597  -0.0301   0.0199  -0.0379   0.00    0.0
2026/01/15 02:40:30.000   67.857350711   20.968464304   391.0882   6   9   0.0563   0.0543   0.0595  -0.0301   0.0198  -0.0378   0.00    0.0
2026/01/15 02:41:00.000   67.857350722   20.968464289   391.0869   6   9   0.0561   0.0541   0.0594  -0.0301   0.0197  -0.0377   0.00    0.0
2026/01/15 02:41:30.000   67.857350728   20.968464236   391.0857   6   9   0.0559   0.0539   0.0592  -0.0301   0.0196  -0.0375   0.00    0.0
2026/01/15 02:42:00.000   67.857350739   20.968464174   391.0840   6   9   0.0557   0.0538   0.0591  -0.0300   0.0195  -0.0374   0.00    0.0
2026/01/15 02:42:30.000   67.857350755   20.968464108   391.0818   6   9   0.0556   0.0536   0.0589  -0.0300   0.0195  -0.0373   0.00    0.0
2026/01/15 02:43:00.000   67.857350767   20.968464039   391.0799   6   9   0.0554   0.0535   0.0588  -0.0300   0.0194  -0.0372   0.00    0.0
2026/01/15 02:43:30.000   67.857350769   20.968464011   391.0790   6   9   0.0552   0.0533   0.0586  -0.0300   0.0193  -0.0370   0.00    0.0
2026/01/15 02:44:00.000   67.857350779   20.968464001   391.0775   6   9   0.0550   0.0532   0.0585  -0.0299   0.0192  -0.0369   0.00    0.0
2026/01/15 02:44:30.000   67.857350787   20.968463939   391.0760   6   9   0.0548   0.0530   0.0583  -0.0299   0.0191  -0.0368   0.00    0.0
2026/01/15 02:45:00.000   67.857350784   20.968463919   391.0754   6   9   0.0546   0.0528   0.0581  -0.0299   0.0191  -0.0366   0.00    0.0
2026/01/15 02:45:30.000   67.857350787   20.968463910   391.0751   6   9   0.0544   0.0526   0.0580  -0.0298   0.0190  -0.0365   0.00    0.0
2026/01/15 02:46:00.000   67.857350805   20.968463881   391.0737   6   9   0.0543   0.0525   0.0578  -0.0298   0.0189  -0.0364   0.00    0.0
2026/01/15 02:46:30.000   67.857350819   20.968463826   391.0728   6   9   0.0541   0.0523   0.0577  -0.0298   0.0188  -0.0362   0.00    0.0
2026/01/15 02:47:00.000   67.857350836   20.968463792   391.0712   6   9   0.0539   0.0522   0.0575  -0.0297   0.0187  -0.0361   0.00    0.0
2026/01/15 02:47:30.000   67.857350850   20.968463747   391.0696   6   9   0.0537   0.0520   0.0574  -0.0297   0.0187  -0.0360   0.00    0.0
2026/01/15 02:48:00.000   67.857350858   20.968463666   391.0685   6   9   0.0536   0.0519   0.0572  -0.0297   0.0186  -0.0359   0.00    0.0
2026/01/15 02:48:30.000   67.857350863   20.968463597   391.0675   6   9   0.0534   0.0517   0.0571  -0.0296   0.0185  -0.0357   0.00    0.0
2026/01/15 02:49:00.000   67.857350883   20.968463541   391.0652   6   9   0.0532   0.0515   0.0569  -0.0296   0.0184  -0.0356   0.00    0.0
2026/01/15 02:49:30.000   67.857350886   20.968463514   391.0645   6   9   0.0530   0.0514   0.0567  -0.0295   0.0183  -0.0355   0.00    0.0
2026/01/15 02:50:00.000   67.857350910   20.968463429   391.0616   6   9   0.0528   0.0512   0.0566  -0.0295   0.0183  -0.0353   0.00    0.0
2026/01/15 02:50:30.000   67.857350914   20.968463378   391.0604   6   9   0.0526   0.0510   0.0564  -0.0294   0.0182  -0.0352   0.00    0.0
2026/01/15 02:51:00.000   67.857350913   20.968463356   391.0601   6   9   0.0525   0.0509   0.0562  -0.0294   0.0181  -0.0351   0.00    0.0
2026/01/15 02:51:30.000   67.857350917   20.968463330   391.0595   6   9   0.0523   0.0507   0.0561  -0.0293   0.0180  -0.0350   0.00    0.0
2026/01/15 02:52:00.000   67.857350926   20.968463282   391.0585   6   9   0.0521   0.0506   0.0559  -0.0293   0.0180  -0.0348   0.00    0.0
2026/01/15 02:52:30.000   67.857350938   20.968463205   391.0574   6   9   0.0520   0.0504   0.0558  -0.0292   0.0179  -0.0347   0.00    0.0
2026/01/15 02:53:00.000   67.857350945   20.968463153   391.0564   6   9   0.0518   0.0503   0.0556  -0.0292   0.0178  -0.0346   0.00    0.0
2026/01/15 02:53:30.000   67.857350963   20.968463107   391.0547   6   9   0.0516   0.0501   0.0555  -0.0292   0.0178  -0.0345   0.00    0.0
2026/01/15 02:54:00.000   67.857350981   20.968463060   391.0530   6   9   0.0515   0.0500   0.0553  -0.0292   0.0177  -0.0344   0.00    0.0
2026/01/15 02:54:30.000   67.857350999   20.968463031   391.0506   6   9   0.0513   0.0498   0.0552  -0.0291   0.0177  -0.0343   0.00    0.0
2026/01/15 02:55:00.000   67.857351000   20.968463033   391.0494   6   9   0.0511   0.0497   0.0550  -0.0291   0.0176  -0.0342   0.00    0.0
2026/01/15 02:55:30.000   67.857351014   20.968462984   391.0478   6   9   0.0510   0.0495   0.0548  -0.0291   0.0176  -0.0340   0.00    0.0
2026/01/15 02:56:00.000   67.857351024   20.968462958   391.0464   6   9   0.0508   0.0494   0.0547  -0.0290   0.0175  -0.0339   0.00    0.0
2026/01/15 02:56:30.000   67.857351037   20.968462885   391.0446   6   9   0.0507   0.0492   0.0545  -0.0290   0.0175  -0.0338   0.00    0.0
2026/01/15 02:57:00.000   67.857351047   20.968462840   391.0431   6   9   0.0505   0.0491   0.0544  -0.0290   0.0174  -0.0337   0.00    0.0
2026/01/15 02:57:30.000   67.857351047   20.968462826   391.0419   6   9   0.0504   0.0489   0.0542  -0.0289   0.0174  -0.0336   0.00    0.0
2026/01/15 02:58:00.000   67.857351045   20.968462813   391.0409   6   9   0.0502   0.0488   0.0541  -0.0289   0.0173  -0.0335   0.00    0.0
2026/01/15 02:58:30.000   67.857351051   20.968462826   391.0395   6  10   0.0501   0.0487   0.0539  -0.0288   0.0173  -0.0334   0.00    0.0
2026/01/15 02:59:00.000   67.857351054   20.968462824   391.0384   6  10   0.0499   0.0485   0.0538  -0.0288   0.0172  -0.0333   0.00    0.0
2026/01/15 02:59:30.000   67.857351073   20.968462772   391.0363   6  10   0.0497   0.0483   0.0536  -0.0287   0.0172  -0.0332   0.00    0.0
2026/01/15 03:00:00.000   67.857351071   20.968462754   391.0357   6  10   0.0496   0.0482   0.0534  -0.0287   0.0171  -0.0330   0.00    0.0
2026/01/15 03:00:30.000   67.857351082   20.968462697   391.0343   6  10   0.0494   0.0480   0.0533  -0.0286   0.0170  -0.0329   0.00    0.0
2026/01/15 03:01:00.000   67.857351094   20.968462626   391.0324   6  10   0.0492   0.0479   0.0531  -0.0286   0.0170  -0.0328   0.00    0.0
2026/01/15 03:01:30.000   67.857351095   20.968462595   391.0310   6  10   0.0491   0.0477   0.0530  -0.0285   0.0169  -0.0327   0.00    0.0
2026/01/15 03:02:00.000   67.857351109   20.968462547   391.0293   6  10   0.0489   0.0476   0.0528  -0.0284   0.0169  -0.0326   0.00    0.0
2026/01/15 03:02:30.000   67.857351128   20.968462522   391.0274   6  10   0.0488   0.0474   0.0527  -0.0284   0.0168  -0.0325   0.00    0.0
2026/01/15 03:03:00.000   67.857351136   20.968462503   391.0256   6  10   0.0486   0.0473   0.0525  -0.0283   0.0167  -0.0324   0.00    0.0
2026/01/15 03:03:30.000   67.857351138   20.968462471   391.0240   6  10   0.0485   0.0472   0.0524  -0.0283   0.0167  -0.0322   0.00    0.0
2026/01/15 03:04:00.000   67.857351135   20.968462444   391.0228   6  10   0.0483   0.0470   0.0522  -0.0282   0.0166  -0.0321   0.00    0.0
2026/01/15 03:04:30.000   67.857351135   20.968462450   391.0217   6  10   0.0481   0.0468   0.0520  -0.0281   0.0166  -0.0320   0.00    0.0
2026/01/15 03:05:00.000   67.857351137   20.968462437   391.0205   6  10   0.0480   0.0467   0.0519  -0.0281   0.0165  -0.0319   0.00    0.0
2026/01/15 03:05:30.000   67.857351146   20.968462404   391.0187   6  10   0.0478   0.0465   0.0517  -0.0280   0.0164  -0.0318   0.00    0.0
2026/01/15 03:06:00.000   67.857351150   20.968462376   391.0174   6  10   0.0477   0.0464   0.0515  -0.0279   0.0164  -0.0317   0.00    0.0
2026/01/15 03:06:30.000   67.857351152   20.968462365   391.0161   6  11   0.0475   0.0462   0.0514  -0.0279   0.0163  -0.0316   0.00    0.0
2026/01/15 03:07:00.000   67.857351169   20.968462311   391.0139   6  11   0.0474   0.0461   0.0512  -0.0278   0.0163  -0.0315   0.00    0.0
2026/01/15 03:07:30.000   67.857351177   20.968462291   391.0128   6  11   0.0472   0.0460   0.0511  -0.0277   0.0162  -0.0314   0.00    0.0
2026/01/15 03:08:00.000   67.857351176   20.968462275   391.0121   6  11   0.0471   0.0458   0.0510  -0.0277   0.0161  -0.0312   0.00    0.0
2026/01/15 03:08:30.000   67.857351172   20.968462284   391.0109   6  11   0.0469   0.0457   0.0508  -0.0276   0.0161  -0.0311   0.00    0.0
2026/01/15 03:09:00.000   67.857351181   20.968462262   391.0084   6  11   0.0468   0.0455   0.0506  -0.0275   0.0160  -0.0310   0.00    0.0
2026/01/15 03:09:30.000   67.857351195   20.968462211   391.0063   6  11   0.0466   0.0454   0.0505  -0.0275   0.0160  -0.0309   0.00    0.0
2026/01/15 03:10:00.000   67.857351206   20.968462169   391.0043   6  11   0.0464   0.0452   0.0503  -0.0274   0.0159  -0.0308   0.00    0.0
2026/01/15 03:10:30.000   67.857351222   20.968462120   391.0035   6  10   0.0463   0.0451   0.0502  -0.0273   0.0159  -0.0307   0.00    0.0
2026/01/15 03:11:00.000   67.857351242   20.968462057   391.0023   6  10   0.0461   0.0449   0.0501  -0.0272   0.0159  -0.0305   0.00    0.0
2026/01/15 03:11:30.000   67.857351248   20.968462045   391.0018   6  10   0.0460   0.0448   0.0499  -0.0272   0.0158  -0.0304   0.00    0.0
2026/01/15 03:12:00.000   67.857351256   20.968462022   391.0016   6  10   0.0459   0.0446   0.0498  -0.0271   0.0158  -0.0303   0.00    0.0
2026/01/15 03:12:30.000   67.857351270   20.968461973   391.0007   6  10   0.0457   0.0445   0.0497  -0.0270   0.0158  -0.0302   0.00    0.0
2026/01/15 03:13:00.000   67.857351274   20.968461992   391.0005   6  10   0.0456   0.0444   0.0496  -0.0269   0.0157  -0.0301   0.00    0.0
2026/01/15 03:13:30.000   67.857351284   20.968461981   391.0002   6  10   0.0454   0.0442   0.0495  -0.0269   0.0157  -0.0299   0.00    0.0
2026/01/15 03:14:00.000   67.857351294   20.968461940   390.9997   6  10   0.0453   0.0441   0.0494  -0.0268   0.0157  -0.0298   0.00    0.0
2026/01/15 03:14:30.000   67.857351315   20.968461901   390.9986   6  10   0.0451   0.0439   0.0493  -0.0267   0.0157  -0.0297   0.00    0.0
2026/01/15 03:15:00.000   67.857351331   20.968461873   390.9979   6  10   0.0450   0.0438   0.0491  -0.0266   0.0156  -0.0295   0.00    0.0
2026/01/15 03:15:30.000   67.857351338   20.968461850   390.9976   6  10   0.0448   0.0437   0.0490  -0.0265   0.0156  -0.0294   0.00    0.0
2026/01/15 03:16:00.000   67.857351346   20.968461815   390.9971   6  10   0.0447   0.0435   0.0489  -0.0264   0.0156  -0.0293   0.00    0.0
2026/01/15 03:16:30.000   67.857351356   20.968461774   390.9968   6  10   0.0446   0.0434   0.0488  -0.0264   0.0156  -0.0292   0.00    0.0
2026/01/15 03:17:00.000   67.857351375   20.968461721   390.9959   6  10   0.0444   0.0432   0.0487  -0.0263   0.0155  -0.0291   0.00    0.0
2026/01/15 03:17:30.000   67.857351393   20.968461669   390.9946   6  10   0.0443   0.0431   0.0486  -0.0262   0.0155  -0.0289   0.00    0.0
2026/01/15 03:18:00.000   67.857351403   20.968461656   390.9940   6  10   0.0442   0.0430   0.0485  -0.0261   0.0155  -0.0288   0.00    0.0
2026/01/15 03:18:30.000   67.857351422   20.968461617   390.9924   6  10   0.0440   0.0429   0.0483  -0.0260   0.0155  -0.0287   0.00    0.0
2026/01/15 03:19:00.000   67.857351435   20.968461592   390.9916   6  10   0.0439   0.0427   0.0482  -0.0259   0.0154  -0.0286   0.00    0.0
2026/01/15 03:19:30.000   67.857351445   20.968461558   390.9910   6  10   0.0437   0.0426   0.0481  -0.0259   0.0154  -0.0285   0.00    0.0
2026/01/15 03:20:00.000   67.857351465   20.968461516   390.9899   6  10   0.0436   0.0424   0.0480  -0.0258   0.0154  -0.0283   0.00    0.0
2026/01/15 03:20:30.000   67.857351486   20.968461483   390.9886   6  10   0.0434   0.0423   0.0479  -0.0257   0.0154  -0.0282   0.00    0.0
2026/01/15 03:21:00.000   67.857351493   20.968461472   390.9882   6  10   0.0433   0.0421   0.0477  -0.0256   0.0153  -0.0281   0.00    0.0
2026/01/15 03:21:30.000   67.857351513   20.968461429   390.9866   6  10   0.0431   0.0420   0.0476  -0.0255   0.0153  -0.0280   0.00    0.0
2026/01/15 03:22:00.000   67.857351529   20.968461379   390.9852   6  10   0.0430   0.0419   0.0475  -0.0254   0.0153  -0.0279   0.00    0.0
2026/01/15 03:22:30.000   67.857351546   20.968461337   390.9839   6  10   0.0429   0.0418   0.0474  -0.0253   0.0152  -0.0278   0.00    0.0
2026/01/15 03:23:00.000   67.857351552   20.968461305   390.9837   6  10   0.0427   0.0416   0.0473  -0.0253   0.0152  -0.0277   0.00    0.0
2026/01/15 03:23:30.000   67.857351575   20.968461254   390.9824   6  10   0.0426   0.0415   0.0472  -0.0252   0.0152  -0.0275   0.00    0.0
2026/01/15 03:24:00.000   67.857351602   20.968461179   390.9809   6  10   0.0425   0.0414   0.0471  -0.0251   0.0152  -0.0274   0.00    0.0
2026/01/15 03:24:30.000   67.857351620   20.968461161   390.9793   6  10   0.0423   0.0412   0.0469  -0.0250   0.0151  -0.0273   0.00    0.0
2026/01/15 03:25:00.000   67.857351637   20.968461122   390.9782   6  10   0.0422   0.0411   0.0468  -0.0249   0.0151  -0.0272   0.00    0.0
2026/01/15 03:25:30.000   67.857351649   20.968461099   390.9772   6  10   0.0420   0.0410   0.0467  -0.0248   0.0151  -0.0271   0.00    0.0
2026/01/15 03:26:00.000   67.857351656   20.968461086   390.9765   6  10   0.0419   0.0408   0.0466  -0.0247   0.0150  -0.0270   0.00    0.0
2026/01/15 03:26:30.000   67.857351662   20.968461071   390.9762   6  10   0.0417   0.0407   0.0464  -0.0246   0.0150  -0.0269   0.00    0.0
2026/01/15 03:27:00.000   67.857351674   20.968461052   390.9749   6  10   0.0416   0.0406   0.0463  -0.0245   0.0150  -0.0267   0.00    0.0
2026/01/15 03:27:30.000   67.857351680   20.968461032   390.9746   6  10   0.0415   0.0404   0.0462  -0.0245   0.0150  -0.0267   0.00    0.0
2026/01/15 03:28:00.000   67.857351700   20.968461009   390.9732   6  10   0.0414   0.0403   0.0461  -0.0244   0.0149  -0.0265   0.00    0.0
