% program   : RTKPOST ver.demo5 b34d
% inp file  : E:\Master courses\SNDP-PROJECT\New_Data\obs\RNXDATA\KIRU00SWE_R_20260150000_01D_30S_MO.rnx
% inp file  : E:\Master courses\SNDP-PROJECT\New_Data\nav\BRDC00IGS_R_20260150000_01D_MN.rnx
% inp file  : E:\Master courses\SNDP-PROJECT\New_Data\DATA_FINAL_ANT_EXTRA\COD0MGXFIN_20260150000_01D_05M_ORB.SP3
% inp file  : E:\Master courses\SNDP-PROJECT\New_Data\DATA_FINAL_ANT_EXTRA\COD0MGXFIN_20260150000_01D_30S_CLK.CLK
% obs start : 2026/01/15 00:00:00.0 GPST (week2401 345600.0s)
% obs end   : 2026/01/15 23:59:30.0 GPST (week2401 431970.0s)
% pos mode  : PPP Static
% solution  : Forward
% elev mask : 15.0 deg
% dynamics  : off
% tidecorr  : off
% tropo opt : Saastamoinen
% ephemeris : Precise
% navi sys  : GPS Galileo
% antenna1  : SEPCHOKE_B3E6   SPKE  ( 0.0000  0.0000  0.0620)
%
% (lat/lon/height=WGS84/ellipsoidal,Q=1:fix,2:float,3:sbas,4:dgps,5:single,6:ppp,ns=# of satellites)
%  GPST                  latitude(deg) longitude(deg)  height(m)   Q  ns   sdn(m)   sde(m)   sdu(m)  sdne(m)  sdeu(m)  sdun(m) age(s)  ratio
2026/01/15 00:00:00.000   67.857350962   20.968478927   392.2832   6  17   1.0064   0.9460   2.4927  -0.2475  -0.4539   0.9077   0.00    0.0
2026/01/15 00:00:30.000   67.857352759   20.968474088   391.5270   6  19   0.6956   0.6306   1.7401   0.0359  -0.4068   0.6680   0.00    0.0
2026/01/15 00:01:00.000   67.857350362   20.968471685   391.7431   6  19   0.5649   0.5079   1.4157   0.0731  -0.3469   0.5490   0.00    0.0
2026/01/15 00:01:30.000   67.857350900   20.968468186   392.0399   6  19   0.4881   0.4373   1.2232   0.0735  -0.3064   0.4762   0.00    0.0
2026/01/15 00:02:00.000   67.857352246   20.968467157   392.0683   6  19   0.4359   0.3899   1.0919   0.0701  -0.2774   0.4256   0.00    0.0
2026/01/15 00:02:30.000   67.857351583   20.968465885   392.0462   6  19   0.3976   0.3554   0.9948   0.0662  -0.2554   0.3879   0.00    0.0
2026/01/15 00:03:00.000   67.857350986   20.968464331   391.8679   6  19   0.3676   0.3285   0.9184   0.0625  -0.2379   0.3579   0.00    0.0
2026/01/15 00:03:30.000   67.857351051   20.968466290   391.8871   6  19   0.3434   0.3070   0.8560   0.0592  -0.2235   0.3332   0.00    0.0
2026/01/15 00:04:00.000   67.857351347   20.968466343   391.9597   6  20   0.3219   0.2890   0.8002   0.0538  -0.2131   0.3087   0.00    0.0
2026/01/15 00:04:30.000   67.857351566   20.968466217   391.9168   6  19   0.3040   0.2747   0.7560   0.0517  -0.2074   0.2872   0.00    0.0
2026/01/15 00:05:00.000   67.857351049   20.968466099   391.7856   6  19   0.2888   0.2624   0.7178   0.0499  -0.2017   0.2689   0.00    0.0
2026/01/15 00:05:30.000   67.857351313   20.968465780   391.6714   6  19   0.2755   0.2515   0.6843   0.0482  -0.1962   0.2532   0.00    0.0
2026/01/15 00:06:00.000   67.857351297   20.968465593   391.7237   6  19   0.2638   0.2419   0.6546   0.0467  -0.1909   0.2394   0.00    0.0
2026/01/15 00:06:30.000   67.857351240   20.968465632   391.7601   6  19   0.2535   0.2334   0.6280   0.0453  -0.1858   0.2272   0.00    0.0
2026/01/15 00:07:00.000   67.857351334   20.968465494   391.7806   6  19   0.2443   0.2257   0.6041   0.0440  -0.1811   0.2164   0.00    0.0
2026/01/15 00:07:30.000   67.857351274   20.968466013   391.7879   6  19   0.2360   0.2187   0.5825   0.0428  -0.1767   0.2067   0.00    0.0
2026/01/15 00:08:00.000   67.857350977   20.968466827   391.7764   6  19   0.2283   0.2123   0.5623   0.0418  -0.1722   0.1976   0.00    0.0
2026/01/15 00:08:30.000   67.857350952   20.968466758   391.7333   6  19   0.2212   0.2064   0.5431   0.0410  -0.1679   0.1890   0.00    0.0
2026/01/15 00:09:00.000   67.857350854   20.968466136   391.7022   6  19   0.2146   0.2009   0.5250   0.0402  -0.1638   0.1808   0.00    0.0
2026/01/15 00:09:30.000   67.857351034   20.968466779   391.6887   6  18   0.2088   0.1958   0.5082   0.0394  -0.1597   0.1727   0.00    0.0
2026/01/15 00:10:00.000   67.857351202   20.968466976   391.7093   6  18   0.2033   0.1910   0.4923   0.0386  -0.1559   0.1651   0.00    0.0
2026/01/15 00:10:30.000   67.857351330   20.968466591   391.7329   6  18   0.1982   0.1866   0.4775   0.0379  -0.1522   0.1580   0.00    0.0
2026/01/15 00:11:00.000   67.857351243   20.968466696   391.7078   6  19   0.1933   0.1822   0.4629   0.0363  -0.1479   0.1521   0.00    0.0
2026/01/15 00:11:30.000   67.857351147   20.968466511   391.6831   6  19   0.1887   0.1781   0.4494   0.0348  -0.1439   0.1465   0.00    0.0
2026/01/15 00:12:00.000   67.857351327   20.968466247   391.6653   6  19   0.1844   0.1743   0.4369   0.0334  -0.1401   0.1415   0.00    0.0
2026/01/15 00:12:30.000   67.857351162   20.968466170   391.6012   6  19   0.1805   0.1707   0.4253   0.0320  -0.1367   0.1368   0.00    0.0
2026/01/15 00:13:00.000   67.857351134   20.968466241   391.5706   6  19   0.1766   0.1673   0.4139   0.0308  -0.1333   0.1321   0.00    0.0
2026/01/15 00:13:30.000   67.857351208   20.968465569   391.5753   6  19   0.1729   0.1640   0.4026   0.0297  -0.1300   0.1273   0.00    0.0
2026/01/15 00:14:00.000   67.857351226   20.968465560   391.5657   6  19   0.1695   0.1609   0.3918   0.0288  -0.1267   0.1229   0.00    0.0
2026/01/15 00:14:30.000   67.857351238   20.968465694   391.5630   6  19   0.1662   0.1579   0.3814   0.0281  -0.1236   0.1185   0.00    0.0
2026/01/15 00:15:00.000   67.857351200   20.968465784   391.5250   6  19   0.1630   0.1551   0.3713   0.0273  -0.1205   0.1143   0.00    0.0
2026/01/15 00:15:30.000   67.857351106   20.968465796   391.5186   6  19   0.1600   0.1524   0.3618   0.0266  -0.1177   0.1103   0.00    0.0
2026/01/15 00:16:00.000   67.857351042   20.968466056   391.4961   6  19   0.1571   0.1499   0.3529   0.0260  -0.1150   0.1065   0.00    0.0
2026/01/15 00:16:30.000   67.857350894   20.968466182   391.4728   6  19   0.1544   0.1475   0.3445   0.0253  -0.1124   0.1030   0.00    0.0
2026/01/15 00:17:00.000   67.857350896   20.968466210   391.4511   6  19   0.1519   0.1452   0.3366   0.0246  -0.1100   0.0997   0.00    0.0
2026/01/15 00:17:30.000   67.857350910   20.968466186   391.4465   6  19   0.1495   0.1430   0.3294   0.0239  -0.1078   0.0968   0.00    0.0
2026/01/15 00:18:00.000   67.857350952   20.968466385   391.4587   6  19   0.1471   0.1408   0.3223   0.0233  -0.1056   0.0936   0.00    0.0
2026/01/15 00:18:30.000   67.857350831   20.968466254   391.4763   6  19   0.1448   0.1388   0.3153   0.0228  -0.1035   0.0902   0.00    0.0
2026/01/15 00:19:00.000   67.857350723   20.968466247   391.4611   6  19   0.1425   0.1368   0.3083   0.0224  -0.1013   0.0868   0.00    0.0
2026/01/15 00:19:30.000   67.857350693   20.968466427   391.4417   6  19   0.1403   0.1348   0.3014   0.0220  -0.0992   0.0834   0.00    0.0
2026/01/15 00:20:00.000   67.857350747   20.968466407   391.4193   6  19   0.1382   0.1329   0.2947   0.0216  -0.0972   0.0801   0.00    0.0
2026/01/15 00:20:30.000   67.857350749   20.968466164   391.4170   6  19   0.1362   0.1311   0.2886   0.0213  -0.0952   0.0773   0.00    0.0
2026/01/15 00:21:00.000   67.857350745   20.968466409   391.4032   6  19   0.1343   0.1294   0.2830   0.0210  -0.0934   0.0745   0.00    0.0
2026/01/15 00:21:30.000   67.857350738   20.968466307   391.3820   6  19   0.1326   0.1277   0.2777   0.0207  -0.0916   0.0719   0.00    0.0
2026/01/15 00:22:00.000   67.857350793   20.968466402   391.3797   6  19   0.1309   0.1262   0.2727   0.0204  -0.0900   0.0695   0.00    0.0
2026/01/15 00:22:30.000   67.857350826   20.968466591   391.3712   6  19   0.1293   0.1246   0.2681   0.0200  -0.0885   0.0673   0.00    0.0
2026/01/15 00:23:00.000   67.857350923   20.968466731   391.3618   6  19   0.1277   0.1231   0.2634   0.0197  -0.0869   0.0649   0.00    0.0
2026/01/15 00:23:30.000   67.857350853   20.968466655   391.3498   6  19   0.1261   0.1217   0.2586   0.0194  -0.0853   0.0624   0.00    0.0
2026/01/15 00:24:00.000   67.857350738   20.968466486   391.3286   6  19   0.1245   0.1202   0.2538   0.0192  -0.0838   0.0597   0.00    0.0
2026/01/15 00:24:30.000   67.857350666   20.968466274   391.3108   6  19   0.1230   0.1188   0.2491   0.0189  -0.0823   0.0571   0.00    0.0
2026/01/15 00:25:00.000   67.857350608   20.968466212   391.3266   6  19   0.1215   0.1175   0.2445   0.0187  -0.0808   0.0544   0.00    0.0
2026/01/15 00:25:30.000   67.857350662   20.968466413   391.3272   6  18   0.1202   0.1162   0.2407   0.0186  -0.0794   0.0525   0.00    0.0
2026/01/15 00:26:00.000   67.857350698   20.968466583   391.3166   6  18   0.1189   0.1150   0.2369   0.0185  -0.0781   0.0507   0.00    0.0
2026/01/15 00:26:30.000   67.857350752   20.968466732   391.3047   6  18   0.1176   0.1139   0.2334   0.0184  -0.0768   0.0490   0.00    0.0
2026/01/15 00:27:00.000   67.857350758   20.968466768   391.3054   6  18   0.1164   0.1128   0.2301   0.0182  -0.0756   0.0474   0.00    0.0
2026/01/15 00:27:30.000   67.857350723   20.968466879   391.3039   6  18   0.1153   0.1118   0.2270   0.0180  -0.0745   0.0460   0.00    0.0
2026/01/15 00:28:00.000   67.857350629   20.968466918   391.3000   6  18   0.1141   0.1108   0.2238   0.0178  -0.0733   0.0444   0.00    0.0
2026/01/15 00:28:30.000   67.857350674   20.968466721   391.2996   6  18   0.1130   0.1098   0.2205   0.0177  -0.0722   0.0426   0.00    0.0
2026/01/15 00:29:00.000   67.857350680   20.968466650   391.3029   6  18   0.1119   0.1089   0.2172   0.0176  -0.0710   0.0407   0.00    0.0
2026/01/15 00:29:30.000   67.857350645   20.968466387   391.2940   6  18   0.1107   0.1079   0.2139   0.0175  -0.0698   0.0387   0.00    0.0
2026/01/15 00:30:00.000   67.857350649   20.968466470   391.2854   6  18   0.1096   0.1070   0.2106   0.0174  -0.0687   0.0367   0.00    0.0
2026/01/15 00:30:30.000   67.857350774   20.968466644   391.2744   6  17   0.1086   0.1061   0.2083   0.0171  -0.0677   0.0357   0.00    0.0
2026/01/15 00:31:00.000   67.857350771   20.968466688   391.2761   6  17   0.1077   0.1052   0.2061   0.0168  -0.0668   0.0347   0.00    0.0
2026/01/15 00:31:30.000   67.857350702   20.968466674   391.2923   6  17   0.1067   0.1044   0.2039   0.0165  -0.0660   0.0338   0.00    0.0
2026/01/15 00:32:00.000   67.857350736   20.968466766   391.2893   6  17   0.1058   0.1035   0.2019   0.0162  -0.0652   0.0330   0.00    0.0
2026/01/15 00:32:30.000   67.857350740   20.968466651   391.2977   6  17   0.1050   0.1027   0.2000   0.0158  -0.0644   0.0322   0.00    0.0
2026/01/15 00:33:00.000   67.857350758   20.968466663   391.3029   6  17   0.1041   0.1020   0.1980   0.0155  -0.0636   0.0313   0.00    0.0
2026/01/15 00:33:30.000   67.857350800   20.968466627   391.3119   6  17   0.1033   0.1012   0.1960   0.0151  -0.0628   0.0306   0.00    0.0
2026/01/15 00:34:00.000   67.857350830   20.968466506   391.3113   6  17   0.1025   0.1004   0.1940   0.0146  -0.0620   0.0296   0.00    0.0
2026/01/15 00:34:30.000   67.857350846   20.968466579   391.3167   6  17   0.1017   0.0997   0.1920   0.0142  -0.0611   0.0287   0.00    0.0
2026/01/15 00:35:00.000   67.857350872   20.968466498   391.3208   6  17   0.1009   0.0990   0.1899   0.0138  -0.0603   0.0276   0.00    0.0
2026/01/15 00:35:30.000   67.857350909   20.968466648   391.3231   6  17   0.1001   0.0982   0.1880   0.0134  -0.0594   0.0265   0.00    0.0
2026/01/15 00:36:00.000   67.857350888   20.968466725   391.3236   6  17   0.0994   0.0976   0.1861   0.0130  -0.0586   0.0255   0.00    0.0
2026/01/15 00:36:30.000   67.857350855   20.968466486   391.3276   6  17   0.0986   0.0969   0.1843   0.0125  -0.0579   0.0246   0.00    0.0
2026/01/15 00:37:00.000   67.857350816   20.968466350   391.3292   6  17   0.0979   0.0962   0.1825   0.0121  -0.0572   0.0237   0.00    0.0
2026/01/15 00:37:30.000   67.857350809   20.968466336   391.3276   6  17   0.0972   0.0956   0.1809   0.0116  -0.0565   0.0229   0.00    0.0
2026/01/15 00:38:00.000   67.857350813   20.968466372   391.3186   6  17   0.0965   0.0949   0.1792   0.0111  -0.0558   0.0219   0.00    0.0
2026/01/15 00:38:30.000   67.857350815   20.968466358   391.3165   6  17   0.0959   0.0943   0.1774   0.0107  -0.0551   0.0208   0.00    0.0
2026/01/15 00:39:00.000   67.857350819   20.968466283   391.3231   6  17   0.0952   0.0937   0.1757   0.0104  -0.0544   0.0192   0.00    0.0
2026/01/15 00:39:30.000   67.857350853   20.968466276   391.3168   6  17   0.0945   0.0931   0.1739   0.0101  -0.0537   0.0175   0.00    0.0
2026/01/15 00:40:00.000   67.857350878   20.968466289   391.3213   6  17   0.0938   0.0925   0.1721   0.0098  -0.0530   0.0156   0.00    0.0
2026/01/15 00:40:30.000   67.857350835   20.968466269   391.3226   6  17   0.0932   0.0919   0.1703   0.0094  -0.0523   0.0135   0.00    0.0
2026/01/15 00:41:00.000   67.857350825   20.968466261   391.3237   6  17   0.0926   0.0913   0.1686   0.0091  -0.0517   0.0112   0.00    0.0
2026/01/15 00:41:30.000   67.857350845   20.968466229   391.3217   6  17   0.0919   0.0908   0.1670   0.0087  -0.0510   0.0086   0.00    0.0
2026/01/15 00:42:00.000   67.857350827   20.968466320   391.3279   6  17   0.0914   0.0902   0.1655   0.0083  -0.0504   0.0054   0.00    0.0
2026/01/15 00:42:30.000   67.857350828   20.968466324   391.3262   6  17   0.0908   0.0897   0.1641   0.0078  -0.0498  -0.0027   0.00    0.0
2026/01/15 00:43:00.000   67.857350843   20.968466259   391.3217   6  17   0.0902   0.0892   0.1626   0.0073  -0.0492  -0.0071   0.00    0.0
2026/01/15 00:43:30.000   67.857350888   20.968466382   391.3234   6  17   0.0896   0.0887   0.1611   0.0069  -0.0486  -0.0099   0.00    0.0
2026/01/15 00:44:00.000   67.857350909   20.968466300   391.3215   6  17   0.0891   0.0882   0.1595   0.0064  -0.0479  -0.0122   0.00    0.0
2026/01/15 00:44:30.000   67.857350912   20.968466342   391.3170   6  18   0.0885   0.0876   0.1579   0.0062  -0.0473  -0.0140   0.00    0.0
2026/01/15 00:45:00.000   67.857350875   20.968466273   391.3117   6  18   0.0879   0.0871   0.1563   0.0059  -0.0467  -0.0156   0.00    0.0
2026/01/15 00:45:30.000   67.857350849   20.968466259   391.3119   6  18   0.0873   0.0866   0.1548   0.0056  -0.0461  -0.0170   0.00    0.0
2026/01/15 00:46:00.000   67.857350821   20.968466360   391.3114   6  18   0.0867   0.0862   0.1533   0.0053  -0.0455  -0.0182   0.00    0.0
2026/01/15 00:46:30.000   67.857350874   20.968466306   391.3069   6  17   0.0862   0.0857   0.1522   0.0049  -0.0450  -0.0186   0.00    0.0
2026/01/15 00:47:00.000   67.857350890   20.968466375   391.3135   6  17   0.0857   0.0852   0.1511   0.0044  -0.0444  -0.0189   0.00    0.0
2026/01/15 00:47:30.000   67.857350885   20.968466321   391.3172   6  16   0.0852   0.0848   0.1502   0.0038  -0.0439  -0.0192   0.00    0.0
2026/01/15 00:48:00.000   67.857350900   20.968466352   391.3237   6  17   0.0848   0.0844   0.1491   0.0033  -0.0433  -0.0196   0.00    0.0
2026/01/15 00:48:30.000   67.857350915   20.968466347   391.3221   6  17   0.0843   0.0840   0.1481   0.0027  -0.0427  -0.0201   0.00    0.0
2026/01/15 00:49:00.000   67.857350891   20.968466350   391.3264   6  16   0.0839   0.0835   0.1470   0.0018  -0.0421  -0.0208   0.00    0.0
2026/01/15 00:49:30.000   67.857350879   20.968466379   391.3290   6  16   0.0834   0.0831   0.1459  -0.0006  -0.0415  -0.0216   0.00    0.0
2026/01/15 00:50:00.000   67.857350894   20.968466437   391.3246   6  16   0.0830   0.0827   0.1448  -0.0020  -0.0409  -0.0223   0.00    0.0
2026/01/15 00:50:30.000   67.857350918   20.968466429   391.3248   6  16   0.0825   0.0823   0.1437  -0.0027  -0.0403  -0.0230   0.00    0.0
2026/01/15 00:51:00.000   67.857350960   20.968466504   391.3270   6  16   0.0821   0.0819   0.1427  -0.0034  -0.0397  -0.0236   0.00    0.0
2026/01/15 00:51:30.000   67.857350987   20.968466532   391.3289   6  16   0.0817   0.0815   0.1417  -0.0039  -0.0391  -0.0242   0.00    0.0
2026/01/15 00:52:00.000   67.857350975   20.968466521   391.3326   6  16   0.0813   0.0811   0.1407  -0.0044  -0.0386  -0.0246   0.00    0.0
2026/01/15 00:52:30.000   67.857350954   20.968466489   391.3352   6  16   0.0809   0.0807   0.1398  -0.0049  -0.0381  -0.0250   0.00    0.0
2026/01/15 00:53:00.000   67.857350944   20.968466509   391.3349   6  16   0.0805   0.0804   0.1389  -0.0053  -0.0375  -0.0255   0.00    0.0
2026/01/15 00:53:30.000   67.857350925   20.968466555   391.3356   6  16   0.0801   0.0800   0.1379  -0.0057  -0.0370  -0.0260   0.00    0.0
2026/01/15 00:54:00.000   67.857350946   20.968466614   391.3352   6  16   0.0797   0.0796   0.1369  -0.0060  -0.0364  -0.0265   0.00    0.0
2026/01/15 00:54:30.000   67.857350951   20.968466539   391.3361   6  16   0.0793   0.0793   0.1359  -0.0063  -0.0358  -0.0271   0.00    0.0
2026/01/15 00:55:00.000   67.857350940   20.968466560   391.3387   6  16   0.0789   0.0789   0.1348  -0.0065  -0.0352  -0.0276   0.00    0.0
2026/01/15 00:55:30.000   67.857350950   20.968466509   391.3391   6  16   0.0785   0.0785   0.1338  -0.0068  -0.0347  -0.0281   0.00    0.0
2026/01/15 00:56:00.000   67.857350953   20.968466449   391.3397   6  16   0.0781   0.0782   0.1328  -0.0070  -0.0341  -0.0286   0.00    0.0
2026/01/15 00:56:30.000   67.857350951   20.968466275   391.3395   6  16   0.0777   0.0778   0.1319  -0.0073  -0.0336  -0.0290   0.00    0.0
2026/01/15 00:57:00.000   67.857350976   20.968466255   391.3347   6  15   0.0774   0.0775   0.1310  -0.0076  -0.0331  -0.0294   0.00    0.0
2026/01/15 00:57:30.000   67.857350996   20.968466231   391.3326   6  14   0.0771   0.0772   0.1302  -0.0078  -0.0326  -0.0297   0.00    0.0
2026/01/15 00:58:00.000   67.857351016   20.968466315   391.3296   6  14   0.0767   0.0769   0.1294  -0.0081  -0.0320  -0.0301   0.00    0.0
2026/01/15 00:58:30.000   67.857351004   20.968466282   391.3317   6  14   0.0764   0.0766   0.1285  -0.0083  -0.0315  -0.0305   0.00    0.0
2026/01/15 00:59:00.000   67.857351025   20.968466274   391.3297   6  14   0.0761   0.0763   0.1276  -0.0085  -0.0309  -0.0310   0.00    0.0
2026/01/15 00:59:30.000   67.857351013   20.968466269   391.3293   6  14   0.0757   0.0760   0.1267  -0.0086  -0.0303  -0.0315   0.00    0.0
2026/01/15 01:00:00.000   67.857351021   20.968466182   391.3247   6  14   0.0755   0.0756   0.1259  -0.0088  -0.0297  -0.0317   0.00    0.0
2026/01/15 01:00:30.000   67.857351025   20.968466153   391.3209   6  14   0.0752   0.0754   0.1251  -0.0089  -0.0291  -0.0318   0.00    0.0
2026/01/15 01:01:00.000   67.857351029   20.968466197   391.3178   6  14   0.0750   0.0751   0.1243  -0.0090  -0.0285  -0.0319   0.00    0.0
2026/01/15 01:01:30.000   67.857351041   20.968466146   391.3128   6  14   0.0747   0.0748   0.1236  -0.0091  -0.0280  -0.0321   0.00    0.0
2026/01/15 01:02:00.000   67.857351045   20.968466133   391.3102   6  14   0.0745   0.0745   0.1229  -0.0092  -0.0274  -0.0321   0.00    0.0
2026/01/15 01:02:30.000   67.857351064   20.968466086   391.3073   6  14   0.0743   0.0742   0.1222  -0.0093  -0.0269  -0.0322   0.00    0.0
2026/01/15 01:03:00.000   67.857351077   20.968466042   391.3061   6  15   0.0740   0.0739   0.1215  -0.0095  -0.0263  -0.0323   0.00    0.0
2026/01/15 01:03:30.000   67.857351098   20.968465955   391.3036   6  15   0.0738   0.0736   0.1208  -0.0096  -0.0257  -0.0324   0.00    0.0
2026/01/15 01:04:00.000   67.857351100   20.968465969   391.3017   6  15   0.0736   0.0733   0.1200  -0.0097  -0.0251  -0.0325   0.00    0.0
2026/01/15 01:04:30.000   67.857351071   20.968465910   391.3046   6  15   0.0733   0.0731   0.1192  -0.0098  -0.0245  -0.0326   0.00    0.0
2026/01/15 01:05:00.000   67.857351087   20.968465890   391.3013   6  15   0.0731   0.0728   0.1185  -0.0099  -0.0238  -0.0328   0.00    0.0
2026/01/15 01:05:30.000   67.857351106   20.968465860   391.2981   6  15   0.0729   0.0725   0.1177  -0.0100  -0.0232  -0.0329   0.00    0.0
2026/01/15 01:06:00.000   67.857351124   20.968465918   391.2942   6  15   0.0727   0.0722   0.1170  -0.0101  -0.0225  -0.0330   0.00    0.0
2026/01/15 01:06:30.000   67.857351116   20.968465895   391.2924   6  15   0.0724   0.0720   0.1162  -0.0102  -0.0219  -0.0331   0.00    0.0
2026/01/15 01:07:00.000   67.857351134   20.968465800   391.2902   6  15   0.0722   0.0717   0.1156  -0.0103  -0.0213  -0.0332   0.00    0.0
2026/01/15 01:07:30.000   67.857351123   20.968465765   391.2899   6  15   0.0720   0.0714   0.1149  -0.0104  -0.0208  -0.0332   0.00    0.0
2026/01/15 01:08:00.000   67.857351108   20.968465709   391.2908   6  15   0.0718   0.0712   0.1143  -0.0105  -0.0202  -0.0333   0.00    0.0
2026/01/15 01:08:30.000   67.857351126   20.968465689   391.2880   6  15   0.0716   0.0709   0.1136  -0.0106  -0.0196  -0.0334   0.00    0.0
2026/01/15 01:09:00.000   67.857351114   20.968465692   391.2878   6  15   0.0714   0.0707   0.1128  -0.0107  -0.0189  -0.0335   0.00    0.0
2026/01/15 01:09:30.000   67.857351089   20.968465704   391.2871   6  15   0.0712   0.0704   0.1121  -0.0108  -0.0183  -0.0336   0.00    0.0
2026/01/15 01:10:00.000   67.857351074   20.968465665   391.2873   6  15   0.0709   0.0702   0.1114  -0.0109  -0.0176  -0.0338   0.00    0.0
2026/01/15 01:10:30.000   67.857351067   20.968465596   391.2890   6  15   0.0707   0.0699   0.1106  -0.0109  -0.0169  -0.0339   0.00    0.0
2026/01/15 01:11:00.000   67.857351058   20.968465598   391.2885   6  15   0.0705   0.0697   0.1099  -0.0110  -0.0163  -0.0340   0.00    0.0
2026/01/15 01:11:30.000   67.857351069   20.968465548   391.2863   6  15   0.0703   0.0694   0.1093  -0.0111  -0.0156  -0.0341   0.00    0.0
2026/01/15 01:12:00.000   67.857351105   20.968465546   391.2807   6  15   0.0701   0.0692   0.1086  -0.0112  -0.0150  -0.0342   0.00    0.0
2026/01/15 01:12:30.000   67.857351078   20.968465501   391.2817   6  15   0.0699   0.0689   0.1080  -0.0113  -0.0144  -0.0342   0.00    0.0
2026/01/15 01:13:00.000   67.857351090   20.968465525   391.2773   6  15   0.0697   0.0687   0.1074  -0.0114  -0.0138  -0.0343   0.00    0.0
2026/01/15 01:13:30.000   67.857351073   20.968465465   391.2773   6  15   0.0695   0.0685   0.1067  -0.0115  -0.0131  -0.0344   0.00    0.0
2026/01/15 01:14:00.000   67.857351089   20.968465486   391.2750   6  15   0.0693   0.0682   0.1060  -0.0116  -0.0124  -0.0345   0.00    0.0
2026/01/15 01:14:30.000   67.857351102   20.968465434   391.2727   6  15   0.0691   0.0680   0.1054  -0.0117  -0.0116  -0.0346   0.00    0.0
2026/01/15 01:15:00.000   67.857351119   20.968465426   391.2700   6  15   0.0689   0.0678   0.1047  -0.0118  -0.0108  -0.0347   0.00    0.0
2026/01/15 01:15:30.000   67.857351124   20.968465391   391.2672   6  15   0.0687   0.0676   0.1040  -0.0118  -0.0100  -0.0349   0.00    0.0
2026/01/15 01:16:00.000   67.857351118   20.968465407   391.2670   6  15   0.0685   0.0673   0.1033  -0.0119  -0.0092  -0.0350   0.00    0.0
2026/01/15 01:16:30.000   67.857351115   20.968465441   391.2648   6  15   0.0683   0.0671   0.1027  -0.0120  -0.0083  -0.0350   0.00    0.0
2026/01/15 01:17:00.000   67.857351129   20.968465409   391.2610   6  15   0.0681   0.0669   0.1021  -0.0121  -0.0074  -0.0351   0.00    0.0
2026/01/15 01:17:30.000   67.857351112   20.968465408   391.2590   6  15   0.0679   0.0667   0.1015  -0.0122  -0.0065  -0.0351   0.00    0.0
2026/01/15 01:18:00.000   67.857351117   20.968465390   391.2584   6  15   0.0677   0.0665   0.1010  -0.0123  -0.0054  -0.0352   0.00    0.0
2026/01/15 01:18:30.000   67.857351112   20.968465435   391.2579   6  15   0.0675   0.0663   0.1003  -0.0124  -0.0040  -0.0353   0.00    0.0
2026/01/15 01:19:00.000   67.857351101   20.968465347   391.2572   6  15   0.0673   0.0661   0.0997  -0.0125  -0.0018  -0.0354   0.00    0.0
2026/01/15 01:19:30.000   67.857351107   20.968465397   391.2553   6  15   0.0671   0.0659   0.0990  -0.0126   0.0031  -0.0355   0.00    0.0
2026/01/15 01:20:00.000   67.857351111   20.968465386   391.2528   6  15   0.0669   0.0656   0.0984  -0.0126   0.0047  -0.0356   0.00    0.0
2026/01/15 01:20:30.000   67.857351108   20.968465333   391.2496   6  17   0.0667   0.0654   0.0977  -0.0127   0.0059  -0.0356   0.00    0.0
2026/01/15 01:21:00.000   67.857351110   20.968465349   391.2467   6  17   0.0665   0.0652   0.0971  -0.0128   0.0067  -0.0356   0.00    0.0
2026/01/15 01:21:30.000   67.857351122   20.968465314   391.2455   6  17   0.0663   0.0650   0.0965  -0.0128   0.0075  -0.0356   0.00    0.0
2026/01/15 01:22:00.000   67.857351137   20.968465228   391.2424   6  17   0.0661   0.0648   0.0959  -0.0129   0.0081  -0.0356   0.00    0.0
2026/01/15 01:22:30.000   67.857351160   20.968465152   391.2392   6  17   0.0659   0.0646   0.0954  -0.0130   0.0086  -0.0356   0.00    0.0
2026/01/15 01:23:00.000   67.857351160   20.968465109   391.2370   6  17   0.0656   0.0644   0.0948  -0.0131   0.0091  -0.0356   0.00    0.0
2026/01/15 01:23:30.000   67.857351172   20.968465115   391.2340   6  17   0.0654   0.0642   0.0942  -0.0131   0.0096  -0.0356   0.00    0.0
2026/01/15 01:24:00.000   67.857351186   20.968465036   391.2317   6  17   0.0652   0.0639   0.0936  -0.0132   0.0100  -0.0356   0.00    0.0
2026/01/15 01:24:30.000   67.857351198   20.968464985   391.2285   6  17   0.0650   0.0637   0.0930  -0.0133   0.0104  -0.0357   0.00    0.0
2026/01/15 01:25:00.000   67.857351199   20.968464909   391.2275   6  16   0.0648   0.0635   0.0924  -0.0133   0.0108  -0.0357   0.00    0.0
2026/01/15 01:25:30.000   67.857351191   20.968464871   391.2262   6  16   0.0646   0.0633   0.0918  -0.0134   0.0111  -0.0358   0.00    0.0
2026/01/15 01:26:00.000   67.857351169   20.968464750   391.2278   6  16   0.0644   0.0631   0.0912  -0.0134   0.0114  -0.0358   0.00    0.0
2026/01/15 01:26:30.000   67.857351150   20.968464732   391.2281   6  16   0.0642   0.0629   0.0906  -0.0135   0.0117  -0.0358   0.00    0.0
2026/01/15 01:27:00.000   67.857351148   20.968464698   391.2275   6  16   0.0640   0.0627   0.0901  -0.0136   0.0119  -0.0358   0.00    0.0
2026/01/15 01:27:30.000   67.857351148   20.968464719   391.2271   6  16   0.0638   0.0626   0.0896  -0.0136   0.0122  -0.0358   0.00    0.0
2026/01/15 01:28:00.000   67.857351157   20.968464661   391.2262   6  16   0.0636   0.0624   0.0891  -0.0137   0.0124  -0.0358   0.00    0.0
2026/01/15 01:28:30.000   67.857351164   20.968464629   391.2237   6  16   0.0634   0.0622   0.0886  -0.0138   0.0126  -0.0358   0.00    0.0
2026/01/15 01:29:00.000   67.857351146   20.968464572   391.2253   6  16   0.0632   0.0620   0.0880  -0.0139   0.0129  -0.0359   0.00    0.0
2026/01/15 01:29:30.000   67.857351130   20.968464525   391.2255   6  16   0.0630   0.0618   0.0875  -0.0140   0.0131  -0.0359   0.00    0.0
2026/01/15 01:30:00.000   67.857351130   20.968464499   391.2247   6  16   0.0628   0.0616   0.0869  -0.0140   0.0133  -0.0360   0.00    0.0
2026/01/15 01:30:30.000   67.857351149   20.968464455   391.2215   6  16   0.0626   0.0614   0.0863  -0.0141   0.0135  -0.0360   0.00    0.0
2026/01/15 01:31:00.000   67.857351158   20.968464480   391.2179   6  16   0.0624   0.0612   0.0858  -0.0142   0.0137  -0.0360   0.00    0.0
2026/01/15 01:31:30.000   67.857351158   20.968464426   391.2169   6  16   0.0622   0.0610   0.0853  -0.0143   0.0138  -0.0360   0.00    0.0
2026/01/15 01:32:00.000   67.857351157   20.968464375   391.2164   6  16   0.0621   0.0609   0.0848  -0.0144   0.0140  -0.0360   0.00    0.0
2026/01/15 01:32:30.000   67.857351157   20.968464380   391.2144   6  16   0.0619   0.0607   0.0844  -0.0145   0.0141  -0.0360   0.00    0.0
2026/01/15 01:33:00.000   67.857351169   20.968464362   391.2106   6  16   0.0617   0.0605   0.0839  -0.0146   0.0142  -0.0360   0.00    0.0
2026/01/15 01:33:30.000   67.857351185   20.968464340   391.2081   6  16   0.0615   0.0603   0.0834  -0.0147   0.0144  -0.0360   0.00    0.0
2026/01/15 01:34:00.000   67.857351180   20.968464284   391.2065   6  16   0.0613   0.0602   0.0829  -0.0148   0.0145  -0.0360   0.00    0.0
2026/01/15 01:34:30.000   67.857351183   20.968464347   391.2046   6  16   0.0611   0.0600   0.0824  -0.0149   0.0146  -0.0360   0.00    0.0
2026/01/15 01:35:00.000   67.857351157   20.968464321   391.2055   6  16   0.0609   0.0598   0.0819  -0.0150   0.0147  -0.0361   0.00    0.0
2026/01/15 01:35:30.000   67.857351150   20.968464398   391.2045   6  16   0.0607   0.0596   0.0813  -0.0151   0.0148  -0.0361   0.00    0.0
2026/01/15 01:36:00.000   67.857351148   20.968464353   391.2037   6  16   0.0605   0.0595   0.0809  -0.0152   0.0149  -0.0361   0.00    0.0
2026/01/15 01:36:30.000   67.857351144   20.968464303   391.2024   6  16   0.0604   0.0593   0.0804  -0.0153   0.0150  -0.0361   0.00    0.0
2026/01/15 01:37:00.000   67.857351159   20.968464287   391.1985   6  16   0.0602   0.0591   0.0799  -0.0154   0.0151  -0.0360   0.00    0.0
2026/01/15 01:37:30.000   67.857351142   20.968464236   391.1986   6  16   0.0600   0.0589   0.0795  -0.0155   0.0152  -0.0360   0.00    0.0
2026/01/15 01:38:00.000   67.857351136   20.968464268   391.1987   6  16   0.0598   0.0588   0.0791  -0.0156   0.0152  -0.0360   0.00    0.0
2026/01/15 01:38:30.000   67.857351136   20.968464242   391.1968   6  16   0.0596   0.0586   0.0786  -0.0156   0.0153  -0.0360   0.00    0.0
2026/01/15 01:39:00.000   67.857351143   20.968464176   391.1951   6  16   0.0594   0.0584   0.0782  -0.0158   0.0154  -0.0360   0.00    0.0
2026/01/15 01:39:30.000   67.857351144   20.968464091   391.1930   6  16   0.0593   0.0583   0.0777  -0.0159   0.0154  -0.0359   0.00    0.0
2026/01/15 01:40:00.000   67.857351158   20.968464110   391.1898   6  16   0.0591   0.0581   0.0772  -0.0160   0.0155  -0.0359   0.00    0.0
2026/01/15 01:40:30.000   67.857351160   20.968464047   391.1883   6  16   0.0589   0.0579   0.0767  -0.0161   0.0156  -0.0359   0.00    0.0
2026/01/15 01:41:00.000   67.857351141   20.968464031   391.1871   6  16   0.0587   0.0578   0.0763  -0.0162   0.0156  -0.0359   0.00    0.0
2026/01/15 01:41:30.000   67.857351125   20.968464000   391.1868   6  16   0.0585   0.0576   0.0758  -0.0163   0.0156  -0.0359   0.00    0.0
2026/01/15 01:42:00.000   67.857351137   20.968464005   391.1840   6  16   0.0583   0.0575   0.0754  -0.0164   0.0157  -0.0358   0.00    0.0
2026/01/15 01:42:30.000   67.857351140   20.968464017   391.1826   6  16   0.0581   0.0573   0.0750  -0.0164   0.0157  -0.0358   0.00    0.0
2026/01/15 01:43:00.000   67.857351143   20.968464006   391.1818   6  16   0.0580   0.0571   0.0746  -0.0165   0.0158  -0.0357   0.00    0.0
2026/01/15 01:43:30.000   67.857351139   20.968464038   391.1798   6  16   0.0578   0.0570   0.0742  -0.0166   0.0158  -0.0357   0.00    0.0
2026/01/15 01:44:00.000   67.857351126   20.968464063   391.1784   6  16   0.0576   0.0568   0.0737  -0.0167   0.0158  -0.0357   0.00    0.0
2026/01/15 01:44:30.000   67.857351137   20.968464058   391.1762   6  16   0.0574   0.0567   0.0733  -0.0168   0.0158  -0.0356   0.00    0.0
2026/01/15 01:45:00.000   67.857351145   20.968464042   391.1735   6  16   0.0572   0.0565   0.0728  -0.0169   0.0159  -0.0356   0.00    0.0
2026/01/15 01:45:30.000   67.857351150   20.968464001   391.1711   6  16   0.0570   0.0563   0.0724  -0.0170   0.0159  -0.0356   0.00    0.0
2026/01/15 01:46:00.000   67.857351157   20.968463947   391.1694   6  16   0.0568   0.0562   0.0720  -0.0171   0.0159  -0.0355   0.00    0.0
2026/01/15 01:46:30.000   67.857351159   20.968463888   391.1674   6  16   0.0567   0.0560   0.0716  -0.0172   0.0159  -0.0355   0.00    0.0
2026/01/15 01:47:00.000   67.857351155   20.968463911   391.1656   6  16   0.0565   0.0559   0.0712  -0.0173   0.0159  -0.0354   0.00    0.0
2026/01/15 01:47:30.000   67.857351162   20.968463900   391.1635   6  16   0.0563   0.0557   0.0708  -0.0174   0.0159  -0.0354   0.00    0.0
2026/01/15 01:48:00.000   67.857351160   20.968463895   391.1625   6  16   0.0561   0.0556   0.0705  -0.0175   0.0159  -0.0353   0.00    0.0
2026/01/15 01:48:30.000   67.857351169   20.968463831   391.1594   6  16   0.0560   0.0554   0.0701  -0.0176   0.0159  -0.0353   0.00    0.0
2026/01/15 01:49:00.000   67.857351174   20.968463800   391.1571   6  16   0.0558   0.0553   0.0697  -0.0177   0.0160  -0.0352   0.00    0.0
2026/01/15 01:49:30.000   67.857351173   20.968463793   391.1546   6  17   0.0556   0.0551   0.0692  -0.0177   0.0159  -0.0351   0.00    0.0
2026/01/15 01:50:00.000   67.857351181   20.968463766   391.1520   6  17   0.0554   0.0550   0.0688  -0.0178   0.0159  -0.0351   0.00    0.0
2026/01/15 01:50:30.000   67.857351181   20.968463775   391.1494   6  17   0.0552   0.0548   0.0684  -0.0179   0.0159  -0.0350   0.00    0.0
2026/01/15 01:51:00.000   67.857351190   20.968463752   391.1474   6  17   0.0550   0.0547   0.0680  -0.0180   0.0159  -0.0349   0.00    0.0
2026/01/15 01:51:30.000   67.857351200   20.968463728   391.1453   6  17   0.0548   0.0545   0.0676  -0.0181   0.0159  -0.0349   0.00    0.0
2026/01/15 01:52:00.000   67.857351214   20.968463664   391.1436   6  17   0.0546   0.0544   0.0673  -0.0182   0.0159  -0.0348   0.00    0.0
2026/01/15 01:52:30.000   67.857351206   20.968463626   391.1439   6  17   0.0545   0.0542   0.0669  -0.0182   0.0159  -0.0347   0.00    0.0
2026/01/15 01:53:00.000   67.857351213   20.968463620   391.1418   6  17   0.0543   0.0541   0.0666  -0.0183   0.0159  -0.0346   0.00    0.0
2026/01/15 01:53:30.000   67.857351214   20.968463582   391.1398   6  17   0.0541   0.0539   0.0662  -0.0184   0.0159  -0.0345   0.00    0.0
2026/01/15 01:54:00.000   67.857351232   20.968463566   391.1359   6  17   0.0539   0.0538   0.0658  -0.0184   0.0158  -0.0345   0.00    0.0
2026/01/15 01:54:30.000   67.857351239   20.968463488   391.1328   6  17   0.0537   0.0536   0.0654  -0.0185   0.0158  -0.0344   0.00    0.0
2026/01/15 01:55:00.000   67.857351259   20.968463508   391.1296   6  17   0.0535   0.0535   0.0650  -0.0186   0.0158  -0.0343   0.00    0.0
2026/01/15 01:55:30.000   67.857351272   20.968463481   391.1270   6  17   0.0533   0.0533   0.0646  -0.0187   0.0158  -0.0342   0.00    0.0
2026/01/15 01:56:00.000   67.857351285   20.968463454   391.1238   6  17   0.0531   0.0532   0.0643  -0.0188   0.0157  -0.0341   0.00    0.0
2026/01/15 01:56:30.000   67.857351291   20.968463468   391.1220   6  17   0.0529   0.0530   0.0639  -0.0188   0.0157  -0.0341   0.00    0.0
2026/01/15 01:57:00.000   67.857351305   20.968463456   391.1200   6  17   0.0528   0.0529   0.0636  -0.0189   0.0157  -0.0340   0.00    0.0
2026/01/15 01:57:30.000   67.857351304   20.968463465   391.1175   6  18   0.0526   0.0528   0.0632  -0.0189   0.0156  -0.0339   0.00    0.0
2026/01/15 01:58:00.000   67.857351309   20.968463435   391.1158   6  18   0.0524   0.0526   0.0629  -0.0190   0.0156  -0.0338   0.00    0.0
2026/01/15 01:58:30.000   67.857351318   20.968463398   391.1130   6  18   0.0522   0.0525   0.0626  -0.0190   0.0155  -0.0337   0.00    0.0
2026/01/15 01:59:00.000   67.857351316   20.968463384   391.1109   6  18   0.0520   0.0523   0.0622  -0.0191   0.0155  -0.0336   0.00    0.0
2026/01/15 01:59:30.000   67.857351326   20.968463369   391.1074   6  18   0.0518   0.0522   0.0618  -0.0191   0.0154  -0.0335   0.00    0.0
2026/01/15 02:00:00.000   67.857351323   20.968463361   391.1059   6  18   0.0517   0.0520   0.0615  -0.0192   0.0154  -0.0334   0.00    0.0
2026/01/15 02:00:30.000   67.857351352   20.968463291   391.1021   6  18   0.0515   0.0519   0.0611  -0.0192   0.0153  -0.0333   0.00    0.0
2026/01/15 02:01:00.000   67.857351370   20.968463251   391.0989   6  18   0.0513   0.0517   0.0607  -0.0193   0.0153  -0.0332   0.00    0.0
2026/01/15 02:01:30.000   67.857351381   20.968463231   391.0965   6  18   0.0511   0.0516   0.0604  -0.0193   0.0152  -0.0331   0.00    0.0
2026/01/15 02:02:00.000   67.857351390   20.968463201   391.0939   6  18   0.0509   0.0514   0.0601  -0.0193   0.0151  -0.0330   0.00    0.0
2026/01/15 02:02:30.000   67.857351404   20.968463193   391.0908   6  19   0.0508   0.0513   0.0598  -0.0194   0.0151  -0.0329   0.00    0.0
2026/01/15 02:03:00.000   67.857351415   20.968463181   391.0877   6  19   0.0506   0.0511   0.0595  -0.0194   0.0150  -0.0328   0.00    0.0
2026/01/15 02:03:30.000   67.857351418   20.968463176   391.0850   6  19   0.0504   0.0510   0.0592  -0.0194   0.0150  -0.0327   0.00    0.0
2026/01/15 02:04:00.000   67.857351423   20.968463178   391.0817   6  19   0.0502   0.0508   0.0589  -0.0195   0.0149  -0.0326   0.00    0.0
2026/01/15 02:04:30.000   67.857351443   20.968463150   391.0785   6  19   0.0500   0.0507   0.0585  -0.0195   0.0149  -0.0325   0.00    0.0
2026/01/15 02:05:00.000   67.857351436   20.968463151   391.0772   6  19   0.0499   0.0505   0.0582  -0.0196   0.0148  -0.0324   0.00    0.0
2026/01/15 02:05:30.000   67.857351436   20.968463163   391.0749   6  19   0.0497   0.0504   0.0579  -0.0196   0.0147  -0.0324   0.00    0.0
2026/01/15 02:06:00.000   67.857351427   20.968463174   391.0740   6  19   0.0495   0.0502   0.0575  -0.0196   0.0147  -0.0323   0.00    0.0
2026/01/15 02:06:30.000   67.857351426   20.968463166   391.0715   6  19   0.0493   0.0501   0.0572  -0.0197   0.0146  -0.0322   0.00    0.0
2026/01/15 02:07:00.000   67.857351416   20.968463162   391.0701   6  19   0.0492   0.0499   0.0570  -0.0197   0.0145  -0.0321   0.00    0.0
2026/01/15 02:07:30.000   67.857351421   20.968463135   391.0681   6  19   0.0490   0.0498   0.0567  -0.0197   0.0145  -0.0320   0.00    0.0
2026/01/15 02:08:00.000   67.857351423   20.968463106   391.0661   6  19   0.0488   0.0496   0.0564  -0.0197   0.0144  -0.0319   0.00    0.0
2026/01/15 02:08:30.000   67.857351434   20.968463077   391.0637   6  20   0.0487   0.0495   0.0561  -0.0197   0.0143  -0.0318   0.00    0.0
2026/01/15 02:09:00.000   67.857351434   20.968463082   391.0619   6  20   0.0485   0.0493   0.0558  -0.0198   0.0143  -0.0317   0.00    0.0
2026/01/15 02:09:30.000   67.857351433   20.968463029   391.0593   6  20   0.0483   0.0492   0.0555  -0.0198   0.0142  -0.0316   0.00    0.0
2026/01/15 02:10:00.000   67.857351438   20.968463007   391.0563   6  20   0.0481   0.0490   0.0552  -0.0198   0.0142  -0.0315   0.00    0.0
2026/01/15 02:10:30.000   67.857351433   20.968462992   391.0529   6  20   0.0480   0.0489   0.0549  -0.0199   0.0141  -0.0314   0.00    0.0
2026/01/15 02:11:00.000   67.857351425   20.968463003   391.0504   6  20   0.0478   0.0487   0.0546  -0.0199   0.0140  -0.0313   0.00    0.0
2026/01/15 02:11:30.000   67.857351440   20.968462984   391.0474   6  20   0.0477   0.0486   0.0544  -0.0200   0.0140  -0.0312   0.00    0.0
2026/01/15 02:12:00.000   67.857351453   20.968462947   391.0462   6  19   0.0475   0.0485   0.0542  -0.0200   0.0139  -0.0311   0.00    0.0
2026/01/15 02:12:30.000   67.857351457   20.968462909   391.0459   6  19   0.0474   0.0483   0.0540  -0.0201   0.0139  -0.0311   0.00    0.0
2026/01/15 02:13:00.000   67.857351463   20.968462866   391.0460   6  19   0.0472   0.0482   0.0539  -0.0201   0.0138  -0.0310   0.00    0.0
2026/01/15 02:13:30.000   67.857351472   20.968462881   391.0450   6  19   0.0471   0.0481   0.0537  -0.0201   0.0138  -0.0309   0.00    0.0
2026/01/15 02:14:00.000   67.857351476   20.968462877   391.0439   6  19   0.0469   0.0479   0.0535  -0.0202   0.0137  -0.0308   0.00    0.0
2026/01/15 02:14:30.000   67.857351478   20.968462868   391.0427   6  19   0.0468   0.0478   0.0533  -0.0202   0.0137  -0.0307   0.00    0.0
2026/01/15 02:15:00.000   67.857351478   20.968462890   391.0412   6  19   0.0466   0.0477   0.0531  -0.0203   0.0136  -0.0306   0.00    0.0
2026/01/15 02:15:30.000   67.857351483   20.968462855   391.0398   6  19   0.0464   0.0475   0.0530  -0.0203   0.0136  -0.0305   0.00    0.0
2026/01/15 02:16:00.000   67.857351479   20.968462847   391.0387   6  19   0.0463   0.0474   0.0528  -0.0204   0.0135  -0.0304   0.00    0.0
2026/01/15 02:16:30.000   67.857351490   20.968462804   391.0370   6  19   0.0461   0.0472   0.0526  -0.0204   0.0135  -0.0303   0.00    0.0
2026/01/15 02:17:00.000   67.857351502   20.968462784   391.0354   6  19   0.0460   0.0471   0.0524  -0.0204   0.0134  -0.0302   0.00    0.0
2026/01/15 02:17:30.000   67.857351516   20.968462801   391.0340   6  19   0.0459   0.0470   0.0523  -0.0204   0.0134  -0.0302   0.00    0.0
2026/01/15 02:18:00.000   67.857351520   20.968462804   391.0333   6  19   0.0457   0.0469   0.0521  -0.0205   0.0133  -0.0301   0.00    0.0
2026/01/15 02:18:30.000   67.857351527   20.968462771   391.0319   6  19   0.0456   0.0467   0.0520  -0.0205   0.0133  -0.0300   0.00    0.0
2026/01/15 02:19:00.000   67.857351531   20.968462779   391.0306   6  19   0.0454   0.0466   0.0518  -0.0205   0.0132  -0.0299   0.00    0.0
2026/01/15 02:19:30.000   67.857351541   20.968462797   391.0283   6  19   0.0453   0.0465   0.0516  -0.0206   0.0132  -0.0298   0.00    0.0
2026/01/15 02:20:00.000   67.857351544   20.968462785   391.0270   6  19   0.0451   0.0463   0.0514  -0.0206   0.0131  -0.0297   0.00    0.0
2026/01/15 02:20:30.000   67.857351545   20.968462780   391.0257   6  19   0.0450   0.0462   0.0512  -0.0206   0.0131  -0.0296   0.00    0.0
2026/01/15 02:21:00.000   67.857351542   20.968462762   391.0245   6  19   0.0448   0.0461   0.0511  -0.0207   0.0131  -0.0295   0.00    0.0
2026/01/15 02:21:30.000   67.857351537   20.968462741   391.0240   6  19   0.0447   0.0459   0.0509  -0.0207   0.0130  -0.0295   0.00    0.0
2026/01/15 02:22:00.000   67.857351555   20.968462728   391.0219   6  19   0.0446   0.0458   0.0507  -0.0207   0.0130  -0.0294   0.00    0.0
2026/01/15 02:22:30.000   67.857351567   20.968462717   391.0200   6  19   0.0444   0.0457   0.0506  -0.0207   0.0129  -0.0293   0.00    0.0
2026/01/15 02:23:00.000   67.857351573   20.968462725   391.0179   6  19   0.0443   0.0456   0.0504  -0.0208   0.0129  -0.0292   0.00    0.0
2026/01/15 02:23:30.000   67.857351577   20.968462726   391.0162   6  19   0.0442   0.0454   0.0503  -0.0208   0.0129  -0.0291   0.00    0.0
2026/01/15 02:24:00.000   67.857351585   20.968462703   391.0145   6  19   0.0440   0.0453   0.0501  -0.0208   0.0128  -0.0290   0.00    0.0
2026/01/15 02:24:30.000   67.857351586   20.968462675   391.0135   6  19   0.0439   0.0452   0.0499  -0.0208   0.0128  -0.0289   0.00    0.0
2026/01/15 02:25:00.000   67.857351587   20.968462650   391.0126   6  19   0.0437   0.0450   0.0497  -0.0209   0.0128  -0.0289   0.00    0.0
2026/01/15 02:25:30.000   67.857351586   20.968462645   391.0115   6  19   0.0436   0.0449   0.0496  -0.0209   0.0127  -0.0288   0.00    0.0
2026/01/15 02:26:00.000   67.857351590   20.968462641   391.0103   6  19   0.0435   0.0448   0.0494  -0.0209   0.0127  -0.0287   0.00    0.0
2026/01/15 02:26:30.000   67.857351602   20.968462602   391.0084   6  19   0.0433   0.0446   0.0492  -0.0209   0.0126  -0.0286   0.00    0.0
2026/01/15 02:27:00.000   67.857351606   20.968462582   391.0071   6  17   0.0432   0.0445   0.0491  -0.0209   0.0126  -0.0285   0.00    0.0
2026/01/15 02:27:30.000   67.857351607   20.968462591   391.0061   6  16   0.0431   0.0444   0.0489  -0.0210   0.0126  -0.0285   0.00    0.0
2026/01/15 02:28:00.000   67.857351606   20.968462568   391.0049   6  16   0.0430   0.0443   0.0488  -0.0210   0.0125  -0.0284   0.00    0.0
2026/01/15 02:28:30.000   67.857351600   20.968462553   391.0043   6  16   0.0429   0.0442   0.0487  -0.0210   0.0125  -0.0284   0.00    0.0
2026/01/15 02:29:00.000   67.857351602   20.968462554   391.0028   6  16   0.0427   0.0440   0.0485  -0.0210   0.0124  -0.0283   0.00    0.0
2026/01/15 02:29:30.000   67.857351602   20.968462536   391.0025   6  15   0.0426   0.0439   0.0484  -0.0210   0.0124  -0.0282   0.00    0.0
2026/01/15 02:30:00.000   67.857351605   20.968462528   391.0022   6  16   0.0425   0.0438   0.0483  -0.0210   0.0124  -0.0281   0.00    0.0
2026/01/15 02:30:30.000   67.857351618   20.968462509   391.0011   6  16   0.0424   0.0437   0.0481  -0.0210   0.0124  -0.0281   0.00    0.0
2026/01/15 02:31:00.000   67.857351629   20.968462503   391.0003   6  16   0.0422   0.0435   0.0480  -0.0210   0.0124  -0.0280   0.00    0.0
2026/01/15 02:31:30.000   67.857351643   20.968462484   390.9995   6  16   0.0421   0.0434   0.0479  -0.0210   0.0124  -0.0279   0.00    0.0
2026/01/15 02:32:00.000   67.857351648   20.968462467   390.9990   6  16   0.0420   0.0433   0.0478  -0.0210   0.0124  -0.0278   0.00    0.0
2026/01/15 02:32:30.000   67.857351649   20.968462458   390.9985   6  16   0.0419   0.0432   0.0477  -0.0210   0.0124  -0.0278   0.00    0.0
2026/01/15 02:33:00.000   67.857351654   20.968462446   390.9980   6  16   0.0418   0.0430   0.0476  -0.0210   0.0124  -0.0277   0.00    0.0
2026/01/15 02:33:30.000   67.857351659   20.968462407   390.9975   6  16   0.0417   0.0429   0.0475  -0.0210   0.0124  -0.0276   0.00    0.0
2026/01/15 02:34:00.000   67.857351662   20.968462404   390.9976   6  16   0.0416   0.0428   0.0473  -0.0210   0.0123  -0.0275   0.00    0.0
2026/01/15 02:34:30.000   67.857351677   20.968462363   390.9965   6  16   0.0415   0.0427   0.0472  -0.0210   0.0123  -0.0275   0.00    0.0
2026/01/15 02:35:00.000   67.857351685   20.968462317   390.9961   6  16   0.0413   0.0425   0.0471  -0.0211   0.0123  -0.0274   0.00    0.0
2026/01/15 02:35:30.000   67.857351697   20.968462292   390.9950   6  16   0.0412   0.0424   0.0470  -0.0211   0.0123  -0.0273   0.00    0.0
2026/01/15 02:36:00.000   67.857351705   20.968462290   390.9942   6  16   0.0411   0.0423   0.0468  -0.0211   0.0123  -0.0272   0.00    0.0
2026/01/15 02:36:30.000   67.857351704   20.968462276   390.9941   6  16   0.0410   0.0422   0.0467  -0.0211   0.0123  -0.0272   0.00    0.0
2026/01/15 02:37:00.000   67.857351711   20.968462273   390.9935   6  16   0.0409   0.0421   0.0466  -0.0210   0.0123  -0.0271   0.00    0.0
2026/01/15 02:37:30.000   67.857351719   20.968462250   390.9932   6  16   0.0408   0.0419   0.0465  -0.0210   0.0123  -0.0270   0.00    0.0
2026/01/15 02:38:00.000   67.857351735   20.968462214   390.9924   6  16   0.0407   0.0418   0.0464  -0.0210   0.0123  -0.0270   0.00    0.0
2026/01/15 02:38:30.000   67.857351741   20.968462191   390.9920   6  16   0.0406   0.0417   0.0463  -0.0210   0.0123  -0.0269   0.00    0.0
2026/01/15 02:39:00.000   67.857351744   20.968462184   390.9918   6  16   0.0404   0.0416   0.0462  -0.0210   0.0123  -0.0268   0.00    0.0
2026/01/15 02:39:30.000   67.857351752   20.968462164   390.9912   6  16   0.0403   0.0415   0.0460  -0.0210   0.0123  -0.0267   0.00    0.0
2026/01/15 02:40:00.000   67.857351752   20.968462127   390.9912   6  16   0.0402   0.0413   0.0459  -0.0210   0.0123  -0.0267   0.00    0.0
2026/01/15 02:40:30.000   67.857351764   20.968462099   390.9904   6  16   0.0401   0.0412   0.0458  -0.0210   0.0122  -0.0266   0.00    0.0
2026/01/15 02:41:00.000   67.857351770   20.968462099   390.9899   6  16   0.0400   0.0411   0.0457  -0.0210   0.0122  -0.0265   0.00    0.0
2026/01/15 02:41:30.000   67.857351775   20.968462070   390.9892   6  16   0.0399   0.0410   0.0455  -0.0210   0.0122  -0.0264   0.00    0.0
2026/01/15 02:42:00.000   67.857351780   20.968462052   390.9883   6  16   0.0398   0.0408   0.0454  -0.0210   0.0122  -0.0264   0.00    0.0
2026/01/15 02:42:30.000   67.857351792   20.968462013   390.9869   6  16   0.0397   0.0407   0.0453  -0.0209   0.0122  -0.0263   0.00    0.0
2026/01/15 02:43:00.000   67.857351796   20.968461979   390.9862   6  16   0.0396   0.0406   0.0452  -0.0209   0.0122  -0.0262   0.00    0.0
2026/01/15 02:43:30.000   67.857351799   20.968461959   390.9857   6  16   0.0394   0.0405   0.0451  -0.0209   0.0122  -0.0262   0.00    0.0
2026/01/15 02:44:00.000   67.857351808   20.968461961   390.9847   6  16   0.0393   0.0404   0.0450  -0.0209   0.0122  -0.0261   0.00    0.0
2026/01/15 02:44:30.000   67.857351809   20.968461931   390.9841   6  16   0.0392   0.0402   0.0448  -0.0209   0.0122  -0.0260   0.00    0.0
2026/01/15 02:45:00.000   67.857351807   20.968461931   390.9839   6  16   0.0391   0.0401   0.0447  -0.0209   0.0122  -0.0260   0.00    0.0
2026/01/15 02:45:30.000   67.857351814   20.968461912   390.9837   6  16   0.0390   0.0400   0.0446  -0.0209   0.0121  -0.0259   0.00    0.0
2026/01/15 02:46:00.000   67.857351826   20.968461905   390.9830   6  16   0.0389   0.0399   0.0445  -0.0208   0.0121  -0.0258   0.00    0.0
2026/01/15 02:46:30.000   67.857351837   20.968461853   390.9826   6  16   0.0388   0.0397   0.0443  -0.0208   0.0121  -0.0258   0.00    0.0
2026/01/15 02:47:00.000   67.857351846   20.968461848   390.9818   6  16   0.0387   0.0396   0.0442  -0.0208   0.0121  -0.0257   0.00    0.0
2026/01/15 02:47:30.000   67.857351856   20.968461817   390.9808   6  16   0.0386   0.0395   0.0441  -0.0208   0.0121  -0.0256   0.00    0.0
2026/01/15 02:48:00.000   67.857351861   20.968461784   390.9802   6  16   0.0385   0.0394   0.0440  -0.0208   0.0121  -0.0256   0.00    0.0
2026/01/15 02:48:30.000   67.857351867   20.968461722   390.9796   6  16   0.0384   0.0393   0.0439  -0.0207   0.0121  -0.0255   0.00    0.0
2026/01/15 02:49:00.000   67.857351877   20.968461694   390.9784   6  16   0.0383   0.0392   0.0438  -0.0207   0.0121  -0.0254   0.00    0.0
2026/01/15 02:49:30.000   67.857351886   20.968461661   390.9778   6  16   0.0381   0.0390   0.0436  -0.0207   0.0121  -0.0253   0.00    0.0
2026/01/15 02:50:00.000   67.857351895   20.968461613   390.9767   6  16   0.0380   0.0389   0.0435  -0.0207   0.0120  -0.0253   0.00    0.0
2026/01/15 02:50:30.000   67.857351895   20.968461592   390.9761   6  16   0.0379   0.0388   0.0434  -0.0206   0.0120  -0.0252   0.00    0.0
2026/01/15 02:51:00.000   67.857351896   20.968461576   390.9760   6  16   0.0378   0.0387   0.0433  -0.0206   0.0120  -0.0251   0.00    0.0
2026/01/15 02:51:30.000   67.857351900   20.968461554   390.9757   6  16   0.0377   0.0386   0.0431  -0.0206   0.0120  -0.0251   0.00    0.0
2026/01/15 02:52:00.000   67.857351904   20.968461525   390.9754   6  16   0.0376   0.0384   0.0430  -0.0206   0.0120  -0.0250   0.00    0.0
2026/01/15 02:52:30.000   67.857351911   20.968461479   390.9747   6  16   0.0375   0.0383   0.0429  -0.0205   0.0120  -0.0249   0.00    0.0
2026/01/15 02:53:00.000   67.857351912   20.968461455   390.9745   6  16   0.0374   0.0382   0.0428  -0.0205   0.0120  -0.0249   0.00    0.0
2026/01/15 02:53:30.000   67.857351927   20.968461428   390.9733   6  16   0.0373   0.0381   0.0427  -0.0205   0.0120  -0.0248   0.00    0.0
2026/01/15 02:54:00.000   67.857351941   20.968461390   390.9722   6  16   0.0372   0.0380   0.0426  -0.0205   0.0120  -0.0248   0.00    0.0
2026/01/15 02:54:30.000   67.857351954   20.968461381   390.9707   6  16   0.0371   0.0379   0.0424  -0.0205   0.0120  -0.0247   0.00    0.0
2026/01/15 02:55:00.000   67.857351957   20.968461375   390.9699   6  16   0.0370   0.0378   0.0423  -0.0204   0.0120  -0.0246   0.00    0.0
2026/01/15 02:55:30.000   67.857351965   20.968461346   390.9691   6  16   0.0369   0.0376   0.0422  -0.0204   0.0120  -0.0246   0.00    0.0
2026/01/15 02:56:00.000   67.857351972   20.968461318   390.9683   6  16   0.0368   0.0375   0.0421  -0.0204   0.0120  -0.0245   0.00    0.0
2026/01/15 02:56:30.000   67.857351981   20.968461276   390.9671   6  16   0.0367   0.0374   0.0419  -0.0204   0.0120  -0.0245   0.00    0.0
2026/01/15 02:57:00.000   67.857351988   20.968461242   390.9663   6  16   0.0366   0.0373   0.0418  -0.0203   0.0120  -0.0244   0.00    0.0
2026/01/15 02:57:30.000   67.857351992   20.968461235   390.9654   6  17   0.0365   0.0372   0.0417  -0.0203   0.0119  -0.0243   0.00    0.0
2026/01/15 02:58:00.000   67.857351996   20.968461215   390.9647   6  17   0.0364   0.0371   0.0416  -0.0203   0.0119  -0.0243   0.00    0.0
2026/01/15 02:58:30.000   67.857352001   20.968461223   390.9638   6  18   0.0363   0.0370   0.0415  -0.0203   0.0119  -0.0242   0.00    0.0
2026/01/15 02:59:00.000   67.857352003   20.968461233   390.9632   6  18   0.0362   0.0369   0.0414  -0.0202   0.0119  -0.0242   0.00    0.0
2026/01/15 02:59:30.000   67.857352014   20.968461198   390.9620   6  18   0.0361   0.0367   0.0412  -0.0202   0.0119  -0.0241   0.00    0.0
2026/01/15 03:00:00.000   67.857352014   20.968461185   390.9618   6  18   0.0360   0.0366   0.0411  -0.0202   0.0119  -0.0240   0.00    0.0
2026/01/15 03:00:30.000   67.857352018   20.968461156   390.9611   6  18   0.0359   0.0365   0.0410  -0.0201   0.0119  -0.0240   0.00    0.0
2026/01/15 03:01:00.000   67.857352024   20.968461110   390.9601   6  18   0.0358   0.0364   0.0409  -0.0201   0.0118  -0.0239   0.00    0.0
2026/01/15 03:01:30.000   67.857352025   20.968461101   390.9591   6  18   0.0357   0.0363   0.0407  -0.0200   0.0118  -0.0238   0.00    0.0
2026/01/15 03:02:00.000   67.857352033   20.968461075   390.9581   6  18   0.0356   0.0362   0.0406  -0.0200   0.0118  -0.0238   0.00    0.0
2026/01/15 03:02:30.000   67.857352041   20.968461065   390.9572   6  18   0.0355   0.0361   0.0405  -0.0200   0.0118  -0.0237   0.00    0.0
2026/01/15 03:03:00.000   67.857352044   20.968461075   390.9561   6  18   0.0354   0.0359   0.0404  -0.0199   0.0118  -0.0237   0.00    0.0
2026/01/15 03:03:30.000   67.857352045   20.968461053   390.9553   6  18   0.0354   0.0358   0.0403  -0.0199   0.0118  -0.0236   0.00    0.0
2026/01/15 03:04:00.000   67.857352042   20.968461035   390.9548   6  18   0.0353   0.0357   0.0402  -0.0199   0.0117  -0.0235   0.00    0.0
2026/01/15 03:04:30.000   67.857352044   20.968461027   390.9540   6  18   0.0352   0.0356   0.0400  -0.0198   0.0117  -0.0235   0.00    0.0
2026/01/15 03:05:00.000   67.857352045   20.968461017   390.9535   6  18   0.0350   0.0355   0.0399  -0.0198   0.0117  -0.0234   0.00    0.0
2026/01/15 03:05:30.000   67.857352051   20.968460992   390.9522   6  18   0.0349   0.0354   0.0398  -0.0197   0.0117  -0.0233   0.00    0.0
2026/01/15 03:06:00.000   67.857352053   20.968460981   390.9515   6  18   0.0348   0.0353   0.0397  -0.0197   0.0117  -0.0233   0.00    0.0
2026/01/15 03:06:30.000   67.857352053   20.968460987   390.9508   6  19   0.0348   0.0351   0.0395  -0.0197   0.0116  -0.0232   0.00    0.0
2026/01/15 03:07:00.000   67.857352061   20.968460959   390.9495   6  19   0.0347   0.0350   0.0394  -0.0196   0.0116  -0.0232   0.00    0.0
2026/01/15 03:07:30.000   67.857352067   20.968460944   390.9488   6  19   0.0346   0.0349   0.0393  -0.0196   0.0116  -0.0231   0.00    0.0
2026/01/15 03:08:00.000   67.857352066   20.968460940   390.9485   6  19   0.0345   0.0348   0.0392  -0.0196   0.0116  -0.0231   0.00    0.0
2026/01/15 03:08:30.000   67.857352062   20.968460949   390.9477   6  19   0.0344   0.0347   0.0391  -0.0195   0.0116  -0.0230   0.00    0.0
2026/01/15 03:09:00.000   67.857352067   20.968460938   390.9461   6  19   0.0343   0.0346   0.0390  -0.0195   0.0116  -0.0229   0.00    0.0
2026/01/15 03:09:30.000   67.857352072   20.968460917   390.9450   6  19   0.0342   0.0345   0.0388  -0.0195   0.0115  -0.0229   0.00    0.0
2026/01/15 03:10:00.000   67.857352078   20.968460890   390.9438   6  19   0.0341   0.0344   0.0387  -0.0195   0.0115  -0.0228   0.00    0.0
2026/01/15 03:10:30.000   67.857352084   20.968460876   390.9433   6  18   0.0340   0.0343   0.0386  -0.0194   0.0115  -0.0227   0.00    0.0
2026/01/15 03:11:00.000   67.857352092   20.968460850   390.9427   6  18   0.0340   0.0343   0.0385  -0.0194   0.0115  -0.0227   0.00    0.0
2026/01/15 03:11:30.000   67.857352093   20.968460846   390.9426   6  18   0.0339   0.0342   0.0384  -0.0194   0.0115  -0.0226   0.00    0.0
2026/01/15 03:12:00.000   67.857352096   20.968460834   390.9424   6  18   0.0338   0.0341   0.0383  -0.0194   0.0115  -0.0226   0.00    0.0
2026/01/15 03:12:30.000   67.857352102   20.968460813   390.9418   6  18   0.0337   0.0340   0.0382  -0.0193   0.0115  -0.0225   0.00    0.0
2026/01/15 03:13:00.000   67.857352104   20.968460819   390.9417   6  18   0.0336   0.0339   0.0381  -0.0193   0.0115  -0.0224   0.00    0.0
2026/01/15 03:13:30.000   67.857352107   20.968460810   390.9416   6  18   0.0336   0.0338   0.0380  -0.0193   0.0115  -0.0224   0.00    0.0
2026/01/15 03:14:00.000   67.857352112   20.968460781   390.9413   6  18   0.0335   0.0337   0.0379  -0.0192   0.0115  -0.0223   0.00    0.0
2026/01/15 03:14:30.000   67.857352121   20.968460762   390.9406   6  18   0.0334   0.0336   0.0378  -0.0192   0.0115  -0.0222   0.00    0.0
2026/01/15 03:15:00.000   67.857352128   20.968460749   390.9401   6  18   0.0333   0.0335   0.0377  -0.0192   0.0115  -0.0222   0.00    0.0
2026/01/15 03:15:30.000   67.857352130   20.968460750   390.9398   6  18   0.0332   0.0334   0.0376  -0.0191   0.0115  -0.0221   0.00    0.0
2026/01/15 03:16:00.000   67.857352131   20.968460726   390.9395   6  18   0.0331   0.0333   0.0375  -0.0191   0.0115  -0.0220   0.00    0.0
2026/01/15 03:16:30.000   67.857352139   20.968460702   390.9391   6  18   0.0331   0.0333   0.0374  -0.0191   0.0115  -0.0220   0.00    0.0
2026/01/15 03:17:00.000   67.857352147   20.968460678   390.9385   6  18   0.0330   0.0332   0.0373  -0.0190   0.0115  -0.0219   0.00    0.0
2026/01/15 03:17:30.000   67.857352157   20.968460648   390.9376   6  18   0.0329   0.0331   0.0372  -0.0190   0.0115  -0.0219   0.00    0.0
2026/01/15 03:18:00.000   67.857352161   20.968460649   390.9371   6  18   0.0328   0.0330   0.0371  -0.0190   0.0115  -0.0218   0.00    0.0
2026/01/15 03:18:30.000   67.857352171   20.968460619   390.9359   6  18   0.0327   0.0329   0.0370  -0.0189   0.0115  -0.0217   0.00    0.0
2026/01/15 03:19:00.000   67.857352176   20.968460619   390.9354   6  18   0.0327   0.0328   0.0369  -0.0189   0.0115  -0.0217   0.00    0.0
2026/01/15 03:19:30.000   67.857352178   20.968460606   390.9353   6  18   0.0326   0.0327   0.0368  -0.0189   0.0115  -0.0216   0.00    0.0
2026/01/15 03:20:00.000   67.857352188   20.968460594   390.9345   6  18   0.0325   0.0326   0.0367  -0.0188   0.0115  -0.0215   0.00    0.0
2026/01/15 03:20:30.000   67.857352198   20.968460586   390.9335   6  18   0.0324   0.0325   0.0366  -0.0188   0.0115  -0.0215   0.00    0.0
2026/01/15 03:21:00.000   67.857352198   20.968460590   390.9332   6  18   0.0323   0.0324   0.0365  -0.0188   0.0115  -0.0214   0.00    0.0
2026/01/15 03:21:30.000   67.857352207   20.968460581   390.9320   6  18   0.0322   0.0324   0.0364  -0.0187   0.0115  -0.0214   0.00    0.0
2026/01/15 03:22:00.000   67.857352215   20.968460561   390.9310   6  18   0.0322   0.0323   0.0363  -0.0187   0.0115  -0.0213   0.00    0.0
2026/01/15 03:22:30.000   67.857352223   20.968460545   390.9301   6  18   0.0321   0.0322   0.0362  -0.0187   0.0115  -0.0213   0.00    0.0
2026/01/15 03:23:00.000   67.857352225   20.968460531   390.9298   6  18   0.0320   0.0321   0.0361  -0.0186   0.0115  -0.0212   0.00    0.0
2026/01/15 03:23:30.000   67.857352235   20.968460518   390.9291   6  18   0.0319   0.0320   0.0360  -0.0186   0.0114  -0.0211   0.00    0.0
2026/01/15 03:24:00.000   67.857352246   20.968460480   390.9283   6  19   0.0319   0.0319   0.0359  -0.0185   0.0114  -0.0211   0.00    0.0
2026/01/15 03:24:30.000   67.857352254   20.968460471   390.9274   6  19   0.0318   0.0318   0.0358  -0.0185   0.0114  -0.0210   0.00    0.0
2026/01/15 03:25:00.000   67.857352259   20.968460456   390.9268   6  19   0.0317   0.0317   0.0357  -0.0185   0.0114  -0.0209   0.00    0.0
2026/01/15 03:25:30.000   67.857352262   20.968460440   390.9262   6  19   0.0316   0.0316   0.0356  -0.0184   0.0114  -0.0209   0.00    0.0
2026/01/15 03:26:00.000   67.857352265   20.968460436   390.9255   6  19   0.0315   0.0316   0.0355  -0.0184   0.0114  -0.0208   0.00    0.0
2026/01/15 03:26:30.000   67.857352268   20.968460424   390.9252   6  19   0.0314   0.0315   0.0354  -0.0183   0.0114  -0.0208   0.00    0.0
2026/01/15 03:27:00.000   67.857352274   20.968460419   390.9243   6  19   0.0313   0.0314   0.0353  -0.0183   0.0114  -0.0207   0.00    0.0
2026/01/15 03:27:30.000   67.857352280   20.968460397   390.9239   6  19   0.0313   0.0313   0.0352  -0.0182   0.0113  -0.0206   0.00    0.0
2026/01/15 03:28:00.000   67.857352292   20.968460383   390.9227   6  19   0.0312   0.0312   0.0351  -0.0182   0.0113  -0.0206   0.00    0.0
