% program   : RTKPOST ver.demo5 b34d
% inp file  : E:\Master courses\SNDP-PROJECT\New_Data\obs\RNXDATA\KIRU00SWE_R_20260150000_01D_30S_MO.rnx
% inp file  : E:\Master courses\SNDP-PROJECT\New_Data\nav\BRDC00IGS_R_20260150000_01D_MN.rnx
% inp file  : E:\Master courses\SNDP-PROJECT\New_Data\DATA_FINAL_ANT_EXTRA\COD0MGXFIN_20260150000_01D_05M_ORB.SP3
% inp file  : E:\Master courses\SNDP-PROJECT\New_Data\DATA_FINAL_ANT_EXTRA\COD0MGXFIN_20260150000_01D_30S_CLK.CLK
% inp file  : E:\Master courses\SNDP-PROJECT\New_Data\DATA_FINAL_ANT_EXTRA\COD0MGXFIN_20260150000_01D_01D_OSB.BIA
% obs start : 2026/01/15 00:00:00.0 GPST (week2401 345600.0s)
% obs end   : 2026/01/15 23:59:30.0 GPST (week2401 431970.0s)
% pos mode  : PPP Static
% solution  : Forward
% elev mask : 15.0 deg
% dynamics  : off
% tidecorr  : off
% tropo opt : Saastamoinen
% ephemeris : Precise
% navi sys  : GPS GLONASS Galileo QZSS BDS
% antenna1  : SEPCHOKE_B3E6   SPKE  ( 0.0000  0.0000  0.0620)
%
% (lat/lon/height=WGS84/ellipsoidal,Q=1:fix,2:float,3:sbas,4:dgps,5:single,6:ppp,ns=# of satellites)
%  GPST                  latitude(deg) longitude(deg)  height(m)   Q  ns   sdn(m)   sde(m)   sdu(m)  sdne(m)  sdeu(m)  sdun(m) age(s)  ratio
2026/01/15 00:00:00.000   67.857349525   20.968499875   392.9739   6  31   0.8338   0.6965   1.9695  -0.3026   0.1345   0.7314   0.00    0.0
2026/01/15 00:00:30.000   67.857351858   20.968494792   392.2022   6  33   0.5772   0.4702   1.3748  -0.1694  -0.1511   0.5381   0.00    0.0
2026/01/15 00:01:00.000   67.857349149   20.968493495   392.2130   6  33   0.4688   0.3795   1.1174  -0.1287  -0.1444   0.4423   0.00    0.0
2026/01/15 00:01:30.000   67.857349584   20.968493253   392.4091   6  33   0.4050   0.3270   0.9643  -0.1079  -0.1334   0.3834   0.00    0.0
2026/01/15 00:02:00.000   67.857350816   20.968491893   392.4708   6  33   0.3617   0.2917   0.8598  -0.0948  -0.1240   0.3425   0.00    0.0
2026/01/15 00:02:30.000   67.857350616   20.968490791   392.5318   6  33   0.3308   0.2653   0.7838  -0.0857  -0.1138   0.3140   0.00    0.0
2026/01/15 00:03:00.000   67.857350377   20.968489914   392.4764   6  33   0.3064   0.2450   0.7235  -0.0789  -0.1060   0.2908   0.00    0.0
2026/01/15 00:03:30.000   67.857350773   20.968491548   392.5042   6  33   0.2866   0.2286   0.6741  -0.0735  -0.0998   0.2713   0.00    0.0
2026/01/15 00:04:00.000   67.857350906   20.968490615   392.5954   6  34   0.2693   0.2151   0.6304  -0.0699  -0.0961   0.2528   0.00    0.0
2026/01/15 00:04:30.000   67.857351209   20.968489512   392.5985   6  33   0.2548   0.2039   0.5944  -0.0664  -0.0945   0.2365   0.00    0.0
2026/01/15 00:05:00.000   67.857350824   20.968489516   392.4407   6  33   0.2422   0.1942   0.5631  -0.0634  -0.0926   0.2224   0.00    0.0
2026/01/15 00:05:30.000   67.857351077   20.968489588   392.3165   6  33   0.2313   0.1858   0.5356  -0.0608  -0.0907   0.2101   0.00    0.0
2026/01/15 00:06:00.000   67.857351100   20.968489644   392.3174   6  33   0.2216   0.1784   0.5112  -0.0584  -0.0887   0.1991   0.00    0.0
2026/01/15 00:06:30.000   67.857351045   20.968489393   392.3330   6  33   0.2130   0.1718   0.4894  -0.0564  -0.0867   0.1894   0.00    0.0
2026/01/15 00:07:00.000   67.857351020   20.968488886   392.3243   6  33   0.2053   0.1659   0.4698  -0.0546  -0.0849   0.1806   0.00    0.0
2026/01/15 00:07:30.000   67.857350869   20.968489086   392.2992   6  33   0.1984   0.1606   0.4521  -0.0529  -0.0831   0.1727   0.00    0.0
2026/01/15 00:08:00.000   67.857350527   20.968489429   392.2874   6  33   0.1919   0.1557   0.4354  -0.0514  -0.0812   0.1652   0.00    0.0
2026/01/15 00:08:30.000   67.857350457   20.968489004   392.2343   6  33   0.1859   0.1513   0.4196  -0.0499  -0.0794   0.1581   0.00    0.0
2026/01/15 00:09:00.000   67.857350283   20.968488746   392.1709   6  33   0.1803   0.1471   0.4047  -0.0486  -0.0777   0.1512   0.00    0.0
2026/01/15 00:09:30.000   67.857350204   20.968488811   392.1485   6  32   0.1753   0.1433   0.3908  -0.0475  -0.0758   0.1445   0.00    0.0
2026/01/15 00:10:00.000   67.857350312   20.968488742   392.1552   6  32   0.1706   0.1398   0.3777  -0.0465  -0.0741   0.1382   0.00    0.0
2026/01/15 00:10:30.000   67.857350325   20.968488395   392.1335   6  32   0.1662   0.1365   0.3655  -0.0455  -0.0724   0.1322   0.00    0.0
2026/01/15 00:11:00.000   67.857350173   20.968488559   392.0783   6  33   0.1620   0.1334   0.3539  -0.0448  -0.0705   0.1270   0.00    0.0
2026/01/15 00:11:30.000   67.857350046   20.968488705   392.0304   6  33   0.1582   0.1304   0.3431  -0.0441  -0.0687   0.1221   0.00    0.0
2026/01/15 00:12:00.000   67.857350188   20.968488875   392.0066   6  33   0.1545   0.1277   0.3332  -0.0434  -0.0671   0.1176   0.00    0.0
2026/01/15 00:12:30.000   67.857350054   20.968488749   391.9618   6  33   0.1512   0.1251   0.3240  -0.0428  -0.0656   0.1135   0.00    0.0
2026/01/15 00:13:00.000   67.857350016   20.968488547   391.9344   6  33   0.1479   0.1227   0.3150  -0.0422  -0.0641   0.1092   0.00    0.0
2026/01/15 00:13:30.000   67.857349988   20.968487944   391.9216   6  33   0.1448   0.1204   0.3061  -0.0415  -0.0627   0.1049   0.00    0.0
2026/01/15 00:14:00.000   67.857349850   20.968487871   391.8844   6  33   0.1418   0.1181   0.2975  -0.0409  -0.0612   0.1008   0.00    0.0
2026/01/15 00:14:30.000   67.857349790   20.968487762   391.8663   6  33   0.1390   0.1160   0.2892  -0.0403  -0.0598   0.0968   0.00    0.0
2026/01/15 00:15:00.000   67.857349642   20.968487679   391.8210   6  34   0.1362   0.1140   0.2812  -0.0396  -0.0586   0.0930   0.00    0.0
2026/01/15 00:15:30.000   67.857349549   20.968487385   391.8028   6  34   0.1336   0.1121   0.2736  -0.0389  -0.0574   0.0894   0.00    0.0
2026/01/15 00:16:00.000   67.857349492   20.968487314   391.7768   6  34   0.1311   0.1102   0.2665  -0.0382  -0.0563   0.0860   0.00    0.0
2026/01/15 00:16:30.000   67.857349303   20.968487355   391.7589   6  33   0.1288   0.1085   0.2602  -0.0376  -0.0551   0.0828   0.00    0.0
2026/01/15 00:17:00.000   67.857349235   20.968487320   391.7368   6  33   0.1266   0.1068   0.2543  -0.0370  -0.0540   0.0799   0.00    0.0
2026/01/15 00:17:30.000   67.857349225   20.968487474   391.7276   6  33   0.1246   0.1052   0.2488  -0.0365  -0.0530   0.0772   0.00    0.0
2026/01/15 00:18:00.000   67.857349166   20.968487607   391.7284   6  33   0.1226   0.1037   0.2434  -0.0360  -0.0519   0.0744   0.00    0.0
2026/01/15 00:18:30.000   67.857349025   20.968487558   391.7207   6  33   0.1206   0.1022   0.2379  -0.0354  -0.0508   0.0714   0.00    0.0
2026/01/15 00:19:00.000   67.857348929   20.968487506   391.7076   6  33   0.1187   0.1008   0.2325  -0.0349  -0.0498   0.0684   0.00    0.0
2026/01/15 00:19:30.000   67.857348905   20.968487637   391.7006   6  33   0.1168   0.0994   0.2273  -0.0343  -0.0487   0.0653   0.00    0.0
2026/01/15 00:20:00.000   67.857348919   20.968487514   391.6788   6  33   0.1150   0.0980   0.2221  -0.0338  -0.0477   0.0623   0.00    0.0
2026/01/15 00:20:30.000   67.857348968   20.968487376   391.6703   6  33   0.1133   0.0967   0.2173  -0.0333  -0.0467   0.0596   0.00    0.0
2026/01/15 00:21:00.000   67.857348968   20.968487293   391.6695   6  33   0.1117   0.0955   0.2129  -0.0328  -0.0457   0.0570   0.00    0.0
2026/01/15 00:21:30.000   67.857348967   20.968487126   391.6637   6  32   0.1102   0.0943   0.2091  -0.0324  -0.0451   0.0548   0.00    0.0
2026/01/15 00:22:00.000   67.857348987   20.968487018   391.6681   6  32   0.1088   0.0932   0.2056  -0.0321  -0.0446   0.0528   0.00    0.0
2026/01/15 00:22:30.000   67.857349005   20.968487108   391.6736   6  32   0.1074   0.0921   0.2023  -0.0317  -0.0441   0.0509   0.00    0.0
2026/01/15 00:23:00.000   67.857349059   20.968487131   391.6709   6  32   0.1061   0.0911   0.1989  -0.0314  -0.0435   0.0489   0.00    0.0
2026/01/15 00:23:30.000   67.857348972   20.968486997   391.6698   6  32   0.1047   0.0900   0.1954  -0.0311  -0.0430   0.0468   0.00    0.0
2026/01/15 00:24:00.000   67.857348867   20.968486849   391.6625   6  32   0.1034   0.0890   0.1919  -0.0307  -0.0424   0.0445   0.00    0.0
2026/01/15 00:24:30.000   67.857348837   20.968486554   391.6537   6  32   0.1021   0.0880   0.1885  -0.0304  -0.0419   0.0422   0.00    0.0
2026/01/15 00:25:00.000   67.857348785   20.968486551   391.6646   6  32   0.1009   0.0871   0.1852  -0.0301  -0.0412   0.0398   0.00    0.0
2026/01/15 00:25:30.000   67.857348803   20.968486650   391.6734   6  31   0.0997   0.0862   0.1822  -0.0297  -0.0406   0.0378   0.00    0.0
2026/01/15 00:26:00.000   67.857348815   20.968486762   391.6764   6  31   0.0986   0.0853   0.1794  -0.0294  -0.0400   0.0358   0.00    0.0
2026/01/15 00:26:30.000   67.857348821   20.968486843   391.6732   6  31   0.0975   0.0845   0.1767  -0.0292  -0.0394   0.0340   0.00    0.0
2026/01/15 00:27:00.000   67.857348801   20.968486828   391.6743   6  31   0.0965   0.0837   0.1741  -0.0289  -0.0388   0.0323   0.00    0.0
2026/01/15 00:27:30.000   67.857348755   20.968486957   391.6705   6  31   0.0955   0.0829   0.1718  -0.0287  -0.0383   0.0307   0.00    0.0
2026/01/15 00:28:00.000   67.857348644   20.968486979   391.6747   6  31   0.0945   0.0822   0.1693  -0.0284  -0.0377   0.0289   0.00    0.0
2026/01/15 00:28:30.000   67.857348631   20.968486828   391.6744   6  31   0.0936   0.0815   0.1668  -0.0282  -0.0371   0.0269   0.00    0.0
2026/01/15 00:29:00.000   67.857348627   20.968486760   391.6759   6  31   0.0926   0.0807   0.1643  -0.0280  -0.0365   0.0247   0.00    0.0
2026/01/15 00:29:30.000   67.857348578   20.968486597   391.6693   6  31   0.0916   0.0800   0.1617  -0.0277  -0.0359   0.0224   0.00    0.0
2026/01/15 00:30:00.000   67.857348584   20.968486644   391.6685   6  32   0.0907   0.0793   0.1592  -0.0275  -0.0354   0.0198   0.00    0.0
2026/01/15 00:30:30.000   67.857348624   20.968486672   391.6640   6  31   0.0898   0.0787   0.1573  -0.0274  -0.0351   0.0182   0.00    0.0
2026/01/15 00:31:00.000   67.857348618   20.968486675   391.6617   6  31   0.0890   0.0781   0.1555  -0.0273  -0.0348   0.0166   0.00    0.0
2026/01/15 00:31:30.000   67.857348524   20.968486651   391.6685   6  31   0.0882   0.0774   0.1537  -0.0272  -0.0345   0.0151   0.00    0.0
2026/01/15 00:32:00.000   67.857348525   20.968486631   391.6681   6  31   0.0875   0.0768   0.1521  -0.0272  -0.0343   0.0136   0.00    0.0
2026/01/15 00:32:30.000   67.857348509   20.968486629   391.6747   6  31   0.0868   0.0763   0.1505  -0.0271  -0.0340   0.0122   0.00    0.0
2026/01/15 00:33:00.000   67.857348508   20.968486650   391.6765   6  31   0.0860   0.0757   0.1489  -0.0270  -0.0337   0.0104   0.00    0.0
2026/01/15 00:33:30.000   67.857348505   20.968486633   391.6775   6  31   0.0854   0.0751   0.1472  -0.0270  -0.0335   0.0081   0.00    0.0
2026/01/15 00:34:00.000   67.857348479   20.968486492   391.6776   6  31   0.0847   0.0746   0.1456  -0.0269  -0.0332   0.0045   0.00    0.0
2026/01/15 00:34:30.000   67.857348456   20.968486569   391.6760   6  32   0.0840   0.0740   0.1439  -0.0269  -0.0329  -0.0048   0.00    0.0
2026/01/15 00:35:00.000   67.857348431   20.968486455   391.6758   6  32   0.0833   0.0735   0.1422  -0.0268  -0.0326  -0.0082   0.00    0.0
2026/01/15 00:35:30.000   67.857348433   20.968486460   391.6741   6  32   0.0826   0.0730   0.1406  -0.0268  -0.0323  -0.0104   0.00    0.0
2026/01/15 00:36:00.000   67.857348403   20.968486455   391.6716   6  32   0.0820   0.0725   0.1390  -0.0267  -0.0320  -0.0121   0.00    0.0
2026/01/15 00:36:30.000   67.857348355   20.968486401   391.6643   6  32   0.0813   0.0720   0.1375  -0.0267  -0.0317  -0.0134   0.00    0.0
2026/01/15 00:37:00.000   67.857348314   20.968486370   391.6615   6  32   0.0807   0.0715   0.1361  -0.0266  -0.0315  -0.0144   0.00    0.0
2026/01/15 00:37:30.000   67.857348277   20.968486373   391.6611   6  32   0.0802   0.0710   0.1348  -0.0266  -0.0313  -0.0152   0.00    0.0
2026/01/15 00:38:00.000   67.857348254   20.968486312   391.6505   6  32   0.0796   0.0705   0.1334  -0.0265  -0.0310  -0.0161   0.00    0.0
2026/01/15 00:38:30.000   67.857348236   20.968486329   391.6458   6  32   0.0790   0.0701   0.1319  -0.0265  -0.0308  -0.0170   0.00    0.0
2026/01/15 00:39:00.000   67.857348235   20.968486274   391.6439   6  32   0.0784   0.0696   0.1305  -0.0264  -0.0305  -0.0180   0.00    0.0
2026/01/15 00:39:30.000   67.857348240   20.968486215   391.6306   6  32   0.0778   0.0691   0.1290  -0.0264  -0.0302  -0.0190   0.00    0.0
2026/01/15 00:40:00.000   67.857348239   20.968486208   391.6266   6  32   0.0773   0.0687   0.1276  -0.0263  -0.0299  -0.0200   0.00    0.0
2026/01/15 00:40:30.000   67.857348170   20.968486187   391.6237   6  32   0.0767   0.0683   0.1261  -0.0263  -0.0296  -0.0208   0.00    0.0
2026/01/15 00:41:00.000   67.857348116   20.968486078   391.6172   6  32   0.0762   0.0678   0.1248  -0.0262  -0.0294  -0.0216   0.00    0.0
2026/01/15 00:41:30.000   67.857348107   20.968486023   391.6119   6  32   0.0757   0.0674   0.1235  -0.0262  -0.0291  -0.0222   0.00    0.0
2026/01/15 00:42:00.000   67.857348081   20.968486058   391.6075   6  32   0.0752   0.0670   0.1222  -0.0261  -0.0289  -0.0227   0.00    0.0
2026/01/15 00:42:30.000   67.857348072   20.968486084   391.6024   6  32   0.0747   0.0666   0.1211  -0.0260  -0.0286  -0.0230   0.00    0.0
2026/01/15 00:43:00.000   67.857348079   20.968486046   391.5971   6  32   0.0743   0.0662   0.1201  -0.0259  -0.0283  -0.0233   0.00    0.0
2026/01/15 00:43:30.000   67.857348087   20.968486192   391.5963   6  32   0.0738   0.0658   0.1190  -0.0259  -0.0280  -0.0236   0.00    0.0
2026/01/15 00:44:00.000   67.857348078   20.968486139   391.5901   6  32   0.0734   0.0655   0.1179  -0.0258  -0.0276  -0.0239   0.00    0.0
2026/01/15 00:44:30.000   67.857348059   20.968486222   391.5854   6  33   0.0729   0.0651   0.1168  -0.0256  -0.0273  -0.0241   0.00    0.0
2026/01/15 00:45:00.000   67.857348022   20.968486194   391.5793   6  33   0.0725   0.0647   0.1158  -0.0255  -0.0270  -0.0244   0.00    0.0
2026/01/15 00:45:30.000   67.857347999   20.968486200   391.5766   6  33   0.0720   0.0644   0.1147  -0.0254  -0.0266  -0.0246   0.00    0.0
2026/01/15 00:46:00.000   67.857347949   20.968486345   391.5749   6  33   0.0716   0.0640   0.1136  -0.0252  -0.0263  -0.0248   0.00    0.0
2026/01/15 00:46:30.000   67.857347978   20.968486299   391.5715   6  32   0.0712   0.0637   0.1128  -0.0251  -0.0260  -0.0248   0.00    0.0
2026/01/15 00:47:00.000   67.857347984   20.968486377   391.5733   6  32   0.0708   0.0634   0.1120  -0.0250  -0.0257  -0.0248   0.00    0.0
2026/01/15 00:47:30.000   67.857347970   20.968486384   391.5755   6  31   0.0704   0.0631   0.1112  -0.0249  -0.0254  -0.0248   0.00    0.0
2026/01/15 00:48:00.000   67.857347974   20.968486367   391.5755   6  32   0.0701   0.0628   0.1104  -0.0248  -0.0251  -0.0248   0.00    0.0
2026/01/15 00:48:30.000   67.857347979   20.968486359   391.5723   6  32   0.0697   0.0625   0.1095  -0.0247  -0.0248  -0.0249   0.00    0.0
2026/01/15 00:49:00.000   67.857347956   20.968486378   391.5748   6  31   0.0694   0.0622   0.1087  -0.0246  -0.0244  -0.0251   0.00    0.0
2026/01/15 00:49:30.000   67.857347940   20.968486489   391.5764   6  31   0.0690   0.0619   0.1078  -0.0245  -0.0241  -0.0252   0.00    0.0
2026/01/15 00:50:00.000   67.857347951   20.968486545   391.5730   6  31   0.0687   0.0616   0.1070  -0.0244  -0.0237  -0.0253   0.00    0.0
2026/01/15 00:50:30.000   67.857347949   20.968486734   391.5684   6  32   0.0684   0.0612   0.1062  -0.0243  -0.0233  -0.0254   0.00    0.0
2026/01/15 00:51:00.000   67.857347972   20.968486790   391.5689   6  31   0.0680   0.0610   0.1054  -0.0242  -0.0229  -0.0255   0.00    0.0
2026/01/15 00:51:30.000   67.857347976   20.968486804   391.5718   6  30   0.0677   0.0607   0.1048  -0.0242  -0.0226  -0.0255   0.00    0.0
2026/01/15 00:52:00.000   67.857347964   20.968486838   391.5746   6  31   0.0674   0.0604   0.1042  -0.0241  -0.0223  -0.0255   0.00    0.0
2026/01/15 00:52:30.000   67.857347959   20.968486854   391.5775   6  31   0.0671   0.0601   0.1036  -0.0240  -0.0221  -0.0255   0.00    0.0
2026/01/15 00:53:00.000   67.857347960   20.968486883   391.5798   6  31   0.0668   0.0598   0.1030  -0.0239  -0.0218  -0.0255   0.00    0.0
2026/01/15 00:53:30.000   67.857347950   20.968486877   391.5829   6  31   0.0665   0.0596   0.1024  -0.0238  -0.0215  -0.0255   0.00    0.0
2026/01/15 00:54:00.000   67.857347975   20.968487045   391.5785   6  32   0.0662   0.0593   0.1018  -0.0237  -0.0212  -0.0256   0.00    0.0
2026/01/15 00:54:30.000   67.857347983   20.968486997   391.5806   6  31   0.0659   0.0590   0.1012  -0.0236  -0.0208  -0.0257   0.00    0.0
2026/01/15 00:55:00.000   67.857347971   20.968486972   391.5864   6  31   0.0656   0.0588   0.1005  -0.0235  -0.0205  -0.0258   0.00    0.0
2026/01/15 00:55:30.000   67.857347981   20.968486996   391.5842   6  32   0.0653   0.0585   0.0999  -0.0234  -0.0202  -0.0259   0.00    0.0
2026/01/15 00:56:00.000   67.857347977   20.968486956   391.5873   6  31   0.0650   0.0582   0.0993  -0.0233  -0.0198  -0.0260   0.00    0.0
2026/01/15 00:56:30.000   67.857347974   20.968486861   391.5896   6  31   0.0647   0.0580   0.0987  -0.0232  -0.0196  -0.0260   0.00    0.0
2026/01/15 00:57:00.000   67.857347981   20.968486923   391.5881   6  31   0.0644   0.0577   0.0981  -0.0231  -0.0192  -0.0261   0.00    0.0
2026/01/15 00:57:30.000   67.857347985   20.968486909   391.5902   6  29   0.0642   0.0575   0.0976  -0.0231  -0.0189  -0.0261   0.00    0.0
2026/01/15 00:58:00.000   67.857348006   20.968486953   391.5922   6  29   0.0639   0.0572   0.0971  -0.0230  -0.0186  -0.0262   0.00    0.0
2026/01/15 00:58:30.000   67.857348005   20.968487010   391.5899   6  30   0.0637   0.0570   0.0965  -0.0229  -0.0183  -0.0263   0.00    0.0
2026/01/15 00:59:00.000   67.857348012   20.968487097   391.5868   6  30   0.0634   0.0568   0.0959  -0.0228  -0.0179  -0.0264   0.00    0.0
2026/01/15 00:59:30.000   67.857347990   20.968487210   391.5854   6  30   0.0631   0.0565   0.0953  -0.0227  -0.0175  -0.0265   0.00    0.0
2026/01/15 01:00:00.000   67.857348007   20.968487143   391.5846   6  29   0.0629   0.0563   0.0948  -0.0227  -0.0172  -0.0265   0.00    0.0
2026/01/15 01:00:30.000   67.857348002   20.968487120   391.5875   6  29   0.0627   0.0561   0.0943  -0.0226  -0.0169  -0.0265   0.00    0.0
2026/01/15 01:01:00.000   67.857347999   20.968487221   391.5861   6  29   0.0625   0.0558   0.0939  -0.0225  -0.0165  -0.0266   0.00    0.0
2026/01/15 01:01:30.000   67.857348008   20.968487155   391.5871   6  28   0.0623   0.0556   0.0935  -0.0224  -0.0163  -0.0266   0.00    0.0
2026/01/15 01:02:00.000   67.857348019   20.968487202   391.5838   6  29   0.0621   0.0554   0.0931  -0.0223  -0.0160  -0.0266   0.00    0.0
2026/01/15 01:02:30.000   67.857348046   20.968487235   391.5834   6  29   0.0619   0.0552   0.0928  -0.0223  -0.0157  -0.0265   0.00    0.0
2026/01/15 01:03:00.000   67.857348060   20.968487319   391.5804   6  30   0.0617   0.0549   0.0924  -0.0222  -0.0154  -0.0265   0.00    0.0
2026/01/15 01:03:30.000   67.857348073   20.968487305   391.5790   6  30   0.0615   0.0547   0.0920  -0.0221  -0.0150  -0.0266   0.00    0.0
2026/01/15 01:04:00.000   67.857348079   20.968487402   391.5771   6  30   0.0614   0.0545   0.0916  -0.0220  -0.0147  -0.0266   0.00    0.0
2026/01/15 01:04:30.000   67.857348059   20.968487436   391.5798   6  30   0.0612   0.0543   0.0911  -0.0220  -0.0143  -0.0266   0.00    0.0
2026/01/15 01:05:00.000   67.857348073   20.968487405   391.5815   6  29   0.0610   0.0541   0.0907  -0.0219  -0.0140  -0.0267   0.00    0.0
2026/01/15 01:05:30.000   67.857348072   20.968487487   391.5809   6  30   0.0608   0.0539   0.0903  -0.0218  -0.0136  -0.0267   0.00    0.0
2026/01/15 01:06:00.000   67.857348085   20.968487454   391.5842   6  29   0.0606   0.0537   0.0899  -0.0217  -0.0133  -0.0267   0.00    0.0
2026/01/15 01:06:30.000   67.857348078   20.968487506   391.5826   6  30   0.0604   0.0535   0.0896  -0.0217  -0.0129  -0.0267   0.00    0.0
2026/01/15 01:07:00.000   67.857348097   20.968487561   391.5798   6  30   0.0603   0.0533   0.0892  -0.0216  -0.0126  -0.0267   0.00    0.0
2026/01/15 01:07:30.000   67.857348092   20.968487627   391.5794   6  30   0.0601   0.0531   0.0888  -0.0215  -0.0123  -0.0267   0.00    0.0
2026/01/15 01:08:00.000   67.857348082   20.968487624   391.5795   6  30   0.0599   0.0529   0.0885  -0.0215  -0.0119  -0.0268   0.00    0.0
2026/01/15 01:08:30.000   67.857348091   20.968487656   391.5781   6  30   0.0597   0.0527   0.0881  -0.0214  -0.0115  -0.0268   0.00    0.0
2026/01/15 01:09:00.000   67.857348091   20.968487705   391.5790   6  30   0.0595   0.0525   0.0877  -0.0213  -0.0112  -0.0268   0.00    0.0
2026/01/15 01:09:30.000   67.857348071   20.968487704   391.5806   6  30   0.0594   0.0523   0.0873  -0.0213  -0.0107  -0.0269   0.00    0.0
2026/01/15 01:10:00.000   67.857348051   20.968487761   391.5801   6  30   0.0592   0.0521   0.0869  -0.0212  -0.0103  -0.0270   0.00    0.0
2026/01/15 01:10:30.000   67.857348038   20.968487751   391.5819   6  30   0.0590   0.0519   0.0864  -0.0211  -0.0099  -0.0270   0.00    0.0
2026/01/15 01:11:00.000   67.857348036   20.968487762   391.5831   6  30   0.0588   0.0517   0.0860  -0.0211  -0.0095  -0.0271   0.00    0.0
2026/01/15 01:11:30.000   67.857348049   20.968487736   391.5822   6  30   0.0587   0.0515   0.0857  -0.0210  -0.0091  -0.0271   0.00    0.0
2026/01/15 01:12:00.000   67.857348077   20.968487764   391.5786   6  30   0.0585   0.0513   0.0853  -0.0209  -0.0087  -0.0271   0.00    0.0
2026/01/15 01:12:30.000   67.857348069   20.968487812   391.5799   6  30   0.0583   0.0511   0.0849  -0.0209  -0.0083  -0.0271   0.00    0.0
2026/01/15 01:13:00.000   67.857348082   20.968487839   391.5757   6  30   0.0582   0.0510   0.0846  -0.0208  -0.0079  -0.0272   0.00    0.0
2026/01/15 01:13:30.000   67.857348070   20.968487868   391.5745   6  30   0.0580   0.0508   0.0842  -0.0207  -0.0075  -0.0272   0.00    0.0
2026/01/15 01:14:00.000   67.857348086   20.968487848   391.5739   6  30   0.0578   0.0506   0.0838  -0.0207  -0.0070  -0.0273   0.00    0.0
2026/01/15 01:14:30.000   67.857348093   20.968487871   391.5713   6  31   0.0577   0.0504   0.0834  -0.0206  -0.0064  -0.0273   0.00    0.0
2026/01/15 01:15:00.000   67.857348111   20.968487871   391.5702   6  31   0.0575   0.0502   0.0829  -0.0206  -0.0059  -0.0274   0.00    0.0
2026/01/15 01:15:30.000   67.857348120   20.968487840   391.5690   6  30   0.0573   0.0501   0.0825  -0.0205  -0.0052  -0.0275   0.00    0.0
2026/01/15 01:16:00.000   67.857348127   20.968487922   391.5672   6  31   0.0572   0.0499   0.0821  -0.0204  -0.0046  -0.0275   0.00    0.0
2026/01/15 01:16:30.000   67.857348126   20.968487991   391.5669   6  31   0.0570   0.0497   0.0817  -0.0204  -0.0039  -0.0276   0.00    0.0
2026/01/15 01:17:00.000   67.857348160   20.968487966   391.5633   6  31   0.0568   0.0496   0.0814  -0.0203  -0.0030  -0.0276   0.00    0.0
2026/01/15 01:17:30.000   67.857348144   20.968487961   391.5617   6  31   0.0567   0.0494   0.0810  -0.0203  -0.0020  -0.0276   0.00    0.0
2026/01/15 01:18:00.000   67.857348157   20.968487951   391.5608   6  31   0.0565   0.0492   0.0806  -0.0202   0.0012  -0.0277   0.00    0.0
2026/01/15 01:18:30.000   67.857348160   20.968488008   391.5600   6  31   0.0563   0.0491   0.0803  -0.0201   0.0026  -0.0277   0.00    0.0
2026/01/15 01:19:00.000   67.857348154   20.968488016   391.5594   6  31   0.0562   0.0489   0.0798  -0.0201   0.0036  -0.0278   0.00    0.0
2026/01/15 01:19:30.000   67.857348162   20.968488051   391.5587   6  31   0.0560   0.0487   0.0794  -0.0200   0.0043  -0.0279   0.00    0.0
2026/01/15 01:20:00.000   67.857348180   20.968488044   391.5566   6  31   0.0558   0.0486   0.0790  -0.0200   0.0049  -0.0279   0.00    0.0
2026/01/15 01:20:30.000   67.857348180   20.968488020   391.5540   6  33   0.0557   0.0484   0.0786  -0.0199   0.0054  -0.0280   0.00    0.0
2026/01/15 01:21:00.000   67.857348180   20.968487940   391.5513   6  32   0.0555   0.0482   0.0782  -0.0198   0.0058  -0.0280   0.00    0.0
2026/01/15 01:21:30.000   67.857348198   20.968487942   391.5495   6  33   0.0553   0.0481   0.0778  -0.0198   0.0062  -0.0280   0.00    0.0
2026/01/15 01:22:00.000   67.857348214   20.968487878   391.5472   6  33   0.0551   0.0479   0.0774  -0.0197   0.0065  -0.0280   0.00    0.0
2026/01/15 01:22:30.000   67.857348248   20.968487808   391.5444   6  33   0.0550   0.0477   0.0770  -0.0196   0.0068  -0.0280   0.00    0.0
2026/01/15 01:23:00.000   67.857348255   20.968487752   391.5410   6  33   0.0548   0.0476   0.0766  -0.0196   0.0071  -0.0280   0.00    0.0
2026/01/15 01:23:30.000   67.857348277   20.968487698   391.5396   6  32   0.0546   0.0474   0.0762  -0.0195   0.0073  -0.0280   0.00    0.0
2026/01/15 01:24:00.000   67.857348305   20.968487594   391.5397   6  32   0.0544   0.0473   0.0758  -0.0195   0.0076  -0.0281   0.00    0.0
2026/01/15 01:24:30.000   67.857348320   20.968487534   391.5385   6  32   0.0543   0.0471   0.0754  -0.0194   0.0078  -0.0281   0.00    0.0
2026/01/15 01:25:00.000   67.857348332   20.968487453   391.5389   6  31   0.0541   0.0470   0.0750  -0.0194   0.0080  -0.0281   0.00    0.0
2026/01/15 01:25:30.000   67.857348331   20.968487414   391.5377   6  31   0.0539   0.0468   0.0746  -0.0193   0.0082  -0.0282   0.00    0.0
2026/01/15 01:26:00.000   67.857348328   20.968487318   391.5403   6  30   0.0537   0.0466   0.0742  -0.0193   0.0084  -0.0282   0.00    0.0
2026/01/15 01:26:30.000   67.857348326   20.968487315   391.5410   6  30   0.0536   0.0465   0.0739  -0.0192   0.0086  -0.0282   0.00    0.0
2026/01/15 01:27:00.000   67.857348340   20.968487263   391.5418   6  30   0.0534   0.0464   0.0735  -0.0192   0.0087  -0.0282   0.00    0.0
2026/01/15 01:27:30.000   67.857348345   20.968487246   391.5437   6  30   0.0533   0.0462   0.0732  -0.0191   0.0089  -0.0282   0.00    0.0
2026/01/15 01:28:00.000   67.857348360   20.968487157   391.5446   6  30   0.0531   0.0461   0.0729  -0.0191   0.0090  -0.0282   0.00    0.0
2026/01/15 01:28:30.000   67.857348373   20.968487129   391.5448   6  30   0.0529   0.0459   0.0725  -0.0190   0.0092  -0.0282   0.00    0.0
2026/01/15 01:29:00.000   67.857348365   20.968486984   391.5474   6  29   0.0528   0.0458   0.0721  -0.0190   0.0094  -0.0283   0.00    0.0
2026/01/15 01:29:30.000   67.857348360   20.968486949   391.5492   6  30   0.0526   0.0456   0.0718  -0.0190   0.0095  -0.0283   0.00    0.0
2026/01/15 01:30:00.000   67.857348365   20.968486893   391.5502   6  30   0.0524   0.0455   0.0714  -0.0189   0.0097  -0.0283   0.00    0.0
2026/01/15 01:30:30.000   67.857348391   20.968486821   391.5485   6  30   0.0523   0.0453   0.0710  -0.0189   0.0098  -0.0284   0.00    0.0
2026/01/15 01:31:00.000   67.857348398   20.968486809   391.5477   6  30   0.0521   0.0452   0.0706  -0.0189   0.0100  -0.0284   0.00    0.0
2026/01/15 01:31:30.000   67.857348400   20.968486735   391.5484   6  30   0.0520   0.0451   0.0703  -0.0188   0.0101  -0.0284   0.00    0.0
2026/01/15 01:32:00.000   67.857348397   20.968486663   391.5489   6  30   0.0518   0.0449   0.0700  -0.0188   0.0102  -0.0284   0.00    0.0
2026/01/15 01:32:30.000   67.857348400   20.968486600   391.5486   6  30   0.0516   0.0448   0.0696  -0.0188   0.0103  -0.0284   0.00    0.0
2026/01/15 01:33:00.000   67.857348416   20.968486556   391.5464   6  30   0.0515   0.0447   0.0693  -0.0187   0.0104  -0.0284   0.00    0.0
2026/01/15 01:33:30.000   67.857348436   20.968486511   391.5453   6  30   0.0513   0.0445   0.0690  -0.0187   0.0105  -0.0284   0.00    0.0
2026/01/15 01:34:00.000   67.857348458   20.968486409   391.5439   6  30   0.0512   0.0444   0.0686  -0.0187   0.0106  -0.0285   0.00    0.0
2026/01/15 01:34:30.000   67.857348474   20.968486423   391.5425   6  30   0.0510   0.0442   0.0682  -0.0187   0.0107  -0.0285   0.00    0.0
2026/01/15 01:35:00.000   67.857348466   20.968486361   391.5436   6  30   0.0508   0.0441   0.0679  -0.0186   0.0108  -0.0285   0.00    0.0
2026/01/15 01:35:30.000   67.857348456   20.968486377   391.5431   6  30   0.0507   0.0440   0.0675  -0.0186   0.0109  -0.0285   0.00    0.0
2026/01/15 01:36:00.000   67.857348469   20.968486278   391.5420   6  30   0.0505   0.0438   0.0671  -0.0186   0.0110  -0.0285   0.00    0.0
2026/01/15 01:36:30.000   67.857348475   20.968486237   391.5405   6  30   0.0503   0.0437   0.0668  -0.0186   0.0111  -0.0285   0.00    0.0
2026/01/15 01:37:00.000   67.857348495   20.968486152   391.5378   6  30   0.0502   0.0436   0.0665  -0.0186   0.0112  -0.0285   0.00    0.0
2026/01/15 01:37:30.000   67.857348487   20.968486074   391.5383   6  30   0.0500   0.0434   0.0662  -0.0185   0.0113  -0.0285   0.00    0.0
2026/01/15 01:38:00.000   67.857348477   20.968486077   391.5390   6  30   0.0499   0.0433   0.0658  -0.0185   0.0113  -0.0285   0.00    0.0
2026/01/15 01:38:30.000   67.857348475   20.968486013   391.5385   6  30   0.0497   0.0432   0.0655  -0.0185   0.0114  -0.0285   0.00    0.0
2026/01/15 01:39:00.000   67.857348490   20.968485938   391.5371   6  30   0.0496   0.0431   0.0651  -0.0185   0.0115  -0.0285   0.00    0.0
2026/01/15 01:39:30.000   67.857348504   20.968485863   391.5352   6  30   0.0494   0.0429   0.0648  -0.0185   0.0116  -0.0285   0.00    0.0
2026/01/15 01:40:00.000   67.857348509   20.968485826   391.5328   6  30   0.0492   0.0428   0.0644  -0.0185   0.0116  -0.0285   0.00    0.0
2026/01/15 01:40:30.000   67.857348519   20.968485727   391.5309   6  30   0.0491   0.0427   0.0641  -0.0184   0.0117  -0.0285   0.00    0.0
2026/01/15 01:41:00.000   67.857348510   20.968485682   391.5300   6  30   0.0489   0.0425   0.0637  -0.0184   0.0118  -0.0285   0.00    0.0
2026/01/15 01:41:30.000   67.857348507   20.968485631   391.5291   6  30   0.0487   0.0424   0.0634  -0.0184   0.0118  -0.0285   0.00    0.0
2026/01/15 01:42:00.000   67.857348529   20.968485566   391.5264   6  30   0.0486   0.0423   0.0631  -0.0184   0.0119  -0.0285   0.00    0.0
2026/01/15 01:42:30.000   67.857348541   20.968485517   391.5248   6  30   0.0484   0.0422   0.0628  -0.0184   0.0119  -0.0285   0.00    0.0
2026/01/15 01:43:00.000   67.857348545   20.968485446   391.5238   6  30   0.0483   0.0420   0.0624  -0.0184   0.0119  -0.0285   0.00    0.0
2026/01/15 01:43:30.000   67.857348556   20.968485397   391.5211   6  30   0.0481   0.0419   0.0621  -0.0183   0.0120  -0.0285   0.00    0.0
2026/01/15 01:44:00.000   67.857348560   20.968485375   391.5186   6  30   0.0480   0.0418   0.0618  -0.0183   0.0120  -0.0285   0.00    0.0
2026/01/15 01:44:30.000   67.857348578   20.968485299   391.5153   6  30   0.0478   0.0417   0.0614  -0.0183   0.0121  -0.0284   0.00    0.0
2026/01/15 01:45:00.000   67.857348602   20.968485225   391.5120   6  30   0.0477   0.0415   0.0611  -0.0183   0.0121  -0.0284   0.00    0.0
2026/01/15 01:45:30.000   67.857348616   20.968485150   391.5095   6  30   0.0475   0.0414   0.0607  -0.0183   0.0122  -0.0284   0.00    0.0
2026/01/15 01:46:00.000   67.857348638   20.968485048   391.5068   6  30   0.0473   0.0413   0.0604  -0.0183   0.0122  -0.0284   0.00    0.0
2026/01/15 01:46:30.000   67.857348655   20.968484939   391.5040   6  30   0.0472   0.0412   0.0601  -0.0182   0.0122  -0.0284   0.00    0.0
2026/01/15 01:47:00.000   67.857348660   20.968484894   391.5016   6  30   0.0471   0.0410   0.0598  -0.0182   0.0122  -0.0283   0.00    0.0
2026/01/15 01:47:30.000   67.857348671   20.968484804   391.4991   6  30   0.0469   0.0409   0.0595  -0.0182   0.0123  -0.0283   0.00    0.0
2026/01/15 01:48:00.000   67.857348671   20.968484786   391.4980   6  30   0.0468   0.0408   0.0592  -0.0182   0.0123  -0.0283   0.00    0.0
2026/01/15 01:48:30.000   67.857348683   20.968484700   391.4951   6  30   0.0466   0.0407   0.0589  -0.0182   0.0123  -0.0282   0.00    0.0
2026/01/15 01:49:00.000   67.857348695   20.968484628   391.4923   6  30   0.0465   0.0406   0.0586  -0.0182   0.0124  -0.0282   0.00    0.0
2026/01/15 01:49:30.000   67.857348697   20.968484574   391.4898   6  31   0.0463   0.0404   0.0583  -0.0181   0.0124  -0.0282   0.00    0.0
2026/01/15 01:50:00.000   67.857348707   20.968484517   391.4867   6  31   0.0461   0.0403   0.0579  -0.0181   0.0124  -0.0281   0.00    0.0
2026/01/15 01:50:30.000   67.857348717   20.968484453   391.4831   6  31   0.0460   0.0402   0.0576  -0.0181   0.0125  -0.0281   0.00    0.0
2026/01/15 01:51:00.000   67.857348730   20.968484390   391.4801   6  31   0.0458   0.0401   0.0573  -0.0181   0.0125  -0.0281   0.00    0.0
2026/01/15 01:51:30.000   67.857348743   20.968484304   391.4775   6  31   0.0457   0.0400   0.0570  -0.0181   0.0125  -0.0280   0.00    0.0
2026/01/15 01:52:00.000   67.857348764   20.968484218   391.4746   6  31   0.0455   0.0399   0.0567  -0.0181   0.0125  -0.0280   0.00    0.0
2026/01/15 01:52:30.000   67.857348764   20.968484162   391.4738   6  31   0.0454   0.0397   0.0564  -0.0180   0.0125  -0.0279   0.00    0.0
2026/01/15 01:53:00.000   67.857348773   20.968484064   391.4709   6  30   0.0452   0.0396   0.0561  -0.0180   0.0125  -0.0279   0.00    0.0
2026/01/15 01:53:30.000   67.857348776   20.968483940   391.4677   6  30   0.0451   0.0395   0.0558  -0.0180   0.0126  -0.0278   0.00    0.0
2026/01/15 01:54:00.000   67.857348792   20.968483858   391.4632   6  31   0.0449   0.0394   0.0555  -0.0180   0.0126  -0.0278   0.00    0.0
2026/01/15 01:54:30.000   67.857348804   20.968483744   391.4591   6  31   0.0447   0.0393   0.0552  -0.0180   0.0126  -0.0277   0.00    0.0
2026/01/15 01:55:00.000   67.857348831   20.968483669   391.4541   6  31   0.0446   0.0392   0.0549  -0.0180   0.0126  -0.0277   0.00    0.0
2026/01/15 01:55:30.000   67.857348848   20.968483595   391.4506   6  31   0.0444   0.0390   0.0546  -0.0179   0.0126  -0.0277   0.00    0.0
2026/01/15 01:56:00.000   67.857348865   20.968483502   391.4466   6  31   0.0443   0.0389   0.0543  -0.0179   0.0126  -0.0276   0.00    0.0
2026/01/15 01:56:30.000   67.857348876   20.968483463   391.4438   6  31   0.0441   0.0388   0.0540  -0.0179   0.0126  -0.0275   0.00    0.0
2026/01/15 01:57:00.000   67.857348889   20.968483390   391.4412   6  31   0.0440   0.0387   0.0537  -0.0179   0.0126  -0.0275   0.00    0.0
2026/01/15 01:57:30.000   67.857348889   20.968483332   391.4384   6  32   0.0438   0.0386   0.0534  -0.0179   0.0126  -0.0274   0.00    0.0
2026/01/15 01:58:00.000   67.857348909   20.968483254   391.4351   6  32   0.0437   0.0385   0.0532  -0.0178   0.0126  -0.0274   0.00    0.0
2026/01/15 01:58:30.000   67.857348925   20.968483140   391.4307   6  32   0.0435   0.0383   0.0529  -0.0178   0.0126  -0.0273   0.00    0.0
2026/01/15 01:59:00.000   67.857348934   20.968483032   391.4265   6  32   0.0433   0.0382   0.0526  -0.0178   0.0126  -0.0272   0.00    0.0
2026/01/15 01:59:30.000   67.857348947   20.968482941   391.4218   6  32   0.0432   0.0381   0.0523  -0.0178   0.0125  -0.0272   0.00    0.0
2026/01/15 02:00:00.000   67.857348953   20.968482836   391.4179   6  32   0.0430   0.0380   0.0520  -0.0177   0.0125  -0.0271   0.00    0.0
2026/01/15 02:00:30.000   67.857348987   20.968482698   391.4131   6  32   0.0428   0.0379   0.0517  -0.0177   0.0125  -0.0271   0.00    0.0
2026/01/15 02:01:00.000   67.857349013   20.968482595   391.4086   6  32   0.0427   0.0377   0.0514  -0.0177   0.0125  -0.0270   0.00    0.0
2026/01/15 02:01:30.000   67.857349029   20.968482499   391.4050   6  32   0.0425   0.0376   0.0511  -0.0176   0.0125  -0.0269   0.00    0.0
2026/01/15 02:02:00.000   67.857349056   20.968482387   391.4001   6  32   0.0424   0.0375   0.0508  -0.0176   0.0124  -0.0269   0.00    0.0
2026/01/15 02:02:30.000   67.857349083   20.968482293   391.3954   6  33   0.0422   0.0374   0.0506  -0.0176   0.0124  -0.0268   0.00    0.0
2026/01/15 02:03:00.000   67.857349106   20.968482212   391.3910   6  34   0.0421   0.0373   0.0503  -0.0175   0.0124  -0.0267   0.00    0.0
2026/01/15 02:03:30.000   67.857349128   20.968482110   391.3862   6  34   0.0419   0.0372   0.0500  -0.0175   0.0124  -0.0267   0.00    0.0
2026/01/15 02:04:00.000   67.857349147   20.968482006   391.3811   6  34   0.0418   0.0370   0.0498  -0.0175   0.0123  -0.0266   0.00    0.0
2026/01/15 02:04:30.000   67.857349177   20.968481888   391.3758   6  34   0.0416   0.0369   0.0495  -0.0174   0.0123  -0.0265   0.00    0.0
2026/01/15 02:05:00.000   67.857349193   20.968481790   391.3711   6  35   0.0414   0.0368   0.0492  -0.0174   0.0123  -0.0265   0.00    0.0
2026/01/15 02:05:30.000   67.857349214   20.968481688   391.3664   6  36   0.0413   0.0367   0.0489  -0.0174   0.0122  -0.0264   0.00    0.0
2026/01/15 02:06:00.000   67.857349226   20.968481588   391.3630   6  36   0.0411   0.0365   0.0486  -0.0173   0.0122  -0.0263   0.00    0.0
2026/01/15 02:06:30.000   67.857349249   20.968481486   391.3582   6  36   0.0410   0.0364   0.0484  -0.0173   0.0121  -0.0262   0.00    0.0
2026/01/15 02:07:00.000   67.857349262   20.968481372   391.3542   6  36   0.0408   0.0363   0.0481  -0.0172   0.0121  -0.0262   0.00    0.0
2026/01/15 02:07:30.000   67.857349285   20.968481234   391.3500   6  36   0.0407   0.0362   0.0479  -0.0172   0.0121  -0.0261   0.00    0.0
2026/01/15 02:08:00.000   67.857349313   20.968481101   391.3446   6  36   0.0405   0.0361   0.0477  -0.0172   0.0120  -0.0260   0.00    0.0
2026/01/15 02:08:30.000   67.857349340   20.968480968   391.3398   6  37   0.0404   0.0359   0.0474  -0.0171   0.0120  -0.0260   0.00    0.0
2026/01/15 02:09:00.000   67.857349362   20.968480870   391.3357   6  37   0.0402   0.0358   0.0471  -0.0171   0.0119  -0.0259   0.00    0.0
2026/01/15 02:09:30.000   67.857349379   20.968480728   391.3300   6  37   0.0400   0.0357   0.0469  -0.0170   0.0119  -0.0258   0.00    0.0
2026/01/15 02:10:00.000   67.857349401   20.968480584   391.3244   6  37   0.0399   0.0356   0.0466  -0.0170   0.0118  -0.0257   0.00    0.0
2026/01/15 02:10:30.000   67.857349404   20.968480452   391.3191   6  37   0.0397   0.0354   0.0463  -0.0170   0.0118  -0.0257   0.00    0.0
2026/01/15 02:11:00.000   67.857349412   20.968480370   391.3149   6  37   0.0396   0.0353   0.0461  -0.0169   0.0118  -0.0256   0.00    0.0
2026/01/15 02:11:30.000   67.857349439   20.968480248   391.3092   6  37   0.0394   0.0352   0.0458  -0.0169   0.0117  -0.0255   0.00    0.0
2026/01/15 02:12:00.000   67.857349460   20.968480125   391.3059   6  36   0.0393   0.0351   0.0457  -0.0169   0.0117  -0.0255   0.00    0.0
2026/01/15 02:12:30.000   67.857349477   20.968479995   391.3032   6  36   0.0391   0.0350   0.0455  -0.0168   0.0116  -0.0254   0.00    0.0
2026/01/15 02:13:00.000   67.857349500   20.968479865   391.3005   6  36   0.0390   0.0349   0.0453  -0.0168   0.0116  -0.0253   0.00    0.0
2026/01/15 02:13:30.000   67.857349519   20.968479753   391.2973   6  36   0.0389   0.0348   0.0452  -0.0168   0.0116  -0.0252   0.00    0.0
2026/01/15 02:14:00.000   67.857349543   20.968479602   391.2927   6  36   0.0387   0.0346   0.0450  -0.0167   0.0115  -0.0252   0.00    0.0
2026/01/15 02:14:30.000   67.857349562   20.968479474   391.2888   6  37   0.0385   0.0345   0.0448  -0.0167   0.0115  -0.0251   0.00    0.0
2026/01/15 02:15:00.000   67.857349581   20.968479369   391.2846   6  37   0.0384   0.0344   0.0446  -0.0166   0.0114  -0.0250   0.00    0.0
2026/01/15 02:15:30.000   67.857349601   20.968479228   391.2811   6  37   0.0382   0.0343   0.0444  -0.0166   0.0114  -0.0249   0.00    0.0
2026/01/15 02:16:00.000   67.857349617   20.968479103   391.2776   6  37   0.0381   0.0342   0.0442  -0.0165   0.0114  -0.0248   0.00    0.0
2026/01/15 02:16:30.000   67.857349647   20.968478942   391.2728   6  37   0.0379   0.0340   0.0440  -0.0165   0.0113  -0.0248   0.00    0.0
2026/01/15 02:17:00.000   67.857349668   20.968478827   391.2697   6  37   0.0378   0.0339   0.0439  -0.0165   0.0113  -0.0247   0.00    0.0
2026/01/15 02:17:30.000   67.857349693   20.968478725   391.2662   6  37   0.0377   0.0338   0.0437  -0.0164   0.0112  -0.0246   0.00    0.0
2026/01/15 02:18:00.000   67.857349714   20.968478628   391.2633   6  37   0.0375   0.0337   0.0435  -0.0164   0.0112  -0.0245   0.00    0.0
2026/01/15 02:18:30.000   67.857349737   20.968478507   391.2596   6  37   0.0374   0.0336   0.0434  -0.0163   0.0111  -0.0245   0.00    0.0
2026/01/15 02:19:00.000   67.857349755   20.968478398   391.2568   6  37   0.0372   0.0335   0.0432  -0.0163   0.0111  -0.0244   0.00    0.0
2026/01/15 02:19:30.000   67.857349780   20.968478285   391.2526   6  37   0.0371   0.0334   0.0430  -0.0162   0.0110  -0.0243   0.00    0.0
2026/01/15 02:20:00.000   67.857349808   20.968478145   391.2487   6  37   0.0369   0.0332   0.0428  -0.0162   0.0110  -0.0242   0.00    0.0
2026/01/15 02:20:30.000   67.857349830   20.968478010   391.2446   6  37   0.0368   0.0331   0.0426  -0.0161   0.0109  -0.0242   0.00    0.0
2026/01/15 02:21:00.000   67.857349845   20.968477873   391.2410   6  37   0.0366   0.0330   0.0424  -0.0161   0.0109  -0.0241   0.00    0.0
2026/01/15 02:21:30.000   67.857349863   20.968477747   391.2376   6  37   0.0365   0.0329   0.0423  -0.0160   0.0108  -0.0240   0.00    0.0
2026/01/15 02:22:00.000   67.857349892   20.968477627   391.2336   6  37   0.0364   0.0328   0.0421  -0.0160   0.0108  -0.0239   0.00    0.0
2026/01/15 02:22:30.000   67.857349917   20.968477517   391.2298   6  37   0.0362   0.0327   0.0419  -0.0159   0.0108  -0.0238   0.00    0.0
2026/01/15 02:23:00.000   67.857349934   20.968477429   391.2260   6  37   0.0361   0.0326   0.0418  -0.0159   0.0107  -0.0238   0.00    0.0
2026/01/15 02:23:30.000   67.857349959   20.968477321   391.2226   6  37   0.0360   0.0325   0.0416  -0.0159   0.0107  -0.0237   0.00    0.0
2026/01/15 02:24:00.000   67.857349975   20.968477194   391.2194   6  37   0.0359   0.0324   0.0414  -0.0158   0.0107  -0.0237   0.00    0.0
2026/01/15 02:24:30.000   67.857349985   20.968477080   391.2170   6  37   0.0357   0.0322   0.0413  -0.0158   0.0106  -0.0236   0.00    0.0
2026/01/15 02:25:00.000   67.857350003   20.968476941   391.2139   6  37   0.0356   0.0321   0.0411  -0.0158   0.0106  -0.0235   0.00    0.0
2026/01/15 02:25:30.000   67.857350009   20.968476854   391.2115   6  37   0.0355   0.0320   0.0409  -0.0157   0.0106  -0.0235   0.00    0.0
2026/01/15 02:26:00.000   67.857350028   20.968476729   391.2082   6  37   0.0353   0.0319   0.0407  -0.0157   0.0106  -0.0234   0.00    0.0
2026/01/15 02:26:30.000   67.857350053   20.968476603   391.2047   6  37   0.0352   0.0318   0.0406  -0.0157   0.0105  -0.0233   0.00    0.0
2026/01/15 02:27:00.000   67.857350075   20.968476492   391.2016   6  35   0.0351   0.0317   0.0404  -0.0156   0.0105  -0.0233   0.00    0.0
2026/01/15 02:27:30.000   67.857350091   20.968476406   391.1989   6  34   0.0350   0.0316   0.0403  -0.0156   0.0105  -0.0232   0.00    0.0
2026/01/15 02:28:00.000   67.857350102   20.968476293   391.1963   6  34   0.0349   0.0315   0.0401  -0.0156   0.0105  -0.0232   0.00    0.0
2026/01/15 02:28:30.000   67.857350114   20.968476183   391.1940   6  34   0.0347   0.0314   0.0400  -0.0155   0.0104  -0.0231   0.00    0.0
2026/01/15 02:29:00.000   67.857350127   20.968476079   391.1910   6  34   0.0346   0.0313   0.0398  -0.0155   0.0104  -0.0231   0.00    0.0
2026/01/15 02:29:30.000   67.857350140   20.968475960   391.1890   6  33   0.0345   0.0312   0.0397  -0.0154   0.0104  -0.0230   0.00    0.0
2026/01/15 02:30:00.000   67.857350156   20.968475838   391.1868   6  34   0.0344   0.0311   0.0395  -0.0154   0.0104  -0.0230   0.00    0.0
2026/01/15 02:30:30.000   67.857350185   20.968475719   391.1838   6  34   0.0342   0.0310   0.0394  -0.0154   0.0103  -0.0229   0.00    0.0
2026/01/15 02:31:00.000   67.857350211   20.968475609   391.1816   6  34   0.0341   0.0308   0.0393  -0.0153   0.0103  -0.0228   0.00    0.0
2026/01/15 02:31:30.000   67.857350238   20.968475476   391.1793   6  34   0.0340   0.0307   0.0391  -0.0153   0.0103  -0.0228   0.00    0.0
2026/01/15 02:32:00.000   67.857350256   20.968475365   391.1773   6  34   0.0339   0.0306   0.0390  -0.0152   0.0103  -0.0227   0.00    0.0
2026/01/15 02:32:30.000   67.857350271   20.968475267   391.1752   6  34   0.0338   0.0305   0.0389  -0.0152   0.0103  -0.0227   0.00    0.0
2026/01/15 02:33:00.000   67.857350285   20.968475172   391.1736   6  34   0.0337   0.0304   0.0388  -0.0151   0.0102  -0.0226   0.00    0.0
2026/01/15 02:33:30.000   67.857350303   20.968475042   391.1713   6  34   0.0336   0.0303   0.0386  -0.0151   0.0102  -0.0226   0.00    0.0
2026/01/15 02:34:00.000   67.857350317   20.968474945   391.1705   6  33   0.0334   0.0302   0.0385  -0.0151   0.0102  -0.0225   0.00    0.0
2026/01/15 02:34:30.000   67.857350347   20.968474808   391.1685   6  33   0.0333   0.0301   0.0384  -0.0150   0.0102  -0.0224   0.00    0.0
2026/01/15 02:35:00.000   67.857350368   20.968474677   391.1671   6  33   0.0332   0.0300   0.0383  -0.0150   0.0102  -0.0224   0.00    0.0
2026/01/15 02:35:30.000   67.857350397   20.968474536   391.1649   6  33   0.0331   0.0299   0.0381  -0.0149   0.0102  -0.0223   0.00    0.0
2026/01/15 02:36:00.000   67.857350421   20.968474432   391.1634   6  33   0.0330   0.0298   0.0380  -0.0149   0.0102  -0.0222   0.00    0.0
2026/01/15 02:36:30.000   67.857350435   20.968474320   391.1620   6  33   0.0328   0.0297   0.0379  -0.0148   0.0102  -0.0222   0.00    0.0
2026/01/15 02:37:00.000   67.857350449   20.968474227   391.1609   6  33   0.0327   0.0296   0.0378  -0.0148   0.0102  -0.0221   0.00    0.0
2026/01/15 02:37:30.000   67.857350466   20.968474146   391.1596   6  33   0.0326   0.0295   0.0377  -0.0147   0.0102  -0.0221   0.00    0.0
2026/01/15 02:38:00.000   67.857350488   20.968474044   391.1579   6  33   0.0325   0.0294   0.0376  -0.0147   0.0102  -0.0220   0.00    0.0
2026/01/15 02:38:30.000   67.857350506   20.968473921   391.1567   6  33   0.0324   0.0293   0.0375  -0.0146   0.0102  -0.0219   0.00    0.0
2026/01/15 02:39:00.000   67.857350531   20.968473806   391.1547   6  33   0.0323   0.0292   0.0374  -0.0146   0.0102  -0.0219   0.00    0.0
2026/01/15 02:39:30.000   67.857350554   20.968473690   391.1529   6  33   0.0322   0.0291   0.0372  -0.0145   0.0102  -0.0218   0.00    0.0
2026/01/15 02:40:00.000   67.857350572   20.968473552   391.1513   6  33   0.0320   0.0290   0.0371  -0.0145   0.0101  -0.0217   0.00    0.0
2026/01/15 02:40:30.000   67.857350599   20.968473431   391.1490   6  32   0.0319   0.0289   0.0370  -0.0144   0.0101  -0.0217   0.00    0.0
2026/01/15 02:41:00.000   67.857350621   20.968473325   391.1471   6  32   0.0318   0.0288   0.0369  -0.0144   0.0101  -0.0216   0.00    0.0
2026/01/15 02:41:30.000   67.857350642   20.968473211   391.1453   6  32   0.0317   0.0287   0.0368  -0.0143   0.0101  -0.0216   0.00    0.0
2026/01/15 02:42:00.000   67.857350663   20.968473097   391.1433   6  32   0.0316   0.0286   0.0367  -0.0143   0.0101  -0.0215   0.00    0.0
2026/01/15 02:42:30.000   67.857350681   20.968473000   391.1413   6  32   0.0315   0.0285   0.0366  -0.0142   0.0101  -0.0215   0.00    0.0
2026/01/15 02:43:00.000   67.857350698   20.968472888   391.1394   6  32   0.0314   0.0284   0.0365  -0.0142   0.0101  -0.0214   0.00    0.0
2026/01/15 02:43:30.000   67.857350715   20.968472780   391.1377   6  32   0.0313   0.0283   0.0363  -0.0141   0.0100  -0.0213   0.00    0.0
2026/01/15 02:44:00.000   67.857350744   20.968472667   391.1352   6  32   0.0312   0.0282   0.0362  -0.0141   0.0100  -0.0213   0.00    0.0
2026/01/15 02:44:30.000   67.857350769   20.968472546   391.1331   6  32   0.0310   0.0281   0.0361  -0.0140   0.0100  -0.0212   0.00    0.0
2026/01/15 02:45:00.000   67.857350786   20.968472429   391.1314   6  31   0.0309   0.0280   0.0360  -0.0140   0.0100  -0.0212   0.00    0.0
2026/01/15 02:45:30.000   67.857350807   20.968472307   391.1296   6  32   0.0308   0.0279   0.0359  -0.0139   0.0100  -0.0211   0.00    0.0
2026/01/15 02:46:00.000   67.857350832   20.968472209   391.1277   6  32   0.0307   0.0278   0.0357  -0.0138   0.0100  -0.0210   0.00    0.0
2026/01/15 02:46:30.000   67.857350860   20.968472076   391.1254   6  32   0.0306   0.0277   0.0356  -0.0138   0.0099  -0.0210   0.00    0.0
2026/01/15 02:47:00.000   67.857350884   20.968471976   391.1233   6  32   0.0305   0.0276   0.0355  -0.0137   0.0099  -0.0209   0.00    0.0
2026/01/15 02:47:30.000   67.857350908   20.968471870   391.1210   6  32   0.0304   0.0275   0.0354  -0.0137   0.0099  -0.0209   0.00    0.0
2026/01/15 02:48:00.000   67.857350926   20.968471763   391.1190   6  32   0.0303   0.0274   0.0353  -0.0136   0.0099  -0.0208   0.00    0.0
2026/01/15 02:48:30.000   67.857350951   20.968471634   391.1168   6  32   0.0302   0.0273   0.0352  -0.0136   0.0099  -0.0207   0.00    0.0
2026/01/15 02:49:00.000   67.857350977   20.968471514   391.1142   6  32   0.0301   0.0272   0.0351  -0.0135   0.0098  -0.0207   0.00    0.0
2026/01/15 02:49:30.000   67.857351004   20.968471400   391.1119   6  32   0.0300   0.0271   0.0350  -0.0135   0.0098  -0.0206   0.00    0.0
2026/01/15 02:50:00.000   67.857351027   20.968471264   391.1096   6  32   0.0298   0.0270   0.0348  -0.0134   0.0098  -0.0206   0.00    0.0
2026/01/15 02:50:30.000   67.857351046   20.968471144   391.1074   6  32   0.0297   0.0269   0.0347  -0.0134   0.0098  -0.0205   0.00    0.0
2026/01/15 02:51:00.000   67.857351063   20.968471050   391.1059   6  32   0.0296   0.0268   0.0346  -0.0133   0.0097  -0.0204   0.00    0.0
2026/01/15 02:51:30.000   67.857351084   20.968470948   391.1042   6  32   0.0295   0.0267   0.0345  -0.0132   0.0097  -0.0204   0.00    0.0
2026/01/15 02:52:00.000   67.857351102   20.968470846   391.1026   6  32   0.0294   0.0266   0.0344  -0.0132   0.0097  -0.0203   0.00    0.0
2026/01/15 02:52:30.000   67.857351123   20.968470741   391.1006   6  32   0.0293   0.0266   0.0343  -0.0131   0.0096  -0.0203   0.00    0.0
2026/01/15 02:53:00.000   67.857351138   20.968470652   391.0991   6  32   0.0292   0.0265   0.0342  -0.0131   0.0096  -0.0202   0.00    0.0
2026/01/15 02:53:30.000   67.857351162   20.968470549   391.0969   6  32   0.0291   0.0264   0.0341  -0.0130   0.0096  -0.0202   0.00    0.0
2026/01/15 02:54:00.000   67.857351189   20.968470432   391.0947   6  32   0.0290   0.0263   0.0339  -0.0130   0.0096  -0.0201   0.00    0.0
2026/01/15 02:54:30.000   67.857351217   20.968470335   391.0921   6  32   0.0289   0.0262   0.0338  -0.0129   0.0095  -0.0200   0.00    0.0
2026/01/15 02:55:00.000   67.857351234   20.968470244   391.0899   6  32   0.0288   0.0261   0.0337  -0.0129   0.0095  -0.0200   0.00    0.0
2026/01/15 02:55:30.000   67.857351255   20.968470127   391.0877   6  32   0.0287   0.0260   0.0336  -0.0128   0.0095  -0.0199   0.00    0.0
2026/01/15 02:56:00.000   67.857351276   20.968470012   391.0855   6  32   0.0286   0.0259   0.0335  -0.0127   0.0094  -0.0199   0.00    0.0
2026/01/15 02:56:30.000   67.857351298   20.968469892   391.0832   6  32   0.0285   0.0258   0.0334  -0.0127   0.0094  -0.0198   0.00    0.0
2026/01/15 02:57:00.000   67.857351317   20.968469784   391.0810   6  32   0.0284   0.0257   0.0333  -0.0126   0.0094  -0.0198   0.00    0.0
2026/01/15 02:57:30.000   67.857351337   20.968469697   391.0787   6  33   0.0283   0.0256   0.0332  -0.0126   0.0094  -0.0197   0.00    0.0
2026/01/15 02:58:00.000   67.857351353   20.968469606   391.0769   6  32   0.0282   0.0256   0.0330  -0.0125   0.0093  -0.0197   0.00    0.0
2026/01/15 02:58:30.000   67.857351373   20.968469525   391.0744   6  33   0.0281   0.0255   0.0329  -0.0125   0.0093  -0.0196   0.00    0.0
2026/01/15 02:59:00.000   67.857351392   20.968469442   391.0723   6  33   0.0280   0.0254   0.0328  -0.0124   0.0093  -0.0195   0.00    0.0
2026/01/15 02:59:30.000   67.857351415   20.968469331   391.0697   6  33   0.0279   0.0253   0.0327  -0.0123   0.0092  -0.0195   0.00    0.0
2026/01/15 03:00:00.000   67.857351429   20.968469236   391.0680   6  33   0.0278   0.0252   0.0326  -0.0123   0.0092  -0.0194   0.00    0.0
2026/01/15 03:00:30.000   67.857351449   20.968469124   391.0660   6  33   0.0277   0.0251   0.0325  -0.0122   0.0091  -0.0194   0.00    0.0
2026/01/15 03:01:00.000   67.857351465   20.968469015   391.0639   6  33   0.0276   0.0250   0.0323  -0.0122   0.0091  -0.0193   0.00    0.0
2026/01/15 03:01:30.000   67.857351480   20.968468926   391.0620   6  33   0.0275   0.0249   0.0322  -0.0121   0.0091  -0.0192   0.00    0.0
2026/01/15 03:02:00.000   67.857351499   20.968468832   391.0599   6  33   0.0274   0.0248   0.0321  -0.0120   0.0090  -0.0192   0.00    0.0
2026/01/15 03:02:30.000   67.857351521   20.968468744   391.0575   6  33   0.0273   0.0247   0.0320  -0.0120   0.0090  -0.0191   0.00    0.0
2026/01/15 03:03:00.000   67.857351538   20.968468656   391.0553   6  33   0.0272   0.0247   0.0319  -0.0119   0.0089  -0.0191   0.00    0.0
2026/01/15 03:03:30.000   67.857351556   20.968468559   391.0530   6  33   0.0271   0.0246   0.0318  -0.0119   0.0089  -0.0190   0.00    0.0
2026/01/15 03:04:00.000   67.857351572   20.968468460   391.0511   6  33   0.0270   0.0245   0.0317  -0.0118   0.0089  -0.0190   0.00    0.0
2026/01/15 03:04:30.000   67.857351591   20.968468372   391.0487   6  33   0.0269   0.0244   0.0316  -0.0117   0.0088  -0.0189   0.00    0.0
2026/01/15 03:05:00.000   67.857351609   20.968468274   391.0466   6  33   0.0268   0.0243   0.0315  -0.0117   0.0088  -0.0188   0.00    0.0
2026/01/15 03:05:30.000   67.857351630   20.968468165   391.0440   6  33   0.0267   0.0242   0.0314  -0.0116   0.0087  -0.0188   0.00    0.0
2026/01/15 03:06:00.000   67.857351648   20.968468068   391.0416   6  33   0.0266   0.0241   0.0312  -0.0116   0.0087  -0.0187   0.00    0.0
2026/01/15 03:06:30.000   67.857351663   20.968467988   391.0393   6  34   0.0265   0.0240   0.0311  -0.0115   0.0086  -0.0187   0.00    0.0
2026/01/15 03:07:00.000   67.857351682   20.968467898   391.0366   6  34   0.0264   0.0239   0.0310  -0.0114   0.0086  -0.0186   0.00    0.0
2026/01/15 03:07:30.000   67.857351700   20.968467805   391.0345   6  34   0.0263   0.0239   0.0309  -0.0114   0.0085  -0.0186   0.00    0.0
2026/01/15 03:08:00.000   67.857351714   20.968467725   391.0326   6  34   0.0262   0.0238   0.0308  -0.0113   0.0085  -0.0185   0.00    0.0
2026/01/15 03:08:30.000   67.857351728   20.968467652   391.0301   6  34   0.0261   0.0237   0.0307  -0.0113   0.0085  -0.0184   0.00    0.0
2026/01/15 03:09:00.000   67.857351745   20.968467567   391.0272   6  34   0.0260   0.0236   0.0306  -0.0112   0.0084  -0.0184   0.00    0.0
2026/01/15 03:09:30.000   67.857351764   20.968467471   391.0247   6  34   0.0259   0.0235   0.0305  -0.0112   0.0084  -0.0183   0.00    0.0
2026/01/15 03:10:00.000   67.857351780   20.968467380   391.0221   6  34   0.0258   0.0235   0.0304  -0.0111   0.0083  -0.0183   0.00    0.0
2026/01/15 03:10:30.000   67.857351802   20.968467289   391.0198   6  33   0.0257   0.0234   0.0303  -0.0111   0.0083  -0.0182   0.00    0.0
2026/01/15 03:11:00.000   67.857351821   20.968467190   391.0174   6  33   0.0256   0.0233   0.0302  -0.0110   0.0082  -0.0181   0.00    0.0
2026/01/15 03:11:30.000   67.857351836   20.968467108   391.0155   6  33   0.0256   0.0232   0.0301  -0.0109   0.0082  -0.0181   0.00    0.0
2026/01/15 03:12:00.000   67.857351850   20.968467038   391.0139   6  33   0.0255   0.0231   0.0300  -0.0109   0.0082  -0.0180   0.00    0.0
2026/01/15 03:12:30.000   67.857351865   20.968466970   391.0119   6  33   0.0254   0.0231   0.0299  -0.0108   0.0081  -0.0180   0.00    0.0
2026/01/15 03:13:00.000   67.857351881   20.968466893   391.0099   6  33   0.0253   0.0230   0.0298  -0.0108   0.0081  -0.0179   0.00    0.0
2026/01/15 03:13:30.000   67.857351894   20.968466823   391.0081   6  33   0.0252   0.0229   0.0297  -0.0107   0.0081  -0.0179   0.00    0.0
2026/01/15 03:14:00.000   67.857351910   20.968466740   391.0060   6  33   0.0251   0.0228   0.0296  -0.0107   0.0080  -0.0178   0.00    0.0
2026/01/15 03:14:30.000   67.857351932   20.968466656   391.0035   6  33   0.0250   0.0228   0.0295  -0.0106   0.0080  -0.0177   0.00    0.0
2026/01/15 03:15:00.000   67.857351953   20.968466573   391.0011   6  33   0.0249   0.0227   0.0294  -0.0105   0.0079  -0.0177   0.00    0.0
2026/01/15 03:15:30.000   67.857351969   20.968466502   390.9991   6  32   0.0248   0.0226   0.0293  -0.0105   0.0079  -0.0176   0.00    0.0
2026/01/15 03:16:00.000   67.857351984   20.968466420   390.9969   6  32   0.0248   0.0225   0.0292  -0.0104   0.0079  -0.0175   0.00    0.0
2026/01/15 03:16:30.000   67.857351999   20.968466351   390.9948   6  32   0.0247   0.0225   0.0291  -0.0104   0.0078  -0.0175   0.00    0.0
2026/01/15 03:17:00.000   67.857352014   20.968466279   390.9927   6  32   0.0246   0.0224   0.0290  -0.0103   0.0078  -0.0174   0.00    0.0
2026/01/15 03:17:30.000   67.857352028   20.968466198   390.9909   6  31   0.0245   0.0223   0.0289  -0.0103   0.0077  -0.0174   0.00    0.0
2026/01/15 03:18:00.000   67.857352042   20.968466128   390.9889   6  31   0.0244   0.0223   0.0289  -0.0102   0.0077  -0.0173   0.00    0.0
2026/01/15 03:18:30.000   67.857352063   20.968466046   390.9866   6  30   0.0243   0.0222   0.0288  -0.0102   0.0076  -0.0173   0.00    0.0
2026/01/15 03:19:00.000   67.857352082   20.968465964   390.9844   6  30   0.0243   0.0221   0.0287  -0.0101   0.0075  -0.0172   0.00    0.0
2026/01/15 03:19:30.000   67.857352096   20.968465882   390.9829   6  31   0.0242   0.0220   0.0286  -0.0100   0.0075  -0.0171   0.00    0.0
2026/01/15 03:20:00.000   67.857352116   20.968465804   390.9808   6  31   0.0241   0.0220   0.0286  -0.0100   0.0074  -0.0171   0.00    0.0
2026/01/15 03:20:30.000   67.857352137   20.968465727   390.9785   6  31   0.0240   0.0219   0.0285  -0.0099   0.0073  -0.0170   0.00    0.0
2026/01/15 03:21:00.000   67.857352156   20.968465662   390.9764   6  32   0.0239   0.0218   0.0284  -0.0099   0.0073  -0.0169   0.00    0.0
2026/01/15 03:21:30.000   67.857352179   20.968465597   390.9739   6  32   0.0238   0.0218   0.0283  -0.0098   0.0072  -0.0169   0.00    0.0
2026/01/15 03:22:00.000   67.857352198   20.968465536   390.9718   6  32   0.0237   0.0217   0.0283  -0.0097   0.0072  -0.0168   0.00    0.0
2026/01/15 03:22:30.000   67.857352220   20.968465478   390.9693   6  32   0.0237   0.0216   0.0282  -0.0097   0.0071  -0.0168   0.00    0.0
2026/01/15 03:23:00.000   67.857352237   20.968465414   390.9673   6  32   0.0236   0.0216   0.0281  -0.0096   0.0070  -0.0167   0.00    0.0
2026/01/15 03:23:30.000   67.857352257   20.968465349   390.9652   6  32   0.0235   0.0215   0.0281  -0.0096   0.0070  -0.0166   0.00    0.0
2026/01/15 03:24:00.000   67.857352281   20.968465266   390.9627   6  33   0.0234   0.0214   0.0280  -0.0095   0.0069  -0.0166   0.00    0.0
2026/01/15 03:24:30.000   67.857352307   20.968465193   390.9599   6  33   0.0233   0.0214   0.0279  -0.0095   0.0068  -0.0165   0.00    0.0
2026/01/15 03:25:00.000   67.857352325   20.968465120   390.9579   6  33   0.0232   0.0213   0.0278  -0.0094   0.0068  -0.0164   0.00    0.0
2026/01/15 03:25:30.000   67.857352343   20.968465048   390.9557   6  33   0.0231   0.0212   0.0278  -0.0093   0.0067  -0.0164   0.00    0.0
2026/01/15 03:26:00.000   67.857352361   20.968464982   390.9535   6  33   0.0231   0.0211   0.0277  -0.0093   0.0066  -0.0163   0.00    0.0
2026/01/15 03:26:30.000   67.857352377   20.968464912   390.9517   6  33   0.0230   0.0211   0.0276  -0.0092   0.0066  -0.0163   0.00    0.0
2026/01/15 03:27:00.000   67.857352396   20.968464848   390.9495   6  33   0.0229   0.0210   0.0276  -0.0092   0.0065  -0.0162   0.00    0.0
2026/01/15 03:27:30.000   67.857352410   20.968464781   390.9479   6  33   0.0228   0.0210   0.0275  -0.0091   0.0065  -0.0161   0.00    0.0
