% program   : RTKLIB ver.EX 2.5.0
% inp file  : C:\PPP_PROJECT\RTKLIB_work\runs\HKWS_1A_20260508_102907\HKWS00HKG_R_20260150000_01D_30S_MO.rnx
% inp file  : C:\PPP_PROJECT\RTKLIB_work\runs\HKWS_1A_20260508_102907\BRDC00IGS_R_20260150000_01D_MN.rnx
% inp file  : C:\PPP_PROJECT\RTKLIB_work\runs\HKWS_1A_20260508_102907
% inp file  : C:\PPP_PROJECT\RTKLIB_work\runs\HKWS_1A_20260508_102907
% inp file  : C:\PPP_PROJECT\RTKLIB_work\runs\HKWS_1A_20260508_102907
% inp file  : C:\PPP_PROJECT\RTKLIB_work\runs\HKWS_1A_20260508_102907
% obs start : 2026/01/15 00:00:00.0 GPST (week2401 345600.0s)
% obs end   : 2026/01/15 23:59:30.0 GPST (week2401 431970.0s)
% pos mode  : PPP Static
% freqs     : L1+L2/E5b
% solution  : Forward
% elev mask : 15.0 deg
% dynamics  : on
% tidecorr  :
% ionos opt : Broadcast
% tropo opt : Saastamoinen
% ephemeris : Broadcast
% navi sys  : GPS
% antenna1  :                       ( 0.0000  0.0000  0.0000)
%
% (lat/lon/height=WGS84/ellipsoidal,Q=1:fix,2:float,3:sbas,4:dgps,5:single,6:ppp,ns=# of satellites)
%  GPST                  latitude(deg) longitude(deg)  height(m)   Q  ns   sdn(m)   sde(m)   sdu(m)  sdne(m)  sdeu(m)  sdun(m) age(s)  ratio
2026/01/15 00:55:30.000   22.434308617  114.335371249    56.8095   6   4   0.2002   0.2257   0.5082  -0.0763   0.1253  -0.0607   0.00    0.0
2026/01/15 00:56:00.000   22.434308573  114.335371371    56.8082   6   4   0.1996   0.2247   0.5064  -0.0758   0.1245  -0.0585   0.00    0.0
2026/01/15 00:57:00.000   22.434308498  114.335371603    56.8074   6   4   0.1985   0.2228   0.5030  -0.0747   0.1230  -0.0540   0.00    0.0
2026/01/15 00:57:30.000   22.434308458  114.335371719    56.8071   6   4   0.1979   0.2218   0.5013  -0.0742   0.1222  -0.0517   0.00    0.0
2026/01/15 00:58:00.000   22.434308417  114.335371838    56.8071   6   4   0.1973   0.2209   0.4996  -0.0737   0.1215  -0.0494   0.00    0.0
2026/01/15 00:59:30.000   22.434308286  114.335372208    56.8078   6   4   0.1957   0.2182   0.4948  -0.0723   0.1195  -0.0422   0.00    0.0
2026/01/15 01:09:30.000   22.434307236  114.335374277    56.8442   6   4   0.1862   0.2027   0.4675  -0.0646   0.1108   0.0363   0.00    0.0
2026/01/15 01:10:00.000   22.434307198  114.335374360    56.8426   6   4   0.1858   0.2020   0.4662  -0.0642   0.1105   0.0377   0.00    0.0
2026/01/15 01:10:30.000   22.434307160  114.335374443    56.8420   6   4   0.1854   0.2013   0.4650  -0.0639   0.1103   0.0389   0.00    0.0
2026/01/15 01:11:00.000   22.434307123  114.335374528    56.8425   6   4   0.1849   0.2007   0.4638  -0.0636   0.1100   0.0401   0.00    0.0
2026/01/15 13:59:00.000   22.434305789  114.335383046    63.9991   6   4   0.0602   0.0602   0.1537  -0.0169   0.0257  -0.0215   0.00    0.0
2026/01/15 13:59:30.000   22.434305741  114.335383036    63.9948   6   4   0.0602   0.0601   0.1537  -0.0169   0.0257  -0.0216   0.00    0.0
2026/01/15 14:00:00.000   22.434305693  114.335383026    63.9904   6   4   0.0601   0.0601   0.1536  -0.0169   0.0258  -0.0218   0.00    0.0
2026/01/15 14:00:30.000   22.434305644  114.335383016    63.9859   6   4   0.0601   0.0601   0.1535  -0.0169   0.0258  -0.0219   0.00    0.0
2026/01/15 14:01:00.000   22.434305596  114.335383005    63.9812   6   4   0.0601   0.0600   0.1535  -0.0169   0.0259  -0.0221   0.00    0.0
2026/01/15 14:01:30.000   22.434305547  114.335382994    63.9768   6   4   0.0600   0.0600   0.1534  -0.0168   0.0259  -0.0222   0.00    0.0
2026/01/15 14:02:00.000   22.434305499  114.335382983    63.9724   6   4   0.0600   0.0599   0.1533  -0.0168   0.0260  -0.0223   0.00    0.0
2026/01/15 14:02:30.000   22.434305451  114.335382972    63.9680   6   4   0.0599   0.0599   0.1533  -0.0168   0.0260  -0.0225   0.00    0.0
2026/01/15 14:03:00.000   22.434305403  114.335382961    63.9636   6   4   0.0599   0.0599   0.1532  -0.0168   0.0261  -0.0226   0.00    0.0
2026/01/15 14:03:30.000   22.434305356  114.335382949    63.9592   6   4   0.0599   0.0598   0.1531  -0.0168   0.0261  -0.0228   0.00    0.0
2026/01/15 14:04:00.000   22.434305309  114.335382937    63.9548   6   4   0.0598   0.0598   0.1530  -0.0167   0.0262  -0.0229   0.00    0.0
2026/01/15 14:04:30.000   22.434305261  114.335382926    63.9501   6   4   0.0598   0.0598   0.1530  -0.0167   0.0262  -0.0230   0.00    0.0
2026/01/15 14:05:00.000   22.434305214  114.335382914    63.9453   6   4   0.0597   0.0597   0.1529  -0.0167   0.0263  -0.0232   0.00    0.0
2026/01/15 14:05:30.000   22.434305166  114.335382902    63.9406   6   4   0.0597   0.0597   0.1528  -0.0167   0.0263  -0.0233   0.00    0.0
2026/01/15 14:06:00.000   22.434305118  114.335382891    63.9358   6   4   0.0597   0.0597   0.1528  -0.0167   0.0264  -0.0235   0.00    0.0
2026/01/15 14:06:30.000   22.434305071  114.335382880    63.9309   6   4   0.0596   0.0596   0.1527  -0.0167   0.0264  -0.0236   0.00    0.0
2026/01/15 14:07:00.000   22.434305024  114.335382868    63.9260   6   4   0.0596   0.0596   0.1526  -0.0166   0.0265  -0.0237   0.00    0.0
2026/01/15 14:07:30.000   22.434304978  114.335382856    63.9210   6   4   0.0595   0.0595   0.1526  -0.0166   0.0265  -0.0239   0.00    0.0
2026/01/15 14:08:00.000   22.434304931  114.335382844    63.9160   6   4   0.0595   0.0595   0.1525  -0.0166   0.0266  -0.0240   0.00    0.0
2026/01/15 14:08:30.000   22.434304885  114.335382831    63.9111   6   4   0.0595   0.0595   0.1524  -0.0166   0.0266  -0.0242   0.00    0.0
2026/01/15 14:09:00.000   22.434304838  114.335382818    63.9061   6   4   0.0594   0.0594   0.1523  -0.0166   0.0267  -0.0243   0.00    0.0
2026/01/15 14:09:30.000   22.434304791  114.335382805    63.9009   6   4   0.0594   0.0594   0.1523  -0.0166   0.0267  -0.0244   0.00    0.0
2026/01/15 14:10:00.000   22.434304743  114.335382791    63.8958   6   4   0.0593   0.0594   0.1522  -0.0165   0.0267  -0.0246   0.00    0.0
2026/01/15 14:10:30.000   22.434304696  114.335382778    63.8907   6   4   0.0593   0.0593   0.1521  -0.0165   0.0268  -0.0247   0.00    0.0
2026/01/15 14:29:00.000   22.434303118  114.335382172    63.7671   6   4   0.0579   0.0582   0.1501  -0.0167   0.0275  -0.0286   0.00    0.0
2026/01/15 14:29:30.000   22.434303074  114.335382154    63.7630   6   4   0.0578   0.0581   0.1501  -0.0167   0.0275  -0.0287   0.00    0.0
2026/01/15 14:30:00.000   22.434303030  114.335382135    63.7589   6   4   0.0578   0.0581   0.1500  -0.0167   0.0275  -0.0288   0.00    0.0
2026/01/15 14:30:30.000   22.434302987  114.335382117    63.7548   6   4   0.0577   0.0581   0.1500  -0.0167   0.0275  -0.0289   0.00    0.0
2026/01/15 14:31:00.000   22.434302943  114.335382099    63.7507   6   4   0.0577   0.0580   0.1499  -0.0167   0.0275  -0.0290   0.00    0.0
2026/01/15 14:31:30.000   22.434302901  114.335382081    63.7465   6   4   0.0577   0.0580   0.1498  -0.0167   0.0275  -0.0291   0.00    0.0
2026/01/15 14:32:00.000   22.434302858  114.335382063    63.7424   6   4   0.0576   0.0580   0.1498  -0.0167   0.0275  -0.0292   0.00    0.0
2026/01/15 14:32:30.000   22.434302815  114.335382046    63.7382   6   4   0.0576   0.0579   0.1497  -0.0167   0.0275  -0.0293   0.00    0.0
2026/01/15 14:33:00.000   22.434302774  114.335382029    63.7340   6   4   0.0575   0.0579   0.1496  -0.0168   0.0275  -0.0294   0.00    0.0
2026/01/15 14:33:30.000   22.434302731  114.335382012    63.7305   6   4   0.0575   0.0579   0.1495  -0.0167   0.0275  -0.0295   0.00    0.0
2026/01/15 14:34:00.000   22.434302688  114.335381994    63.7271   6   4   0.0574   0.0578   0.1495  -0.0167   0.0275  -0.0295   0.00    0.0
2026/01/15 14:34:30.000   22.434302645  114.335381976    63.7236   6   4   0.0574   0.0578   0.1494  -0.0167   0.0274  -0.0296   0.00    0.0
2026/01/15 14:35:00.000   22.434302602  114.335381959    63.7201   6   4   0.0573   0.0578   0.1493  -0.0167   0.0274  -0.0297   0.00    0.0
2026/01/15 14:35:30.000   22.434302560  114.335381941    63.7165   6   4   0.0573   0.0577   0.1492  -0.0167   0.0274  -0.0297   0.00    0.0
2026/01/15 14:36:00.000   22.434302517  114.335381924    63.7128   6   4   0.0572   0.0577   0.1491  -0.0167   0.0273  -0.0298   0.00    0.0
2026/01/15 14:36:30.000   22.434302474  114.335381906    63.7091   6   4   0.0572   0.0577   0.1490  -0.0167   0.0273  -0.0299   0.00    0.0
2026/01/15 14:37:00.000   22.434302432  114.335381887    63.7053   6   4   0.0571   0.0576   0.1489  -0.0167   0.0273  -0.0299   0.00    0.0
2026/01/15 14:37:30.000   22.434302390  114.335381868    63.7014   6   4   0.0571   0.0576   0.1488  -0.0167   0.0273  -0.0300   0.00    0.0
2026/01/15 14:38:00.000   22.434302348  114.335381849    63.6974   6   4   0.0571   0.0576   0.1487  -0.0167   0.0272  -0.0300   0.00    0.0
2026/01/15 14:38:30.000   22.434302307  114.335381830    63.6938   6   4   0.0570   0.0575   0.1486  -0.0167   0.0272  -0.0301   0.00    0.0
2026/01/15 14:39:00.000   22.434302266  114.335381811    63.6903   6   4   0.0570   0.0575   0.1485  -0.0167   0.0272  -0.0301   0.00    0.0
2026/01/15 14:39:30.000   22.434302224  114.335381792    63.6870   6   4   0.0569   0.0575   0.1485  -0.0167   0.0271  -0.0302   0.00    0.0
2026/01/15 14:40:00.000   22.434302183  114.335381774    63.6838   6   4   0.0569   0.0574   0.1484  -0.0167   0.0271  -0.0303   0.00    0.0
2026/01/15 14:40:30.000   22.434302142  114.335381756    63.6807   6   4   0.0568   0.0574   0.1483  -0.0166   0.0271  -0.0303   0.00    0.0
2026/01/15 14:41:00.000   22.434302101  114.335381738    63.6776   6   4   0.0568   0.0574   0.1482  -0.0166   0.0270  -0.0304   0.00    0.0
2026/01/15 14:41:30.000   22.434302061  114.335381720    63.6746   6   4   0.0567   0.0573   0.1481  -0.0166   0.0270  -0.0304   0.00    0.0
2026/01/15 14:42:00.000   22.434302021  114.335381702    63.6717   6   4   0.0567   0.0573   0.1480  -0.0166   0.0270  -0.0305   0.00    0.0
2026/01/15 14:42:30.000   22.434301981  114.335381685    63.6690   6   4   0.0566   0.0572   0.1479  -0.0166   0.0269  -0.0305   0.00    0.0
2026/01/15 14:43:00.000   22.434301942  114.335381669    63.6666   6   4   0.0566   0.0572   0.1478  -0.0166   0.0269  -0.0306   0.00    0.0
2026/01/15 14:43:30.000   22.434301902  114.335381653    63.6643   6   4   0.0565   0.0572   0.1477  -0.0166   0.0269  -0.0306   0.00    0.0
2026/01/15 14:44:00.000   22.434301863  114.335381638    63.6619   6   4   0.0565   0.0571   0.1476  -0.0166   0.0268  -0.0307   0.00    0.0
2026/01/15 14:44:30.000   22.434301824  114.335381621    63.6596   6   4   0.0564   0.0571   0.1475  -0.0166   0.0268  -0.0307   0.00    0.0
2026/01/15 14:45:00.000   22.434301786  114.335381604    63.6571   6   4   0.0564   0.0571   0.1474  -0.0166   0.0268  -0.0307   0.00    0.0
2026/01/15 14:45:30.000   22.434301749  114.335381587    63.6548   6   4   0.0563   0.0570   0.1474  -0.0166   0.0267  -0.0308   0.00    0.0
2026/01/15 14:46:00.000   22.434301712  114.335381570    63.6527   6   4   0.0563   0.0570   0.1473  -0.0166   0.0267  -0.0308   0.00    0.0
2026/01/15 14:46:30.000   22.434301674  114.335381553    63.6509   6   4   0.0562   0.0570   0.1472  -0.0166   0.0266  -0.0309   0.00    0.0
2026/01/15 14:47:00.000   22.434301637  114.335381536    63.6491   6   4   0.0562   0.0569   0.1471  -0.0166   0.0266  -0.0309   0.00    0.0
2026/01/15 14:47:30.000   22.434301601  114.335381519    63.6473   6   4   0.0561   0.0569   0.1470  -0.0166   0.0266  -0.0310   0.00    0.0
2026/01/15 14:48:00.000   22.434301564  114.335381502    63.6454   6   4   0.0561   0.0569   0.1469  -0.0166   0.0265  -0.0310   0.00    0.0
2026/01/15 14:48:30.000   22.434301527  114.335381486    63.6437   6   4   0.0561   0.0568   0.1468  -0.0166   0.0265  -0.0310   0.00    0.0
2026/01/15 14:49:00.000   22.434301489  114.335381470    63.6421   6   4   0.0560   0.0568   0.1467  -0.0165   0.0265  -0.0311   0.00    0.0
2026/01/15 14:49:30.000   22.434301450  114.335381454    63.6406   6   4   0.0560   0.0568   0.1466  -0.0165   0.0264  -0.0311   0.00    0.0
2026/01/15 14:50:00.000   22.434301411  114.335381437    63.6391   6   4   0.0559   0.0567   0.1465  -0.0165   0.0264  -0.0312   0.00    0.0
2026/01/15 14:50:30.000   22.434301373  114.335381421    63.6376   6   4   0.0559   0.0567   0.1464  -0.0165   0.0264  -0.0312   0.00    0.0
2026/01/15 14:51:00.000   22.434301334  114.335381406    63.6360   6   4   0.0558   0.0567   0.1463  -0.0165   0.0263  -0.0312   0.00    0.0
2026/01/15 14:51:30.000   22.434301296  114.335381389    63.6346   6   4   0.0558   0.0566   0.1463  -0.0165   0.0263  -0.0313   0.00    0.0
2026/01/15 14:52:00.000   22.434301257  114.335381373    63.6332   6   4   0.0557   0.0566   0.1462  -0.0165   0.0263  -0.0313   0.00    0.0
2026/01/15 14:52:30.000   22.434301219  114.335381355    63.6319   6   4   0.0557   0.0566   0.1461  -0.0165   0.0262  -0.0313   0.00    0.0
2026/01/15 14:53:00.000   22.434301180  114.335381337    63.6304   6   4   0.0556   0.0565   0.1460  -0.0165   0.0262  -0.0314   0.00    0.0
2026/01/15 14:53:30.000   22.434301143  114.335381319    63.6292   6   4   0.0556   0.0565   0.1459  -0.0165   0.0262  -0.0314   0.00    0.0
2026/01/15 14:54:00.000   22.434301106  114.335381303    63.6280   6   4   0.0555   0.0565   0.1458  -0.0165   0.0261  -0.0314   0.00    0.0
2026/01/15 14:54:30.000   22.434301070  114.335381286    63.6270   6   4   0.0555   0.0564   0.1457  -0.0165   0.0261  -0.0315   0.00    0.0
2026/01/15 14:55:00.000   22.434301035  114.335381269    63.6262   6   4   0.0555   0.0564   0.1456  -0.0165   0.0261  -0.0315   0.00    0.0
2026/01/15 14:55:30.000   22.434300999  114.335381253    63.6254   6   4   0.0554   0.0564   0.1455  -0.0165   0.0260  -0.0315   0.00    0.0
2026/01/15 14:56:00.000   22.434300965  114.335381238    63.6246   6   4   0.0554   0.0563   0.1454  -0.0165   0.0260  -0.0315   0.00    0.0
2026/01/15 14:56:30.000   22.434300930  114.335381222    63.6238   6   4   0.0553   0.0563   0.1453  -0.0165   0.0260  -0.0316   0.00    0.0
2026/01/15 14:57:00.000   22.434300896  114.335381204    63.6231   6   4   0.0553   0.0563   0.1452  -0.0165   0.0259  -0.0316   0.00    0.0
2026/01/15 14:57:30.000   22.434300863  114.335381187    63.6224   6   4   0.0552   0.0562   0.1451  -0.0165   0.0259  -0.0316   0.00    0.0
2026/01/15 14:58:00.000   22.434300837  114.335381166    63.6239   6   4   0.0552   0.0562   0.1451  -0.0165   0.0259  -0.0316   0.00    0.0
2026/01/15 14:58:30.000   22.434300812  114.335381144    63.6253   6   4   0.0552   0.0562   0.1450  -0.0165   0.0258  -0.0316   0.00    0.0
2026/01/15 14:59:00.000   22.434300785  114.335381124    63.6267   6   4   0.0551   0.0561   0.1449  -0.0165   0.0258  -0.0316   0.00    0.0
2026/01/15 14:59:30.000   22.434300758  114.335381104    63.6282   6   4   0.0551   0.0561   0.1448  -0.0165   0.0257  -0.0316   0.00    0.0
2026/01/15 15:00:00.000   22.434300732  114.335381086    63.6298   6   4   0.0550   0.0561   0.1447  -0.0165   0.0257  -0.0316   0.00    0.0
2026/01/15 15:00:30.000   22.434300707  114.335381068    63.6317   6   4   0.0550   0.0560   0.1447  -0.0165   0.0256  -0.0316   0.00    0.0
2026/01/15 15:01:00.000   22.434300682  114.335381050    63.6339   6   4   0.0550   0.0560   0.1446  -0.0165   0.0256  -0.0316   0.00    0.0
2026/01/15 15:01:30.000   22.434300657  114.335381030    63.6363   6   4   0.0549   0.0560   0.1445  -0.0165   0.0255  -0.0316   0.00    0.0
2026/01/15 15:02:00.000   22.434300632  114.335381010    63.6386   6   4   0.0549   0.0560   0.1444  -0.0165   0.0255  -0.0316   0.00    0.0
2026/01/15 15:02:30.000   22.434300607  114.335380990    63.6409   6   4   0.0548   0.0559   0.1444  -0.0165   0.0254  -0.0316   0.00    0.0
2026/01/15 15:03:00.000   22.434300583  114.335380970    63.6433   6   4   0.0548   0.0559   0.1443  -0.0165   0.0254  -0.0316   0.00    0.0
2026/01/15 15:03:30.000   22.434300558  114.335380951    63.6458   6   4   0.0548   0.0559   0.1442  -0.0165   0.0253  -0.0315   0.00    0.0
2026/01/15 15:04:00.000   22.434300533  114.335380933    63.6482   6   4   0.0547   0.0558   0.1441  -0.0165   0.0253  -0.0315   0.00    0.0
2026/01/15 15:04:30.000   22.434300508  114.335380916    63.6506   6   4   0.0547   0.0558   0.1440  -0.0166   0.0253  -0.0315   0.00    0.0
2026/01/15 15:05:00.000   22.434300483  114.335380899    63.6530   6   4   0.0547   0.0558   0.1439  -0.0166   0.0252  -0.0315   0.00    0.0
2026/01/15 15:05:30.000   22.434300458  114.335380883    63.6556   6   4   0.0546   0.0557   0.1439  -0.0166   0.0252  -0.0315   0.00    0.0
2026/01/15 15:06:00.000   22.434300433  114.335380866    63.6583   6   4   0.0546   0.0557   0.1438  -0.0166   0.0251  -0.0315   0.00    0.0
2026/01/15 15:06:30.000   22.434300408  114.335380849    63.6609   6   4   0.0545   0.0557   0.1437  -0.0166   0.0251  -0.0315   0.00    0.0
2026/01/15 15:07:00.000   22.434300384  114.335380832    63.6635   6   4   0.0545   0.0556   0.1436  -0.0166   0.0250  -0.0315   0.00    0.0
2026/01/15 15:07:30.000   22.434300360  114.335380815    63.6661   6   4   0.0545   0.0556   0.1435  -0.0166   0.0250  -0.0315   0.00    0.0
2026/01/15 15:08:00.000   22.434300336  114.335380798    63.6688   6   4   0.0544   0.0556   0.1435  -0.0166   0.0250  -0.0314   0.00    0.0
2026/01/15 15:08:30.000   22.434300312  114.335380782    63.6714   6   4   0.0544   0.0556   0.1434  -0.0166   0.0249  -0.0314   0.00    0.0
2026/01/15 15:09:00.000   22.434300288  114.335380766    63.6742   6   4   0.0544   0.0555   0.1433  -0.0166   0.0249  -0.0314   0.00    0.0
2026/01/15 15:09:30.000   22.434300265  114.335380749    63.6770   6   4   0.0543   0.0555   0.1432  -0.0166   0.0249  -0.0314   0.00    0.0
2026/01/15 15:10:00.000   22.434300242  114.335380733    63.6800   6   4   0.0543   0.0555   0.1431  -0.0166   0.0248  -0.0314   0.00    0.0
2026/01/15 15:10:30.000   22.434300219  114.335380717    63.6829   6   4   0.0542   0.0554   0.1430  -0.0166   0.0248  -0.0314   0.00    0.0
2026/01/15 15:11:00.000   22.434300197  114.335380700    63.6859   6   4   0.0542   0.0554   0.1430  -0.0166   0.0247  -0.0314   0.00    0.0
2026/01/15 15:11:30.000   22.434300175  114.335380683    63.6890   6   4   0.0542   0.0554   0.1429  -0.0166   0.0247  -0.0313   0.00    0.0
2026/01/15 15:12:00.000   22.434300153  114.335380666    63.6920   6   4   0.0541   0.0553   0.1428  -0.0166   0.0247  -0.0313   0.00    0.0
2026/01/15 15:12:30.000   22.434300132  114.335380649    63.6951   6   4   0.0541   0.0553   0.1427  -0.0166   0.0246  -0.0313   0.00    0.0
2026/01/15 15:13:00.000   22.434300110  114.335380631    63.6980   6   4   0.0541   0.0553   0.1426  -0.0166   0.0246  -0.0313   0.00    0.0
2026/01/15 15:13:30.000   22.434300088  114.335380614    63.7010   6   4   0.0540   0.0553   0.1425  -0.0166   0.0246  -0.0313   0.00    0.0
2026/01/15 15:14:00.000   22.434300066  114.335380597    63.7042   6   4   0.0540   0.0552   0.1424  -0.0166   0.0246  -0.0313   0.00    0.0
2026/01/15 15:14:30.000   22.434300042  114.335380581    63.7076   6   4   0.0540   0.0552   0.1424  -0.0166   0.0245  -0.0312   0.00    0.0
2026/01/15 15:15:00.000   22.434300019  114.335380566    63.7111   6   4   0.0539   0.0552   0.1423  -0.0166   0.0245  -0.0312   0.00    0.0
2026/01/15 15:15:30.000   22.434299995  114.335380552    63.7145   6   4   0.0539   0.0551   0.1422  -0.0166   0.0245  -0.0312   0.00    0.0
2026/01/15 15:16:00.000   22.434299971  114.335380538    63.7180   6   4   0.0539   0.0551   0.1421  -0.0166   0.0244  -0.0312   0.00    0.0
2026/01/15 15:16:30.000   22.434299948  114.335380523    63.7218   6   4   0.0538   0.0551   0.1420  -0.0167   0.0244  -0.0312   0.00    0.0
2026/01/15 15:17:00.000   22.434299926  114.335380509    63.7254   6   4   0.0538   0.0550   0.1419  -0.0167   0.0244  -0.0311   0.00    0.0
2026/01/15 15:17:30.000   22.434299904  114.335380495    63.7292   6   4   0.0538   0.0550   0.1418  -0.0167   0.0244  -0.0311   0.00    0.0
2026/01/15 15:18:00.000   22.434299883  114.335380481    63.7331   6   4   0.0537   0.0550   0.1417  -0.0167   0.0243  -0.0311   0.00    0.0
2026/01/15 15:18:30.000   22.434299862  114.335380467    63.7371   6   4   0.0537   0.0550   0.1417  -0.0167   0.0243  -0.0311   0.00    0.0
2026/01/15 15:19:00.000   22.434299842  114.335380452    63.7411   6   4   0.0536   0.0549   0.1416  -0.0167   0.0243  -0.0311   0.00    0.0
2026/01/15 15:19:30.000   22.434299821  114.335380437    63.7452   6   4   0.0536   0.0549   0.1415  -0.0167   0.0243  -0.0310   0.00    0.0
2026/01/15 15:20:00.000   22.434299801  114.335380422    63.7492   6   4   0.0536   0.0549   0.1414  -0.0167   0.0242  -0.0310   0.00    0.0
2026/01/15 15:20:30.000   22.434299781  114.335380408    63.7532   6   4   0.0535   0.0548   0.1413  -0.0167   0.0242  -0.0310   0.00    0.0
2026/01/15 15:21:00.000   22.434299760  114.335380396    63.7571   6   4   0.0535   0.0548   0.1412  -0.0167   0.0242  -0.0310   0.00    0.0
2026/01/15 15:21:30.000   22.434299742  114.335380386    63.7621   6   4   0.0535   0.0548   0.1411  -0.0167   0.0242  -0.0309   0.00    0.0
2026/01/15 15:22:00.000   22.434299723  114.335380377    63.7673   6   4   0.0535   0.0548   0.1411  -0.0167   0.0242  -0.0309   0.00    0.0
2026/01/15 15:22:30.000   22.434299704  114.335380366    63.7727   6   4   0.0534   0.0547   0.1410  -0.0167   0.0242  -0.0308   0.00    0.0
2026/01/15 15:23:00.000   22.434299685  114.335380355    63.7778   6   4   0.0534   0.0547   0.1409  -0.0166   0.0242  -0.0308   0.00    0.0
2026/01/15 15:23:30.000   22.434299667  114.335380345    63.7830   6   4   0.0534   0.0547   0.1409  -0.0166   0.0243  -0.0307   0.00    0.0
2026/01/15 15:24:00.000   22.434299649  114.335380334    63.7881   6   4   0.0533   0.0547   0.1408  -0.0166   0.0243  -0.0307   0.00    0.0
2026/01/15 15:24:30.000   22.434299632  114.335380324    63.7933   6   5   0.0533   0.0546   0.1407  -0.0166   0.0243  -0.0306   0.00    0.0
2026/01/15 15:25:00.000   22.434299615  114.335380315    63.7984   6   5   0.0533   0.0546   0.1406  -0.0166   0.0243  -0.0306   0.00    0.0
2026/01/15 15:25:30.000   22.434299597  114.335380305    63.8036   6   5   0.0532   0.0546   0.1406  -0.0166   0.0243  -0.0305   0.00    0.0
2026/01/15 15:26:00.000   22.434299579  114.335380296    63.8089   6   5   0.0532   0.0546   0.1405  -0.0166   0.0243  -0.0305   0.00    0.0
2026/01/15 15:26:30.000   22.434299561  114.335380286    63.8140   6   5   0.0532   0.0545   0.1404  -0.0166   0.0244  -0.0305   0.00    0.0
2026/01/15 15:27:00.000   22.434299543  114.335380276    63.8193   6   5   0.0532   0.0545   0.1403  -0.0166   0.0244  -0.0304   0.00    0.0
2026/01/15 15:27:30.000   22.434299525  114.335380267    63.8248   6   5   0.0531   0.0545   0.1403  -0.0166   0.0244  -0.0304   0.00    0.0
2026/01/15 15:28:00.000   22.434299508  114.335380258    63.8301   6   5   0.0531   0.0544   0.1402  -0.0166   0.0244  -0.0303   0.00    0.0
2026/01/15 15:28:30.000   22.434299491  114.335380249    63.8353   6   5   0.0531   0.0544   0.1401  -0.0166   0.0244  -0.0303   0.00    0.0
2026/01/15 15:29:00.000   22.434299474  114.335380240    63.8405   6   5   0.0530   0.0544   0.1400  -0.0166   0.0245  -0.0302   0.00    0.0
2026/01/15 15:29:30.000   22.434299457  114.335380232    63.8459   6   5   0.0530   0.0544   0.1400  -0.0165   0.0245  -0.0302   0.00    0.0
2026/01/15 15:30:00.000   22.434299441  114.335380224    63.8512   6   5   0.0530   0.0543   0.1399  -0.0165   0.0245  -0.0301   0.00    0.0
2026/01/15 15:30:30.000   22.434299424  114.335380217    63.8567   6   5   0.0530   0.0543   0.1398  -0.0165   0.0245  -0.0301   0.00    0.0
2026/01/15 15:31:00.000   22.434299407  114.335380209    63.8623   6   5   0.0529   0.0543   0.1397  -0.0165   0.0246  -0.0300   0.00    0.0
2026/01/15 15:31:30.000   22.434299391  114.335380201    63.8680   6   5   0.0529   0.0543   0.1396  -0.0165   0.0246  -0.0300   0.00    0.0
2026/01/15 15:32:00.000   22.434299374  114.335380194    63.8735   6   5   0.0529   0.0542   0.1396  -0.0165   0.0246  -0.0299   0.00    0.0
2026/01/15 15:32:30.000   22.434299358  114.335380186    63.8790   6   5   0.0529   0.0542   0.1395  -0.0165   0.0246  -0.0299   0.00    0.0
2026/01/15 15:33:00.000   22.434299343  114.335380179    63.8844   6   5   0.0528   0.0542   0.1394  -0.0165   0.0247  -0.0298   0.00    0.0
2026/01/15 15:33:30.000   22.434299328  114.335380171    63.8896   6   5   0.0528   0.0542   0.1393  -0.0165   0.0247  -0.0298   0.00    0.0
2026/01/15 15:34:00.000   22.434299314  114.335380164    63.8948   6   5   0.0528   0.0541   0.1392  -0.0165   0.0247  -0.0297   0.00    0.0
2026/01/15 15:34:30.000   22.434299299  114.335380157    63.8997   6   5   0.0527   0.0541   0.1392  -0.0165   0.0248  -0.0297   0.00    0.0
2026/01/15 15:35:00.000   22.434299284  114.335380149    63.9048   6   5   0.0527   0.0541   0.1391  -0.0165   0.0248  -0.0296   0.00    0.0
2026/01/15 15:35:30.000   22.434299268  114.335380140    63.9101   6   5   0.0527   0.0541   0.1390  -0.0165   0.0248  -0.0296   0.00    0.0
2026/01/15 15:36:00.000   22.434299253  114.335380132    63.9155   6   5   0.0527   0.0540   0.1389  -0.0165   0.0248  -0.0295   0.00    0.0
2026/01/15 15:36:30.000   22.434299239  114.335380123    63.9206   6   5   0.0526   0.0540   0.1388  -0.0165   0.0249  -0.0295   0.00    0.0
2026/01/15 15:37:00.000   22.434299225  114.335380115    63.9255   6   5   0.0526   0.0540   0.1387  -0.0165   0.0249  -0.0294   0.00    0.0
2026/01/15 15:37:30.000   22.434299211  114.335380109    63.9303   6   5   0.0526   0.0540   0.1387  -0.0164   0.0249  -0.0294   0.00    0.0
2026/01/15 15:38:00.000   22.434299197  114.335380102    63.9352   6   5   0.0526   0.0539   0.1386  -0.0164   0.0250  -0.0293   0.00    0.0
2026/01/15 15:38:30.000   22.434299183  114.335380096    63.9399   6   5   0.0525   0.0539   0.1385  -0.0164   0.0250  -0.0293   0.00    0.0
2026/01/15 15:39:00.000   22.434299169  114.335380090    63.9447   6   5   0.0525   0.0539   0.1384  -0.0164   0.0250  -0.0292   0.00    0.0
2026/01/15 15:39:30.000   22.434299156  114.335380083    63.9496   6   5   0.0525   0.0539   0.1383  -0.0164   0.0251  -0.0292   0.00    0.0
2026/01/15 15:40:00.000   22.434299143  114.335380077    63.9545   6   5   0.0525   0.0538   0.1382  -0.0164   0.0251  -0.0291   0.00    0.0
2026/01/15 15:40:30.000   22.434299130  114.335380071    63.9597   6   5   0.0524   0.0538   0.1382  -0.0164   0.0251  -0.0291   0.00    0.0
2026/01/15 15:41:00.000   22.434299117  114.335380065    63.9650   6   5   0.0524   0.0538   0.1381  -0.0164   0.0252  -0.0290   0.00    0.0
2026/01/15 15:41:30.000   22.434299104  114.335380059    63.9701   6   5   0.0524   0.0538   0.1380  -0.0164   0.0252  -0.0290   0.00    0.0
2026/01/15 15:42:00.000   22.434299090  114.335380053    63.9750   6   5   0.0524   0.0537   0.1379  -0.0164   0.0253  -0.0289   0.00    0.0
2026/01/15 15:42:30.000   22.434299075  114.335380048    63.9798   6   5   0.0523   0.0537   0.1378  -0.0164   0.0253  -0.0289   0.00    0.0
2026/01/15 15:43:00.000   22.434299062  114.335380043    63.9847   6   5   0.0523   0.0537   0.1377  -0.0164   0.0253  -0.0288   0.00    0.0
2026/01/15 15:43:30.000   22.434299049  114.335380037    63.9895   6   5   0.0523   0.0537   0.1376  -0.0164   0.0254  -0.0288   0.00    0.0
2026/01/15 15:44:00.000   22.434299037  114.335380033    63.9942   6   5   0.0523   0.0536   0.1376  -0.0164   0.0254  -0.0287   0.00    0.0
2026/01/15 15:44:30.000   22.434299024  114.335380029    63.9987   6   5   0.0522   0.0536   0.1375  -0.0164   0.0255  -0.0287   0.00    0.0
2026/01/15 15:45:00.000   22.434299012  114.335380024    64.0032   6   5   0.0522   0.0536   0.1374  -0.0164   0.0255  -0.0287   0.00    0.0
2026/01/15 15:45:30.000   22.434299000  114.335380020    64.0076   6   5   0.0522   0.0536   0.1373  -0.0164   0.0255  -0.0286   0.00    0.0
2026/01/15 15:46:00.000   22.434298988  114.335380015    64.0121   6   5   0.0522   0.0535   0.1372  -0.0164   0.0256  -0.0286   0.00    0.0
2026/01/15 15:46:30.000   22.434298976  114.335380011    64.0166   6   5   0.0522   0.0535   0.1371  -0.0164   0.0256  -0.0285   0.00    0.0
2026/01/15 15:47:00.000   22.434298965  114.335380008    64.0210   6   5   0.0521   0.0535   0.1370  -0.0164   0.0257  -0.0285   0.00    0.0
2026/01/15 15:47:30.000   22.434298954  114.335380005    64.0253   6   5   0.0521   0.0535   0.1369  -0.0164   0.0257  -0.0284   0.00    0.0
2026/01/15 15:48:00.000   22.434298942  114.335380003    64.0296   6   5   0.0521   0.0534   0.1368  -0.0164   0.0257  -0.0284   0.00    0.0
2026/01/15 15:48:30.000   22.434298931  114.335380000    64.0340   6   5   0.0521   0.0534   0.1368  -0.0164   0.0258  -0.0283   0.00    0.0
2026/01/15 15:49:00.000   22.434298920  114.335379997    64.0381   6   5   0.0520   0.0534   0.1367  -0.0164   0.0258  -0.0283   0.00    0.0
2026/01/15 15:49:30.000   22.434298908  114.335379997    64.0408   6   5   0.0520   0.0534   0.1366  -0.0164   0.0259  -0.0282   0.00    0.0
2026/01/15 15:50:00.000   22.434298895  114.335379997    64.0435   6   5   0.0520   0.0533   0.1365  -0.0164   0.0259  -0.0282   0.00    0.0
2026/01/15 15:50:30.000   22.434298882  114.335379996    64.0462   6   5   0.0520   0.0533   0.1364  -0.0164   0.0259  -0.0281   0.00    0.0
2026/01/15 15:51:00.000   22.434298869  114.335379996    64.0489   6   5   0.0520   0.0533   0.1364  -0.0164   0.0259  -0.0280   0.00    0.0
2026/01/15 15:51:30.000   22.434298856  114.335379995    64.0517   6   5   0.0519   0.0533   0.1363  -0.0164   0.0259  -0.0280   0.00    0.0
2026/01/15 15:52:00.000   22.434298843  114.335379996    64.0544   6   5   0.0519   0.0533   0.1362  -0.0164   0.0260  -0.0279   0.00    0.0
2026/01/15 15:52:30.000   22.434298830  114.335379996    64.0571   6   5   0.0519   0.0532   0.1362  -0.0164   0.0260  -0.0278   0.00    0.0
2026/01/15 15:53:00.000   22.434298818  114.335379996    64.0597   6   5   0.0519   0.0532   0.1361  -0.0164   0.0260  -0.0278   0.00    0.0
2026/01/15 15:53:30.000   22.434298805  114.335379996    64.0623   6   5   0.0519   0.0532   0.1360  -0.0164   0.0260  -0.0277   0.00    0.0
2026/01/15 15:54:00.000   22.434298792  114.335379996    64.0648   6   5   0.0518   0.0532   0.1359  -0.0164   0.0261  -0.0277   0.00    0.0
2026/01/15 15:54:30.000   22.434298779  114.335379995    64.0672   6   5   0.0518   0.0531   0.1359  -0.0164   0.0261  -0.0276   0.00    0.0
2026/01/15 15:55:00.000   22.434298766  114.335379995    64.0698   6   5   0.0518   0.0531   0.1358  -0.0164   0.0261  -0.0275   0.00    0.0
2026/01/15 15:55:30.000   22.434298753  114.335379995    64.0724   6   5   0.0518   0.0531   0.1357  -0.0164   0.0262  -0.0275   0.00    0.0
2026/01/15 15:56:00.000   22.434298741  114.335379996    64.0750   6   5   0.0518   0.0531   0.1356  -0.0164   0.0262  -0.0274   0.00    0.0
2026/01/15 15:56:30.000   22.434298728  114.335379996    64.0775   6   5   0.0517   0.0531   0.1356  -0.0164   0.0262  -0.0274   0.00    0.0
2026/01/15 15:57:00.000   22.434298716  114.335379997    64.0800   6   5   0.0517   0.0530   0.1355  -0.0164   0.0262  -0.0273   0.00    0.0
2026/01/15 15:57:30.000   22.434298704  114.335379998    64.0822   6   5   0.0517   0.0530   0.1354  -0.0164   0.0263  -0.0273   0.00    0.0
2026/01/15 15:58:00.000   22.434298692  114.335380000    64.0846   6   5   0.0517   0.0530   0.1353  -0.0164   0.0263  -0.0272   0.00    0.0
2026/01/15 15:58:30.000   22.434298679  114.335380002    64.0871   6   5   0.0517   0.0530   0.1352  -0.0164   0.0263  -0.0271   0.00    0.0
2026/01/15 15:59:00.000   22.434298666  114.335380003    64.0895   6   5   0.0517   0.0529   0.1352  -0.0165   0.0264  -0.0271   0.00    0.0
2026/01/15 15:59:30.000   22.434298654  114.335380005    64.0917   6   5   0.0516   0.0529   0.1351  -0.0165   0.0264  -0.0270   0.00    0.0
2026/01/15 16:00:00.000   22.434298643  114.335380005    64.0937   6   5   0.0516   0.0529   0.1350  -0.0165   0.0264  -0.0270   0.00    0.0
2026/01/15 16:00:30.000   22.434298632  114.335380005    64.0956   6   5   0.0516   0.0529   0.1349  -0.0165   0.0265  -0.0269   0.00    0.0
2026/01/15 16:01:00.000   22.434298621  114.335380006    64.0975   6   5   0.0516   0.0529   0.1349  -0.0165   0.0265  -0.0269   0.00    0.0
2026/01/15 16:01:30.000   22.434298610  114.335380007    64.0994   6   5   0.0516   0.0528   0.1348  -0.0165   0.0266  -0.0268   0.00    0.0
2026/01/15 16:02:00.000   22.434298599  114.335380008    64.1014   6   5   0.0516   0.0528   0.1347  -0.0165   0.0266  -0.0268   0.00    0.0
2026/01/15 16:02:30.000   22.434298588  114.335380009    64.1033   6   5   0.0515   0.0528   0.1346  -0.0165   0.0266  -0.0267   0.00    0.0
2026/01/15 16:03:00.000   22.434298577  114.335380010    64.1051   6   5   0.0515   0.0528   0.1345  -0.0165   0.0267  -0.0266   0.00    0.0
2026/01/15 16:03:30.000   22.434298566  114.335380012    64.1068   6   5   0.0515   0.0527   0.1345  -0.0165   0.0267  -0.0266   0.00    0.0
2026/01/15 16:04:00.000   22.434298555  114.335380014    64.1085   6   5   0.0515   0.0527   0.1344  -0.0165   0.0267  -0.0265   0.00    0.0
2026/01/15 16:04:30.000   22.434298544  114.335380016    64.1103   6   5   0.0515   0.0527   0.1343  -0.0165   0.0268  -0.0265   0.00    0.0
2026/01/15 16:05:00.000   22.434298532  114.335380018    64.1120   6   5   0.0514   0.0527   0.1342  -0.0165   0.0268  -0.0264   0.00    0.0
2026/01/15 16:05:30.000   22.434298520  114.335380020    64.1139   6   5   0.0514   0.0526   0.1341  -0.0165   0.0269  -0.0264   0.00    0.0
2026/01/15 16:06:00.000   22.434298508  114.335380022    64.1157   6   5   0.0514   0.0526   0.1341  -0.0165   0.0269  -0.0263   0.00    0.0
2026/01/15 16:06:30.000   22.434298497  114.335380025    64.1173   6   5   0.0514   0.0526   0.1340  -0.0165   0.0270  -0.0263   0.00    0.0
2026/01/15 16:07:00.000   22.434298485  114.335380027    64.1188   6   5   0.0514   0.0526   0.1339  -0.0165   0.0270  -0.0262   0.00    0.0
2026/01/15 16:07:30.000   22.434298475  114.335380028    64.1201   6   5   0.0514   0.0526   0.1338  -0.0165   0.0270  -0.0262   0.00    0.0
2026/01/15 16:08:00.000   22.434298464  114.335380029    64.1214   6   5   0.0513   0.0525   0.1337  -0.0165   0.0271  -0.0262   0.00    0.0
2026/01/15 16:08:30.000   22.434298453  114.335380031    64.1226   6   5   0.0513   0.0525   0.1337  -0.0165   0.0271  -0.0261   0.00    0.0
2026/01/15 16:09:00.000   22.434298442  114.335380033    64.1237   6   5   0.0513   0.0525   0.1336  -0.0165   0.0272  -0.0261   0.00    0.0
2026/01/15 16:09:30.000   22.434298430  114.335380037    64.1248   6   5   0.0513   0.0525   0.1335  -0.0166   0.0272  -0.0260   0.00    0.0
2026/01/15 16:10:00.000   22.434298419  114.335380041    64.1259   6   5   0.0513   0.0524   0.1334  -0.0166   0.0273  -0.0260   0.00    0.0
2026/01/15 16:10:30.000   22.434298407  114.335380045    64.1270   6   5   0.0513   0.0524   0.1333  -0.0166   0.0273  -0.0259   0.00    0.0
2026/01/15 16:11:00.000   22.434298396  114.335380050    64.1282   6   5   0.0512   0.0524   0.1333  -0.0166   0.0274  -0.0259   0.00    0.0
2026/01/15 16:11:30.000   22.434298386  114.335380054    64.1292   6   5   0.0512   0.0524   0.1332  -0.0166   0.0274  -0.0258   0.00    0.0
2026/01/15 16:12:00.000   22.434298375  114.335380058    64.1302   6   5   0.0512   0.0524   0.1331  -0.0166   0.0274  -0.0258   0.00    0.0
2026/01/15 16:12:30.000   22.434298365  114.335380062    64.1312   6   5   0.0512   0.0523   0.1330  -0.0166   0.0275  -0.0258   0.00    0.0
2026/01/15 16:13:00.000   22.434298355  114.335380066    64.1323   6   5   0.0512   0.0523   0.1329  -0.0166   0.0275  -0.0257   0.00    0.0
2026/01/15 16:13:30.000   22.434298344  114.335380071    64.1332   6   5   0.0512   0.0523   0.1329  -0.0166   0.0276  -0.0257   0.00    0.0
2026/01/15 16:14:00.000   22.434298334  114.335380076    64.1339   6   5   0.0511   0.0523   0.1328  -0.0166   0.0276  -0.0256   0.00    0.0
2026/01/15 16:14:30.000   22.434298323  114.335380081    64.1346   6   5   0.0511   0.0522   0.1327  -0.0166   0.0277  -0.0256   0.00    0.0
2026/01/15 16:15:00.000   22.434298312  114.335380087    64.1352   6   5   0.0511   0.0522   0.1326  -0.0166   0.0277  -0.0256   0.00    0.0
2026/01/15 16:15:30.000   22.434298300  114.335380092    64.1359   6   5   0.0511   0.0522   0.1325  -0.0166   0.0278  -0.0255   0.00    0.0
2026/01/15 16:16:00.000   22.434298288  114.335380097    64.1366   6   5   0.0511   0.0522   0.1325  -0.0166   0.0278  -0.0255   0.00    0.0
2026/01/15 16:16:30.000   22.434298277  114.335380101    64.1373   6   5   0.0511   0.0521   0.1324  -0.0166   0.0279  -0.0255   0.00    0.0
2026/01/15 16:17:00.000   22.434298266  114.335380105    64.1380   6   5   0.0511   0.0521   0.1323  -0.0166   0.0279  -0.0254   0.00    0.0
2026/01/15 16:17:30.000   22.434298254  114.335380110    64.1388   6   5   0.0510   0.0521   0.1322  -0.0166   0.0280  -0.0254   0.00    0.0
2026/01/15 16:18:00.000   22.434298243  114.335380114    64.1396   6   5   0.0510   0.0521   0.1321  -0.0166   0.0280  -0.0254   0.00    0.0
2026/01/15 16:18:30.000   22.434298231  114.335380117    64.1403   6   5   0.0510   0.0521   0.1320  -0.0166   0.0281  -0.0253   0.00    0.0
2026/01/15 16:19:00.000   22.434298220  114.335380121    64.1409   6   5   0.0510   0.0520   0.1320  -0.0166   0.0281  -0.0253   0.00    0.0
2026/01/15 16:19:30.000   22.434298208  114.335380124    64.1415   6   5   0.0510   0.0520   0.1319  -0.0166   0.0282  -0.0253   0.00    0.0
2026/01/15 16:20:00.000   22.434298198  114.335380128    64.1420   6   5   0.0510   0.0520   0.1318  -0.0166   0.0282  -0.0252   0.00    0.0
2026/01/15 16:20:30.000   22.434298188  114.335380132    64.1424   6   5   0.0509   0.0520   0.1317  -0.0167   0.0283  -0.0252   0.00    0.0
2026/01/15 16:21:00.000   22.434298177  114.335380136    64.1426   6   5   0.0509   0.0519   0.1316  -0.0167   0.0284  -0.0252   0.00    0.0
2026/01/15 16:21:30.000   22.434298167  114.335380140    64.1428   6   5   0.0509   0.0519   0.1316  -0.0167   0.0284  -0.0251   0.00    0.0
2026/01/15 16:22:00.000   22.434298156  114.335380144    64.1429   6   5   0.0509   0.0519   0.1315  -0.0167   0.0285  -0.0251   0.00    0.0
2026/01/15 16:22:30.000   22.434298144  114.335380148    64.1431   6   5   0.0509   0.0519   0.1314  -0.0167   0.0285  -0.0251   0.00    0.0
2026/01/15 16:23:00.000   22.434298137  114.335380153    64.1445   6   5   0.0509   0.0519   0.1313  -0.0167   0.0286  -0.0251   0.00    0.0
2026/01/15 16:23:30.000   22.434298131  114.335380159    64.1460   6   5   0.0508   0.0518   0.1312  -0.0167   0.0286  -0.0251   0.00    0.0
2026/01/15 16:24:00.000   22.434298125  114.335380164    64.1473   6   5   0.0508   0.0518   0.1311  -0.0167   0.0287  -0.0251   0.00    0.0
2026/01/15 16:24:30.000   22.434298119  114.335380170    64.1485   6   5   0.0508   0.0518   0.1310  -0.0167   0.0287  -0.0251   0.00    0.0
2026/01/15 16:25:00.000   22.434298113  114.335380175    64.1497   6   5   0.0508   0.0518   0.1309  -0.0167   0.0287  -0.0252   0.00    0.0
2026/01/15 16:25:30.000   22.434298107  114.335380182    64.1510   6   5   0.0507   0.0517   0.1308  -0.0167   0.0288  -0.0252   0.00    0.0
2026/01/15 16:26:00.000   22.434298101  114.335380188    64.1522   6   5   0.0507   0.0517   0.1307  -0.0167   0.0288  -0.0252   0.00    0.0
2026/01/15 16:26:30.000   22.434298095  114.335380196    64.1533   6   5   0.0507   0.0517   0.1306  -0.0167   0.0289  -0.0252   0.00    0.0
2026/01/15 16:27:00.000   22.434298089  114.335380204    64.1545   6   5   0.0507   0.0517   0.1305  -0.0168   0.0289  -0.0252   0.00    0.0
2026/01/15 16:27:30.000   22.434298084  114.335380212    64.1556   6   5   0.0507   0.0516   0.1304  -0.0168   0.0290  -0.0252   0.00    0.0
2026/01/15 16:28:00.000   22.434298077  114.335380220    64.1566   6   5   0.0506   0.0516   0.1303  -0.0168   0.0290  -0.0252   0.00    0.0
2026/01/15 16:28:30.000   22.434298071  114.335380228    64.1576   6   5   0.0506   0.0516   0.1302  -0.0168   0.0291  -0.0253   0.00    0.0
2026/01/15 16:29:00.000   22.434298063  114.335380237    64.1586   6   5   0.0506   0.0516   0.1301  -0.0168   0.0291  -0.0253   0.00    0.0
2026/01/15 16:29:30.000   22.434298056  114.335380244    64.1595   6   5   0.0506   0.0516   0.1300  -0.0168   0.0292  -0.0253   0.00    0.0
2026/01/15 16:30:00.000   22.434298049  114.335380251    64.1604   6   5   0.0505   0.0515   0.1299  -0.0168   0.0292  -0.0253   0.00    0.0
2026/01/15 16:30:30.000   22.434298042  114.335380257    64.1613   6   5   0.0505   0.0515   0.1298  -0.0168   0.0293  -0.0253   0.00    0.0
2026/01/15 16:31:00.000   22.434298034  114.335380263    64.1622   6   5   0.0505   0.0515   0.1297  -0.0168   0.0293  -0.0254   0.00    0.0
2026/01/15 16:31:30.000   22.434298027  114.335380269    64.1632   6   5   0.0505   0.0515   0.1296  -0.0168   0.0294  -0.0254   0.00    0.0
2026/01/15 16:32:00.000   22.434298019  114.335380275    64.1642   6   5   0.0504   0.0514   0.1295  -0.0168   0.0294  -0.0254   0.00    0.0
2026/01/15 16:32:30.000   22.434298013  114.335380281    64.1653   6   5   0.0504   0.0514   0.1294  -0.0169   0.0295  -0.0254   0.00    0.0
2026/01/15 16:33:00.000   22.434298006  114.335380288    64.1662   6   5   0.0504   0.0514   0.1294  -0.0169   0.0295  -0.0255   0.00    0.0
2026/01/15 16:33:30.000   22.434298000  114.335380295    64.1671   6   5   0.0504   0.0514   0.1293  -0.0169   0.0296  -0.0255   0.00    0.0
2026/01/15 16:34:00.000   22.434297994  114.335380302    64.1676   6   5   0.0503   0.0513   0.1292  -0.0169   0.0296  -0.0255   0.00    0.0
2026/01/15 16:34:30.000   22.434297988  114.335380310    64.1681   6   5   0.0503   0.0513   0.1291  -0.0169   0.0297  -0.0255   0.00    0.0
2026/01/15 16:35:00.000   22.434297982  114.335380317    64.1687   6   5   0.0503   0.0513   0.1290  -0.0169   0.0297  -0.0256   0.00    0.0
2026/01/15 16:35:30.000   22.434297976  114.335380325    64.1692   6   5   0.0503   0.0513   0.1289  -0.0169   0.0298  -0.0256   0.00    0.0
2026/01/15 16:36:00.000   22.434297970  114.335380333    64.1698   6   5   0.0502   0.0513   0.1288  -0.0169   0.0298  -0.0256   0.00    0.0
2026/01/15 16:36:30.000   22.434297965  114.335380342    64.1704   6   5   0.0502   0.0512   0.1287  -0.0169   0.0299  -0.0257   0.00    0.0
2026/01/15 16:37:00.000   22.434297959  114.335380351    64.1708   6   5   0.0502   0.0512   0.1286  -0.0169   0.0299  -0.0257   0.00    0.0
2026/01/15 16:37:30.000   22.434297953  114.335380360    64.1714   6   5   0.0502   0.0512   0.1285  -0.0169   0.0300  -0.0257   0.00    0.0
2026/01/15 16:38:00.000   22.434297947  114.335380368    64.1719   6   5   0.0501   0.0512   0.1284  -0.0169   0.0300  -0.0257   0.00    0.0
2026/01/15 16:38:30.000   22.434297941  114.335380377    64.1725   6   5   0.0501   0.0511   0.1283  -0.0170   0.0301  -0.0258   0.00    0.0
2026/01/15 16:39:00.000   22.434297934  114.335380385    64.1730   6   5   0.0501   0.0511   0.1283  -0.0170   0.0301  -0.0258   0.00    0.0
2026/01/15 16:39:30.000   22.434297927  114.335380393    64.1736   6   5   0.0501   0.0511   0.1282  -0.0170   0.0302  -0.0258   0.00    0.0
2026/01/15 16:40:00.000   22.434297919  114.335380401    64.1740   6   5   0.0500   0.0511   0.1281  -0.0170   0.0302  -0.0259   0.00    0.0
2026/01/15 16:40:30.000   22.434297912  114.335380409    64.1744   6   5   0.0500   0.0511   0.1280  -0.0170   0.0303  -0.0259   0.00    0.0
2026/01/15 16:41:00.000   22.434297905  114.335380416    64.1747   6   5   0.0500   0.0510   0.1279  -0.0170   0.0303  -0.0259   0.00    0.0
2026/01/15 16:41:30.000   22.434297898  114.335380423    64.1750   6   5   0.0500   0.0510   0.1278  -0.0170   0.0304  -0.0260   0.00    0.0
2026/01/15 16:42:00.000   22.434297891  114.335380431    64.1753   6   5   0.0499   0.0510   0.1277  -0.0170   0.0304  -0.0260   0.00    0.0
2026/01/15 16:42:30.000   22.434297884  114.335380438    64.1755   6   5   0.0499   0.0510   0.1276  -0.0170   0.0305  -0.0260   0.00    0.0
2026/01/15 16:43:00.000   22.434297878  114.335380445    64.1756   6   5   0.0499   0.0509   0.1276  -0.0170   0.0305  -0.0261   0.00    0.0
2026/01/15 16:43:30.000   22.434297871  114.335380452    64.1758   6   5   0.0499   0.0509   0.1275  -0.0170   0.0306  -0.0261   0.00    0.0
2026/01/15 16:44:00.000   22.434297864  114.335380459    64.1759   6   5   0.0498   0.0509   0.1274  -0.0171   0.0306  -0.0261   0.00    0.0
2026/01/15 16:44:30.000   22.434297857  114.335380465    64.1757   6   5   0.0498   0.0509   0.1273  -0.0170   0.0306  -0.0261   0.00    0.0
2026/01/15 16:45:00.000   22.434297851  114.335380472    64.1755   6   5   0.0498   0.0508   0.1272  -0.0170   0.0307  -0.0261   0.00    0.0
2026/01/15 16:45:30.000   22.434297845  114.335380479    64.1752   6   5   0.0498   0.0508   0.1271  -0.0170   0.0307  -0.0262   0.00    0.0
2026/01/15 16:46:00.000   22.434297839  114.335380486    64.1751   6   5   0.0497   0.0508   0.1270  -0.0170   0.0307  -0.0262   0.00    0.0
2026/01/15 16:46:30.000   22.434297833  114.335380493    64.1750   6   5   0.0497   0.0508   0.1269  -0.0170   0.0307  -0.0262   0.00    0.0
2026/01/15 16:47:00.000   22.434297827  114.335380500    64.1747   6   5   0.0497   0.0507   0.1268  -0.0170   0.0307  -0.0262   0.00    0.0
2026/01/15 16:47:30.000   22.434297821  114.335380506    64.1742   6   5   0.0496   0.0507   0.1267  -0.0170   0.0308  -0.0262   0.00    0.0
2026/01/15 16:48:00.000   22.434297815  114.335380512    64.1738   6   5   0.0496   0.0507   0.1266  -0.0170   0.0308  -0.0262   0.00    0.0
2026/01/15 16:48:30.000   22.434297809  114.335380518    64.1733   6   5   0.0496   0.0507   0.1265  -0.0170   0.0308  -0.0262   0.00    0.0
2026/01/15 16:49:00.000   22.434297802  114.335380524    64.1729   6   5   0.0495   0.0506   0.1264  -0.0170   0.0308  -0.0262   0.00    0.0
2026/01/15 16:49:30.000   22.434297795  114.335380530    64.1726   6   5   0.0495   0.0506   0.1263  -0.0170   0.0308  -0.0263   0.00    0.0
2026/01/15 16:50:00.000   22.434297788  114.335380537    64.1725   6   5   0.0495   0.0506   0.1262  -0.0170   0.0309  -0.0263   0.00    0.0
2026/01/15 16:50:30.000   22.434297781  114.335380543    64.1724   6   5   0.0495   0.0505   0.1261  -0.0170   0.0309  -0.0263   0.00    0.0
2026/01/15 16:51:00.000   22.434297773  114.335380550    64.1721   6   5   0.0494   0.0505   0.1260  -0.0170   0.0309  -0.0263   0.00    0.0
2026/01/15 16:51:30.000   22.434297766  114.335380556    64.1717   6   5   0.0494   0.0505   0.1259  -0.0170   0.0309  -0.0263   0.00    0.0
2026/01/15 16:52:00.000   22.434297759  114.335380562    64.1712   6   5   0.0494   0.0505   0.1258  -0.0170   0.0309  -0.0263   0.00    0.0
2026/01/15 16:52:30.000   22.434297753  114.335380568    64.1705   6   5   0.0493   0.0504   0.1257  -0.0170   0.0310  -0.0263   0.00    0.0
2026/01/15 16:53:00.000   22.434297746  114.335380574    64.1697   6   5   0.0493   0.0504   0.1256  -0.0170   0.0310  -0.0264   0.00    0.0
2026/01/15 16:53:30.000   22.434297739  114.335380579    64.1690   6   5   0.0493   0.0504   0.1255  -0.0170   0.0310  -0.0264   0.00    0.0
2026/01/15 16:54:00.000   22.434297732  114.335380585    64.1683   6   5   0.0492   0.0503   0.1254  -0.0170   0.0310  -0.0264   0.00    0.0
2026/01/15 16:54:30.000   22.434297726  114.335380591    64.1675   6   5   0.0492   0.0503   0.1253  -0.0170   0.0310  -0.0264   0.00    0.0
2026/01/15 16:55:00.000   22.434297720  114.335380597    64.1668   6   5   0.0492   0.0503   0.1252  -0.0170   0.0311  -0.0264   0.00    0.0
2026/01/15 16:55:30.000   22.434297714  114.335380604    64.1661   6   5   0.0492   0.0503   0.1251  -0.0170   0.0311  -0.0264   0.00    0.0
2026/01/15 16:56:00.000   22.434297708  114.335380610    64.1655   6   5   0.0491   0.0502   0.1250  -0.0170   0.0311  -0.0265   0.00    0.0
2026/01/15 16:56:30.000   22.434297701  114.335380616    64.1651   6   5   0.0491   0.0502   0.1249  -0.0169   0.0311  -0.0265   0.00    0.0
2026/01/15 16:57:00.000   22.434297694  114.335380622    64.1648   6   5   0.0491   0.0502   0.1249  -0.0169   0.0312  -0.0265   0.00    0.0
2026/01/15 16:57:30.000   22.434297686  114.335380629    64.1645   6   5   0.0490   0.0501   0.1248  -0.0169   0.0312  -0.0265   0.00    0.0
2026/01/15 16:58:00.000   22.434297677  114.335380636    64.1641   6   5   0.0490   0.0501   0.1247  -0.0169   0.0312  -0.0265   0.00    0.0
2026/01/15 16:58:30.000   22.434297669  114.335380643    64.1635   6   5   0.0490   0.0501   0.1246  -0.0169   0.0312  -0.0265   0.00    0.0
2026/01/15 16:59:00.000   22.434297660  114.335380650    64.1631   6   5   0.0489   0.0501   0.1245  -0.0169   0.0312  -0.0266   0.00    0.0
2026/01/15 16:59:30.000   22.434297652  114.335380656    64.1628   6   5   0.0489   0.0500   0.1244  -0.0169   0.0313  -0.0266   0.00    0.0
2026/01/15 17:00:00.000   22.434297645  114.335380662    64.1629   6   5   0.0489   0.0500   0.1243  -0.0169   0.0313  -0.0266   0.00    0.0
2026/01/15 17:00:30.000   22.434297638  114.335380668    64.1629   6   5   0.0488   0.0500   0.1242  -0.0169   0.0313  -0.0266   0.00    0.0
2026/01/15 17:01:00.000   22.434297631  114.335380674    64.1627   6   5   0.0488   0.0500   0.1242  -0.0169   0.0313  -0.0266   0.00    0.0
2026/01/15 17:01:30.000   22.434297624  114.335380681    64.1626   6   5   0.0488   0.0499   0.1241  -0.0169   0.0313  -0.0266   0.00    0.0
2026/01/15 17:02:00.000   22.434297618  114.335380686    64.1625   6   5   0.0487   0.0499   0.1240  -0.0169   0.0314  -0.0267   0.00    0.0
2026/01/15 17:02:30.000   22.434297613  114.335380692    64.1624   6   5   0.0487   0.0499   0.1239  -0.0169   0.0314  -0.0267   0.00    0.0
2026/01/15 17:03:00.000   22.434297608  114.335380698    64.1622   6   5   0.0487   0.0498   0.1238  -0.0169   0.0314  -0.0267   0.00    0.0
2026/01/15 17:03:30.000   22.434297602  114.335380705    64.1619   6   5   0.0486   0.0498   0.1238  -0.0169   0.0314  -0.0267   0.00    0.0
2026/01/15 17:04:00.000   22.434297597  114.335380713    64.1616   6   5   0.0486   0.0498   0.1237  -0.0169   0.0314  -0.0267   0.00    0.0
2026/01/15 17:04:30.000   22.434297592  114.335380721    64.1614   6   5   0.0486   0.0498   0.1236  -0.0169   0.0315  -0.0267   0.00    0.0
2026/01/15 17:05:00.000   22.434297587  114.335380728    64.1611   6   5   0.0485   0.0497   0.1235  -0.0168   0.0315  -0.0268   0.00    0.0
2026/01/15 17:05:30.000   22.434297581  114.335380736    64.1605   6   5   0.0485   0.0497   0.1234  -0.0168   0.0315  -0.0268   0.00    0.0
2026/01/15 17:06:00.000   22.434297576  114.335380742    64.1598   6   5   0.0485   0.0497   0.1234  -0.0168   0.0315  -0.0268   0.00    0.0
2026/01/15 17:06:30.000   22.434297572  114.335380749    64.1589   6   5   0.0485   0.0497   0.1233  -0.0168   0.0316  -0.0268   0.00    0.0
2026/01/15 17:07:00.000   22.434297567  114.335380755    64.1579   6   5   0.0484   0.0496   0.1232  -0.0168   0.0316  -0.0268   0.00    0.0
2026/01/15 17:07:30.000   22.434297562  114.335380762    64.1569   6   5   0.0484   0.0496   0.1231  -0.0168   0.0316  -0.0269   0.00    0.0
2026/01/15 17:08:00.000   22.434297557  114.335380769    64.1558   6   5   0.0484   0.0496   0.1230  -0.0168   0.0316  -0.0269   0.00    0.0
2026/01/15 17:08:30.000   22.434297551  114.335380775    64.1548   6   5   0.0483   0.0495   0.1230  -0.0168   0.0316  -0.0269   0.00    0.0
2026/01/15 17:09:00.000   22.434297545  114.335380781    64.1539   6   5   0.0483   0.0495   0.1229  -0.0168   0.0317  -0.0269   0.00    0.0
2026/01/15 17:09:30.000   22.434297540  114.335380785    64.1530   6   5   0.0483   0.0495   0.1228  -0.0168   0.0317  -0.0269   0.00    0.0
2026/01/15 17:10:00.000   22.434297534  114.335380790    64.1522   6   5   0.0482   0.0495   0.1228  -0.0168   0.0317  -0.0269   0.00    0.0
2026/01/15 17:10:30.000   22.434297528  114.335380796    64.1513   6   5   0.0482   0.0494   0.1227  -0.0168   0.0317  -0.0270   0.00    0.0
2026/01/15 17:11:00.000   22.434297522  114.335380803    64.1502   6   5   0.0482   0.0494   0.1226  -0.0168   0.0317  -0.0270   0.00    0.0
2026/01/15 17:11:30.000   22.434297516  114.335380809    64.1490   6   5   0.0481   0.0494   0.1225  -0.0168   0.0318  -0.0270   0.00    0.0
2026/01/15 17:12:00.000   22.434297509  114.335380815    64.1478   6   5   0.0481   0.0494   0.1225  -0.0168   0.0318  -0.0270   0.00    0.0
2026/01/15 17:12:30.000   22.434297502  114.335380821    64.1467   6   5   0.0481   0.0493   0.1224  -0.0168   0.0318  -0.0270   0.00    0.0
2026/01/15 17:13:00.000   22.434297496  114.335380827    64.1458   6   5   0.0480   0.0493   0.1223  -0.0167   0.0318  -0.0271   0.00    0.0
2026/01/15 17:13:30.000   22.434297490  114.335380833    64.1448   6   5   0.0480   0.0493   0.1223  -0.0167   0.0318  -0.0271   0.00    0.0
2026/01/15 17:14:00.000   22.434297484  114.335380839    64.1437   6   5   0.0480   0.0493   0.1222  -0.0167   0.0319  -0.0271   0.00    0.0
2026/01/15 17:14:30.000   22.434297478  114.335380846    64.1426   6   5   0.0479   0.0492   0.1221  -0.0167   0.0319  -0.0271   0.00    0.0
2026/01/15 17:15:00.000   22.434297472  114.335380853    64.1414   6   5   0.0479   0.0492   0.1220  -0.0167   0.0319  -0.0271   0.00    0.0
2026/01/15 17:15:30.000   22.434297467  114.335380860    64.1402   6   5   0.0479   0.0492   0.1220  -0.0167   0.0319  -0.0271   0.00    0.0
2026/01/15 17:16:00.000   22.434297462  114.335380866    64.1390   6   5   0.0478   0.0491   0.1219  -0.0167   0.0319  -0.0272   0.00    0.0
2026/01/15 17:16:30.000   22.434297456  114.335380873    64.1377   6   5   0.0478   0.0491   0.1218  -0.0167   0.0320  -0.0272   0.00    0.0
2026/01/15 17:17:00.000   22.434297451  114.335380878    64.1362   6   5   0.0478   0.0491   0.1218  -0.0167   0.0320  -0.0272   0.00    0.0
2026/01/15 17:17:30.000   22.434297445  114.335380883    64.1346   6   5   0.0477   0.0491   0.1217  -0.0167   0.0320  -0.0272   0.00    0.0
2026/01/15 17:18:00.000   22.434297439  114.335380889    64.1330   6   5   0.0477   0.0490   0.1216  -0.0167   0.0320  -0.0272   0.00    0.0
2026/01/15 17:18:30.000   22.434297433  114.335380896    64.1313   6   5   0.0476   0.0490   0.1215  -0.0166   0.0319  -0.0272   0.00    0.0
2026/01/15 17:19:00.000   22.434297427  114.335380902    64.1294   6   5   0.0476   0.0490   0.1214  -0.0166   0.0319  -0.0272   0.00    0.0
2026/01/15 17:19:30.000   22.434297421  114.335380908    64.1275   6   5   0.0476   0.0489   0.1214  -0.0166   0.0319  -0.0272   0.00    0.0
2026/01/15 17:20:00.000   22.434297415  114.335380914    64.1257   6   5   0.0475   0.0489   0.1213  -0.0166   0.0319  -0.0272   0.00    0.0
2026/01/15 17:20:30.000   22.434297409  114.335380919    64.1238   6   5   0.0475   0.0489   0.1212  -0.0166   0.0319  -0.0272   0.00    0.0
2026/01/15 17:21:00.000   22.434297403  114.335380924    64.1219   6   5   0.0475   0.0488   0.1211  -0.0166   0.0319  -0.0272   0.00    0.0
2026/01/15 17:21:30.000   22.434297398  114.335380927    64.1197   6   5   0.0474   0.0488   0.1211  -0.0166   0.0319  -0.0273   0.00    0.0
2026/01/15 17:22:00.000   22.434297392  114.335380931    64.1176   6   5   0.0474   0.0488   0.1210  -0.0165   0.0319  -0.0273   0.00    0.0
2026/01/15 17:22:30.000   22.434297387  114.335380936    64.1156   6   5   0.0474   0.0487   0.1209  -0.0165   0.0319  -0.0273   0.00    0.0
2026/01/15 17:23:00.000   22.434297381  114.335380942    64.1136   6   5   0.0473   0.0487   0.1208  -0.0165   0.0319  -0.0273   0.00    0.0
2026/01/15 17:23:30.000   22.434297375  114.335380948    64.1117   6   5   0.0473   0.0487   0.1208  -0.0165   0.0319  -0.0273   0.00    0.0
2026/01/15 17:24:00.000   22.434297370  114.335380954    64.1097   6   5   0.0473   0.0486   0.1207  -0.0165   0.0319  -0.0273   0.00    0.0
2026/01/15 17:24:30.000   22.434297365  114.335380959    64.1079   6   5   0.0472   0.0486   0.1206  -0.0165   0.0319  -0.0273   0.00    0.0
2026/01/15 17:25:00.000   22.434297360  114.335380965    64.1061   6   5   0.0472   0.0486   0.1205  -0.0165   0.0319  -0.0273   0.00    0.0
2026/01/15 17:25:30.000   22.434297355  114.335380970    64.1044   6   5   0.0472   0.0485   0.1205  -0.0164   0.0319  -0.0273   0.00    0.0
2026/01/15 17:26:00.000   22.434297349  114.335380976    64.1026   6   5   0.0471   0.0485   0.1204  -0.0164   0.0319  -0.0273   0.00    0.0
2026/01/15 17:26:30.000   22.434297344  114.335380982    64.1006   6   5   0.0471   0.0485   0.1203  -0.0164   0.0319  -0.0273   0.00    0.0
2026/01/15 17:27:00.000   22.434297339  114.335380987    64.0985   6   5   0.0471   0.0484   0.1203  -0.0164   0.0319  -0.0273   0.00    0.0
2026/01/15 17:27:30.000   22.434297333  114.335380992    64.0964   6   5   0.0470   0.0484   0.1202  -0.0164   0.0319  -0.0273   0.00    0.0
2026/01/15 17:28:00.000   22.434297327  114.335380996    64.0944   6   5   0.0470   0.0484   0.1201  -0.0164   0.0319  -0.0273   0.00    0.0
2026/01/15 17:28:30.000   22.434297321  114.335380999    64.0929   6   4   0.0470   0.0483   0.1201  -0.0164   0.0318  -0.0273   0.00    0.0
2026/01/15 17:29:00.000   22.434297315  114.335381003    64.0912   6   4   0.0469   0.0483   0.1200  -0.0163   0.0318  -0.0273   0.00    0.0
2026/01/15 17:29:30.000   22.434297309  114.335381006    64.0897   6   4   0.0469   0.0483   0.1200  -0.0163   0.0318  -0.0273   0.00    0.0
2026/01/15 17:30:00.000   22.434297304  114.335381009    64.0881   6   4   0.0469   0.0482   0.1199  -0.0163   0.0318  -0.0273   0.00    0.0
2026/01/15 17:30:30.000   22.434297299  114.335381011    64.0865   6   4   0.0468   0.0482   0.1199  -0.0163   0.0317  -0.0273   0.00    0.0
2026/01/15 17:31:00.000   22.434297293  114.335381013    64.0849   6   4   0.0468   0.0482   0.1198  -0.0163   0.0317  -0.0273   0.00    0.0
2026/01/15 17:31:30.000   22.434297287  114.335381015    64.0833   6   5   0.0467   0.0482   0.1198  -0.0163   0.0317  -0.0273   0.00    0.0
2026/01/15 17:32:00.000   22.434297280  114.335381017    64.0817   6   5   0.0467   0.0481   0.1197  -0.0163   0.0317  -0.0273   0.00    0.0
2026/01/15 17:32:30.000   22.434297274  114.335381020    64.0801   6   5   0.0467   0.0481   0.1197  -0.0163   0.0316  -0.0273   0.00    0.0
2026/01/15 17:33:00.000   22.434297269  114.335381023    64.0783   6   5   0.0466   0.0481   0.1196  -0.0162   0.0316  -0.0273   0.00    0.0
2026/01/15 17:33:30.000   22.434297264  114.335381026    64.0764   6   5   0.0466   0.0480   0.1196  -0.0162   0.0316  -0.0273   0.00    0.0
2026/01/15 17:34:00.000   22.434297259  114.335381030    64.0744   6   5   0.0466   0.0480   0.1195  -0.0162   0.0316  -0.0273   0.00    0.0
2026/01/15 17:34:30.000   22.434297254  114.335381033    64.0723   6   5   0.0465   0.0480   0.1195  -0.0162   0.0315  -0.0273   0.00    0.0
2026/01/15 17:35:00.000   22.434297248  114.335381037    64.0702   6   5   0.0465   0.0480   0.1194  -0.0162   0.0315  -0.0273   0.00    0.0
2026/01/15 17:35:30.000   22.434297244  114.335381040    64.0682   6   5   0.0465   0.0479   0.1194  -0.0162   0.0315  -0.0273   0.00    0.0
2026/01/15 17:36:00.000   22.434297239  114.335381042    64.0662   6   5   0.0464   0.0479   0.1193  -0.0162   0.0315  -0.0273   0.00    0.0
2026/01/15 17:36:30.000   22.434297234  114.335381045    64.0642   6   5   0.0464   0.0479   0.1193  -0.0162   0.0314  -0.0273   0.00    0.0
2026/01/15 17:37:00.000   22.434297229  114.335381047    64.0622   6   5   0.0464   0.0478   0.1192  -0.0162   0.0314  -0.0273   0.00    0.0
2026/01/15 17:37:30.000   22.434297224  114.335381049    64.0603   6   5   0.0463   0.0478   0.1192  -0.0161   0.0314  -0.0273   0.00    0.0
2026/01/15 17:38:00.000   22.434297219  114.335381050    64.0585   6   5   0.0463   0.0478   0.1191  -0.0161   0.0314  -0.0273   0.00    0.0
2026/01/15 17:38:30.000   22.434297214  114.335381053    64.0565   6   5   0.0463   0.0478   0.1191  -0.0161   0.0313  -0.0273   0.00    0.0
2026/01/15 17:39:00.000   22.434297210  114.335381056    64.0545   6   5   0.0462   0.0477   0.1190  -0.0161   0.0313  -0.0273   0.00    0.0
2026/01/15 17:39:30.000   22.434297205  114.335381058    64.0524   6   5   0.0462   0.0477   0.1190  -0.0161   0.0313  -0.0272   0.00    0.0
2026/01/15 17:40:00.000   22.434297201  114.335381060    64.0502   6   5   0.0462   0.0477   0.1190  -0.0161   0.0313  -0.0272   0.00    0.0
