% program   : RTKPOST ver.demo5 b34d
% inp file  : C:\Users\tevin\Desktop\GNSS - MASTA\SPRING SEM\4.SAT NAV DATA PROCESSING\TEAM PROJECT\SNDP-PROJECT\DATA(Tevin USE)\obs\RNXDATA\WUH200CHN_R_20260150000_01D_30S_MO.obs
% inp file  : C:\Users\tevin\Desktop\GNSS - MASTA\SPRING SEM\4.SAT NAV DATA PROCESSING\TEAM PROJECT\SNDP-PROJECT\DATA(Tevin USE)\nav\BRDC00IGS_R_20260150000_01D_MN.nav
% inp file  : C:\Users\tevin\Desktop\GNSS - MASTA\SPRING SEM\4.SAT NAV DATA PROCESSING\TEAM PROJECT\SNDP-PROJECT\DATA(Tevin USE)\DATA_FINAL_ANT_EXTRA\COD0MGXFIN_20260150000_01D_30S_CLK.CLK
% inp file  : C:\Users\tevin\Desktop\GNSS - MASTA\SPRING SEM\4.SAT NAV DATA PROCESSING\TEAM PROJECT\SNDP-PROJECT\DATA(Tevin USE)\DATA_FINAL_ANT_EXTRA\COD0MGXFIN_20260150000_01D_05M_ORB.SP3
% obs start : 2026/01/15 00:00:00.0 GPST (week2401 345600.0s)
% obs end   : 2026/01/15 23:59:30.0 GPST (week2401 431970.0s)
% pos mode  : PPP Static
% solution  : Forward
% elev mask : 15.0 deg
% dynamics  : on
% tidecorr  : off
% tropo opt : Saastamoinen
% ephemeris : Precise
% navi sys  : GPS
% antenna1  :                       ( 0.0000  0.0000  0.0000)
%
% (lat/lon/height=WGS84/ellipsoidal,Q=1:fix,2:float,3:sbas,4:dgps,5:single,6:ppp,ns=# of satellites)
%  GPST                  latitude(deg) longitude(deg)  height(m)   Q  ns   sdn(m)   sde(m)   sdu(m)  sdne(m)  sdeu(m)  sdun(m) age(s)  ratio
2026/01/15 00:00:00.000   30.531723400  114.357239061    20.8275   6   7   1.6213   1.5870   4.9957  -0.6350   0.9220  -1.3445   0.00    0.0
2026/01/15 00:00:30.000   30.531724797  114.357238424    20.4042   6   7   1.1475   1.1240   3.5444  -0.4474   0.6555  -0.9440   0.00    0.0
2026/01/15 00:01:00.000   30.531725516  114.357237912    20.6770   6   7   0.9374   0.9188   2.8983  -0.3638   0.5390  -0.7643   0.00    0.0
2026/01/15 00:01:30.000   30.531725653  114.357237859    20.6751   6   7   0.8122   0.7966   2.5127  -0.3137   0.4703  -0.6561   0.00    0.0
2026/01/15 00:02:00.000   30.531725392  114.357238240    20.6425   6   7   0.7267   0.7134   2.2494  -0.2795   0.4241  -0.5815   0.00    0.0
2026/01/15 00:02:30.000   30.531725255  114.357238305    20.5503   6   7   0.6637   0.6520   2.0552  -0.2541   0.3904  -0.5260   0.00    0.0
2026/01/15 00:03:00.000   30.531725320  114.357238747    20.4620   6   7   0.6147   0.6042   1.9041  -0.2342   0.3643  -0.4823   0.00    0.0
2026/01/15 00:03:30.000   30.531725478  114.357239272    20.4310   6   7   0.5751   0.5657   1.7822  -0.2180   0.3433  -0.4467   0.00    0.0
2026/01/15 00:04:00.000   30.531725590  114.357239669    20.4205   6   7   0.5423   0.5338   1.6812  -0.2045   0.3260  -0.4169   0.00    0.0
2026/01/15 00:04:30.000   30.531725811  114.357239647    20.3235   6   7   0.5145   0.5068   1.5959  -0.1930   0.3116  -0.3914   0.00    0.0
2026/01/15 00:05:00.000   30.531726109  114.357239826    20.2824   6   7   0.4907   0.4837   1.5225  -0.1830   0.2993  -0.3693   0.00    0.0
2026/01/15 00:05:30.000   30.531726137  114.357239930    20.2495   6   7   0.4699   0.4635   1.4585  -0.1743   0.2887  -0.3499   0.00    0.0
2026/01/15 00:06:00.000   30.531726204  114.357240127    20.2787   6   7   0.4516   0.4457   1.4021  -0.1666   0.2795  -0.3326   0.00    0.0
2026/01/15 00:06:30.000   30.531726323  114.357240265    20.2404   6   7   0.4353   0.4299   1.3520  -0.1597   0.2715  -0.3170   0.00    0.0
2026/01/15 00:07:00.000   30.531726395  114.357240363    20.2095   6   7   0.4206   0.4158   1.3070  -0.1534   0.2644  -0.3029   0.00    0.0
2026/01/15 00:07:30.000   30.531726386  114.357240674    20.2098   6   7   0.4075   0.4030   1.2664  -0.1478   0.2581  -0.2899   0.00    0.0
2026/01/15 00:08:00.000   30.531726120  114.357240694    19.9552   6   8   0.3951   0.3910   1.2215  -0.1438   0.2477  -0.2829   0.00    0.0
2026/01/15 00:08:30.000   30.531725904  114.357240826    19.7391   6   8   0.3837   0.3801   1.1812  -0.1400   0.2387  -0.2760   0.00    0.0
2026/01/15 00:09:00.000   30.531725780  114.357240878    19.4667   6   8   0.3733   0.3700   1.1447  -0.1364   0.2307  -0.2694   0.00    0.0
2026/01/15 00:09:30.000   30.531725693  114.357241034    19.2793   6   8   0.3636   0.3608   1.1114  -0.1331   0.2236  -0.2629   0.00    0.0
2026/01/15 00:10:00.000   30.531725605  114.357241033    19.1368   6   8   0.3547   0.3522   1.0809  -0.1299   0.2173  -0.2568   0.00    0.0
2026/01/15 00:10:30.000   30.531725534  114.357241007    18.9314   6   8   0.3465   0.3442   1.0528  -0.1269   0.2116  -0.2508   0.00    0.0
2026/01/15 00:11:00.000   30.531725464  114.357240997    18.7573   6   8   0.3387   0.3368   1.0268  -0.1241   0.2065  -0.2452   0.00    0.0
2026/01/15 00:11:30.000   30.531725331  114.357241194    18.6414   6   8   0.3315   0.3299   1.0027  -0.1214   0.2018  -0.2398   0.00    0.0
2026/01/15 00:12:00.000   30.531725307  114.357241315    18.4946   6   8   0.3248   0.3234   0.9802  -0.1189   0.1976  -0.2346   0.00    0.0
2026/01/15 00:12:30.000   30.531725314  114.357241387    18.3777   6   8   0.3184   0.3174   0.9592  -0.1165   0.1938  -0.2296   0.00    0.0
2026/01/15 00:13:00.000   30.531725329  114.357241364    18.2808   6   8   0.3124   0.3116   0.9395  -0.1142   0.1903  -0.2249   0.00    0.0
2026/01/15 00:13:30.000   30.531725359  114.357241437    18.1525   6   8   0.3068   0.3062   0.9209  -0.1120   0.1871  -0.2204   0.00    0.0
2026/01/15 00:14:00.000   30.531725378  114.357241548    18.0557   6   8   0.3014   0.3011   0.9035  -0.1101   0.1842  -0.2160   0.00    0.0
2026/01/15 00:14:30.000   30.531725385  114.357241628    17.9633   6   8   0.2964   0.2963   0.8870  -0.1082   0.1815  -0.2119   0.00    0.0
2026/01/15 00:15:00.000   30.531725466  114.357241649    17.8421   6   8   0.2916   0.2918   0.8714  -0.1064   0.1790  -0.2079   0.00    0.0
2026/01/15 00:15:30.000   30.531725524  114.357241779    17.7459   6   8   0.2870   0.2875   0.8566  -0.1047   0.1767  -0.2041   0.00    0.0
2026/01/15 00:16:00.000   30.531725523  114.357241848    17.6467   6   8   0.2826   0.2834   0.8425  -0.1030   0.1746  -0.2005   0.00    0.0
2026/01/15 00:16:30.000   30.531725531  114.357241918    17.5671   6   8   0.2784   0.2795   0.8291  -0.1015   0.1726  -0.1970   0.00    0.0
2026/01/15 00:17:00.000   30.531725614  114.357241998    17.4912   6   8   0.2745   0.2757   0.8164  -0.1000   0.1708  -0.1936   0.00    0.0
2026/01/15 00:17:30.000   30.531725631  114.357242086    17.4229   6   8   0.2707   0.2722   0.8042  -0.0986   0.1691  -0.1904   0.00    0.0
2026/01/15 00:18:00.000   30.531725600  114.357242215    17.3616   6   8   0.2670   0.2687   0.7926  -0.0972   0.1675  -0.1873   0.00    0.0
2026/01/15 00:18:30.000   30.531725663  114.357242327    17.2845   6   8   0.2636   0.2655   0.7814  -0.0959   0.1660  -0.1844   0.00    0.0
2026/01/15 00:19:00.000   30.531725712  114.357242418    17.2179   6   8   0.2602   0.2623   0.7708  -0.0946   0.1647  -0.1815   0.00    0.0
2026/01/15 00:19:30.000   30.531725701  114.357242518    17.1385   6   8   0.2570   0.2593   0.7605  -0.0934   0.1633  -0.1787   0.00    0.0
2026/01/15 00:20:00.000   30.531725768  114.357242675    17.0549   6   8   0.2538   0.2564   0.7506  -0.0922   0.1621  -0.1761   0.00    0.0
2026/01/15 00:20:30.000   30.531725835  114.357242729    16.9819   6   8   0.2509   0.2536   0.7412  -0.0911   0.1610  -0.1735   0.00    0.0
2026/01/15 00:21:00.000   30.531725898  114.357242803    16.9229   6   8   0.2480   0.2509   0.7321  -0.0900   0.1599  -0.1711   0.00    0.0
2026/01/15 00:21:30.000   30.531725953  114.357242891    16.8542   6   8   0.2452   0.2484   0.7233  -0.0889   0.1589  -0.1687   0.00    0.0
2026/01/15 00:22:00.000   30.531725999  114.357243042    16.7847   6   8   0.2425   0.2459   0.7148  -0.0879   0.1579  -0.1664   0.00    0.0
2026/01/15 00:22:30.000   30.531726038  114.357243174    16.7037   6   8   0.2399   0.2435   0.7067  -0.0870   0.1570  -0.1643   0.00    0.0
2026/01/15 00:23:00.000   30.531726090  114.357243263    16.6253   6   8   0.2374   0.2412   0.6988  -0.0860   0.1562  -0.1622   0.00    0.0
2026/01/15 00:23:30.000   30.531726146  114.357243278    16.5613   6   8   0.2350   0.2389   0.6911  -0.0851   0.1554  -0.1601   0.00    0.0
2026/01/15 00:24:00.000   30.531726212  114.357243339    16.5072   6   8   0.2326   0.2367   0.6838  -0.0842   0.1546  -0.1582   0.00    0.0
2026/01/15 00:24:30.000   30.531726258  114.357243391    16.4363   6   8   0.2304   0.2346   0.6767  -0.0834   0.1539  -0.1563   0.00    0.0
2026/01/15 00:25:00.000   30.531726290  114.357243474    16.3762   6   8   0.2281   0.2326   0.6698  -0.0826   0.1532  -0.1545   0.00    0.0
2026/01/15 00:25:30.000   30.531726298  114.357243581    16.3254   6   8   0.2260   0.2307   0.6631  -0.0818   0.1526  -0.1528   0.00    0.0
2026/01/15 00:26:00.000   30.531726094  114.357243964    16.3975   6   9   0.2236   0.2283   0.6539  -0.0800   0.1492  -0.1487   0.00    0.0
2026/01/15 00:26:30.000   30.531725963  114.357244293    16.4408   6   9   0.2213   0.2260   0.6450  -0.0783   0.1460  -0.1449   0.00    0.0
2026/01/15 00:27:00.000   30.531725813  114.357244614    16.4907   6   9   0.2191   0.2239   0.6365  -0.0766   0.1429  -0.1413   0.00    0.0
2026/01/15 00:27:30.000   30.531725691  114.357244976    16.5326   6   9   0.2169   0.2218   0.6284  -0.0751   0.1401  -0.1378   0.00    0.0
2026/01/15 00:28:00.000   30.531725586  114.357245320    16.6061   6   8   0.2149   0.2197   0.6212  -0.0735   0.1374  -0.1339   0.00    0.0
2026/01/15 00:28:30.000   30.531725528  114.357245698    16.6753   6   8   0.2130   0.2177   0.6141  -0.0721   0.1348  -0.1302   0.00    0.0
2026/01/15 00:29:00.000   30.531725449  114.357246077    16.7427   6   8   0.2111   0.2158   0.6074  -0.0707   0.1323  -0.1266   0.00    0.0
2026/01/15 00:29:30.000   30.531725339  114.357246480    16.8123   6   8   0.2093   0.2139   0.6008  -0.0693   0.1300  -0.1232   0.00    0.0
2026/01/15 00:30:00.000   30.531725244  114.357246855    16.8821   6   8   0.2075   0.2121   0.5944  -0.0680   0.1278  -0.1199   0.00    0.0
2026/01/15 00:30:30.000   30.531725180  114.357247176    16.9359   6   8   0.2058   0.2104   0.5883  -0.0668   0.1257  -0.1168   0.00    0.0
2026/01/15 00:31:00.000   30.531725098  114.357247514    16.9952   6   8   0.2041   0.2087   0.5823  -0.0656   0.1237  -0.1138   0.00    0.0
2026/01/15 00:31:30.000   30.531725008  114.357247827    17.0477   6   8   0.2024   0.2070   0.5765  -0.0644   0.1218  -0.1109   0.00    0.0
2026/01/15 00:32:00.000   30.531724953  114.357248163    17.1039   6   8   0.2008   0.2054   0.5709  -0.0633   0.1199  -0.1082   0.00    0.0
2026/01/15 00:32:30.000   30.531724886  114.357248494    17.1578   6   8   0.1993   0.2038   0.5654  -0.0623   0.1182  -0.1055   0.00    0.0
2026/01/15 00:33:00.000   30.531724871  114.357248794    17.1861   6   8   0.1978   0.2023   0.5601  -0.0612   0.1165  -0.1030   0.00    0.0
2026/01/15 00:33:30.000   30.531724822  114.357249067    17.2272   6   8   0.1963   0.2008   0.5549  -0.0602   0.1149  -0.1006   0.00    0.0
2026/01/15 00:34:00.000   30.531724781  114.357249344    17.2667   6   8   0.1949   0.1993   0.5498  -0.0593   0.1134  -0.0983   0.00    0.0
2026/01/15 00:34:30.000   30.531724728  114.357249646    17.3053   6   8   0.1935   0.1979   0.5449  -0.0583   0.1119  -0.0961   0.00    0.0
2026/01/15 00:35:00.000   30.531724683  114.357249919    17.3489   6   8   0.1921   0.1965   0.5401  -0.0574   0.1105  -0.0940   0.00    0.0
2026/01/15 00:35:30.000   30.531724613  114.357250257    17.3895   6   8   0.1907   0.1951   0.5354  -0.0565   0.1091  -0.0920   0.00    0.0
2026/01/15 00:36:00.000   30.531724558  114.357250559    17.4316   6   8   0.1894   0.1938   0.5308  -0.0557   0.1078  -0.0901   0.00    0.0
2026/01/15 00:36:30.000   30.531724549  114.357250820    17.4548   6   8   0.1881   0.1925   0.5263  -0.0549   0.1066  -0.0883   0.00    0.0
2026/01/15 00:37:00.000   30.531724466  114.357251134    17.5011   6   8   0.1869   0.1912   0.5219  -0.0541   0.1054  -0.0865   0.00    0.0
2026/01/15 00:37:30.000   30.531724394  114.357251382    17.5425   6   8   0.1857   0.1900   0.5177  -0.0533   0.1042  -0.0849   0.00    0.0
2026/01/15 00:38:00.000   30.531724358  114.357251624    17.5725   6   8   0.1844   0.1888   0.5135  -0.0526   0.1031  -0.0833   0.00    0.0
2026/01/15 00:38:30.000   30.531724287  114.357251890    17.6065   6   8   0.1833   0.1876   0.5094  -0.0519   0.1020  -0.0818   0.00    0.0
2026/01/15 00:39:00.000   30.531724230  114.357252174    17.6239   6   8   0.1821   0.1864   0.5055  -0.0512   0.1010  -0.0804   0.00    0.0
2026/01/15 00:39:30.000   30.531724198  114.357252423    17.6329   6   8   0.1810   0.1853   0.5016  -0.0505   0.1000  -0.0790   0.00    0.0
2026/01/15 00:40:00.000   30.531724184  114.357252639    17.6427   6   8   0.1799   0.1842   0.4979  -0.0499   0.0992  -0.0778   0.00    0.0
2026/01/15 00:40:30.000   30.531724174  114.357252853    17.6424   6   8   0.1788   0.1831   0.4943  -0.0493   0.0984  -0.0767   0.00    0.0
2026/01/15 00:41:00.000   30.531724162  114.357253099    17.6464   6   8   0.1777   0.1820   0.4907  -0.0487   0.0976  -0.0756   0.00    0.0
2026/01/15 00:41:30.000   30.531724176  114.357253350    17.6386   6   7   0.1767   0.1810   0.4877  -0.0481   0.0966  -0.0751   0.00    0.0
2026/01/15 00:42:00.000   30.531724166  114.357253587    17.6379   6   7   0.1757   0.1800   0.4848  -0.0475   0.0956  -0.0747   0.00    0.0
2026/01/15 00:42:30.000   30.531724165  114.357253812    17.6233   6   7   0.1748   0.1790   0.4819  -0.0469   0.0947  -0.0742   0.00    0.0
2026/01/15 00:43:00.000   30.531724163  114.357254015    17.6130   6   7   0.1738   0.1781   0.4790  -0.0463   0.0938  -0.0739   0.00    0.0
2026/01/15 00:43:30.000   30.531724138  114.357254222    17.6056   6   7   0.1729   0.1771   0.4762  -0.0458   0.0930  -0.0735   0.00    0.0
2026/01/15 00:44:00.000   30.531724111  114.357254449    17.5993   6   7   0.1719   0.1762   0.4734  -0.0453   0.0922  -0.0732   0.00    0.0
2026/01/15 00:44:30.000   30.531724102  114.357254651    17.5944   6   7   0.1710   0.1753   0.4707  -0.0448   0.0914  -0.0729   0.00    0.0
2026/01/15 00:45:00.000   30.531724095  114.357254822    17.5885   6   7   0.1701   0.1744   0.4680  -0.0443   0.0906  -0.0727   0.00    0.0
2026/01/15 00:45:30.000   30.531724067  114.357254995    17.5781   6   7   0.1693   0.1735   0.4653  -0.0439   0.0899  -0.0725   0.00    0.0
2026/01/15 00:46:00.000   30.531724043  114.357255158    17.5761   6   7   0.1684   0.1727   0.4627  -0.0434   0.0893  -0.0723   0.00    0.0
2026/01/15 00:46:30.000   30.531724040  114.357255353    17.5752   6   7   0.1676   0.1718   0.4601  -0.0430   0.0886  -0.0722   0.00    0.0
2026/01/15 00:47:00.000   30.531724031  114.357255530    17.5755   6   7   0.1667   0.1710   0.4576  -0.0426   0.0880  -0.0721   0.00    0.0
2026/01/15 00:47:30.000   30.531724032  114.357255677    17.5635   6   7   0.1659   0.1702   0.4551  -0.0423   0.0874  -0.0720   0.00    0.0
2026/01/15 00:48:00.000   30.531724039  114.357255838    17.5517   6   7   0.1651   0.1694   0.4526  -0.0419   0.0868  -0.0719   0.00    0.0
2026/01/15 00:48:30.000   30.531724041  114.357255996    17.5445   6   7   0.1643   0.1686   0.4502  -0.0416   0.0863  -0.0718   0.00    0.0
2026/01/15 00:49:00.000   30.531724029  114.357256179    17.5410   6   7   0.1635   0.1678   0.4478  -0.0412   0.0857  -0.0718   0.00    0.0
2026/01/15 00:49:30.000   30.531724033  114.357256355    17.5328   6   7   0.1628   0.1670   0.4454  -0.0409   0.0852  -0.0718   0.00    0.0
2026/01/15 00:50:00.000   30.531724029  114.357256513    17.5254   6   7   0.1620   0.1663   0.4430  -0.0406   0.0848  -0.0718   0.00    0.0
2026/01/15 00:50:30.000   30.531724020  114.357256674    17.5106   6   7   0.1613   0.1656   0.4407  -0.0404   0.0843  -0.0718   0.00    0.0
2026/01/15 00:51:00.000   30.531724021  114.357256817    17.5007   6   7   0.1605   0.1648   0.4385  -0.0401   0.0839  -0.0719   0.00    0.0
2026/01/15 00:51:30.000   30.531724018  114.357256989    17.4940   6   7   0.1598   0.1641   0.4362  -0.0399   0.0834  -0.0719   0.00    0.0
2026/01/15 00:52:00.000   30.531724005  114.357257154    17.4836   6   7   0.1591   0.1634   0.4340  -0.0396   0.0830  -0.0720   0.00    0.0
2026/01/15 00:52:30.000   30.531724003  114.357257317    17.4696   6   7   0.1584   0.1627   0.4318  -0.0394   0.0826  -0.0721   0.00    0.0
2026/01/15 00:53:00.000   30.531724001  114.357257457    17.4559   6   7   0.1577   0.1620   0.4297  -0.0392   0.0823  -0.0722   0.00    0.0
2026/01/15 00:53:30.000   30.531723987  114.357257571    17.4461   6   7   0.1571   0.1614   0.4275  -0.0390   0.0819  -0.0723   0.00    0.0
2026/01/15 00:54:00.000   30.531723982  114.357257721    17.4335   6   7   0.1564   0.1607   0.4254  -0.0389   0.0816  -0.0724   0.00    0.0
2026/01/15 00:54:30.000   30.531723961  114.357257880    17.4231   6   7   0.1557   0.1600   0.4234  -0.0387   0.0812  -0.0725   0.00    0.0
2026/01/15 00:55:00.000   30.531723958  114.357258005    17.4126   6   7   0.1551   0.1594   0.4213  -0.0386   0.0809  -0.0727   0.00    0.0
2026/01/15 00:55:30.000   30.531723951  114.357258129    17.4083   6   7   0.1545   0.1588   0.4193  -0.0384   0.0806  -0.0728   0.00    0.0
2026/01/15 00:56:00.000   30.531723939  114.357258252    17.3974   6   7   0.1538   0.1581   0.4173  -0.0383   0.0803  -0.0730   0.00    0.0
2026/01/15 00:56:30.000   30.531723944  114.357258389    17.3916   6   7   0.1532   0.1575   0.4153  -0.0382   0.0800  -0.0731   0.00    0.0
2026/01/15 00:57:00.000   30.531723942  114.357258498    17.3839   6   7   0.1526   0.1569   0.4134  -0.0381   0.0797  -0.0733   0.00    0.0
2026/01/15 00:57:30.000   30.531723915  114.357258610    17.3783   6   7   0.1520   0.1563   0.4115  -0.0380   0.0795  -0.0735   0.00    0.0
2026/01/15 00:58:00.000   30.531723908  114.357258732    17.3718   6   7   0.1514   0.1557   0.4096  -0.0379   0.0792  -0.0737   0.00    0.0
2026/01/15 00:58:30.000   30.531723914  114.357258846    17.3633   6   7   0.1508   0.1551   0.4077  -0.0378   0.0790  -0.0738   0.00    0.0
2026/01/15 00:59:00.000   30.531723925  114.357258951    17.3578   6   7   0.1503   0.1546   0.4059  -0.0377   0.0787  -0.0740   0.00    0.0
2026/01/15 00:59:30.000   30.531723918  114.357259068    17.3476   6   7   0.1497   0.1540   0.4040  -0.0377   0.0785  -0.0742   0.00    0.0
2026/01/15 01:00:00.000   30.531723925  114.357259166    17.3330   6   7   0.1491   0.1534   0.4022  -0.0376   0.0783  -0.0744   0.00    0.0
2026/01/15 01:00:30.000   30.531723921  114.357259253    17.3179   6   7   0.1486   0.1529   0.4005  -0.0376   0.0781  -0.0746   0.00    0.0
2026/01/15 01:01:00.000   30.531723911  114.357259319    17.3078   6   7   0.1481   0.1523   0.3987  -0.0376   0.0779  -0.0748   0.00    0.0
2026/01/15 01:01:30.000   30.531723913  114.357259402    17.2941   6   7   0.1475   0.1518   0.3970  -0.0375   0.0777  -0.0750   0.00    0.0
2026/01/15 01:02:00.000   30.531723922  114.357259497    17.2824   6   7   0.1470   0.1513   0.3953  -0.0375   0.0775  -0.0752   0.00    0.0
2026/01/15 01:02:30.000   30.531723914  114.357259589    17.2743   6   7   0.1465   0.1507   0.3936  -0.0375   0.0773  -0.0754   0.00    0.0
2026/01/15 01:03:00.000   30.531723909  114.357259671    17.2682   6   7   0.1460   0.1502   0.3919  -0.0375   0.0771  -0.0756   0.00    0.0
2026/01/15 01:03:30.000   30.531723903  114.357259760    17.2601   6   7   0.1455   0.1497   0.3903  -0.0375   0.0769  -0.0758   0.00    0.0
2026/01/15 01:04:00.000   30.531723888  114.357259839    17.2527   6   7   0.1450   0.1492   0.3886  -0.0375   0.0768  -0.0760   0.00    0.0
2026/01/15 01:04:30.000   30.531723877  114.357259910    17.2470   6   7   0.1445   0.1487   0.3870  -0.0375   0.0766  -0.0762   0.00    0.0
2026/01/15 01:05:00.000   30.531723865  114.357259978    17.2420   6   7   0.1440   0.1482   0.3854  -0.0376   0.0764  -0.0764   0.00    0.0
2026/01/15 01:05:30.000   30.531723860  114.357260062    17.2386   6   7   0.1435   0.1477   0.3839  -0.0376   0.0763  -0.0766   0.00    0.0
2026/01/15 01:06:00.000   30.531723857  114.357260135    17.2309   6   7   0.1431   0.1472   0.3823  -0.0376   0.0761  -0.0768   0.00    0.0
2026/01/15 01:06:30.000   30.531723860  114.357260216    17.2235   6   7   0.1426   0.1467   0.3808  -0.0377   0.0760  -0.0770   0.00    0.0
2026/01/15 01:07:00.000   30.531723861  114.357260284    17.2161   6   7   0.1422   0.1463   0.3793  -0.0377   0.0759  -0.0772   0.00    0.0
2026/01/15 01:07:30.000   30.531723858  114.357260359    17.2097   6   7   0.1417   0.1458   0.3778  -0.0378   0.0757  -0.0774   0.00    0.0
2026/01/15 01:08:00.000   30.531723850  114.357260416    17.2043   6   7   0.1413   0.1453   0.3763  -0.0378   0.0756  -0.0776   0.00    0.0
2026/01/15 01:08:30.000   30.531723839  114.357260476    17.1950   6   7   0.1408   0.1449   0.3749  -0.0379   0.0755  -0.0778   0.00    0.0
2026/01/15 01:09:00.000   30.531723830  114.357260536    17.1881   6   7   0.1404   0.1444   0.3734  -0.0379   0.0753  -0.0780   0.00    0.0
2026/01/15 01:09:30.000   30.531723812  114.357260602    17.1836   6   7   0.1400   0.1440   0.3720  -0.0380   0.0752  -0.0782   0.00    0.0
2026/01/15 01:10:00.000   30.531723791  114.357260661    17.1791   6   7   0.1396   0.1435   0.3706  -0.0381   0.0751  -0.0784   0.00    0.0
2026/01/15 01:10:30.000   30.531723779  114.357260719    17.1797   6   7   0.1391   0.1431   0.3692  -0.0381   0.0750  -0.0786   0.00    0.0
2026/01/15 01:11:00.000   30.531723765  114.357260773    17.1746   6   7   0.1387   0.1427   0.3678  -0.0382   0.0749  -0.0788   0.00    0.0
2026/01/15 01:11:30.000   30.531723757  114.357260831    17.1714   6   7   0.1383   0.1422   0.3665  -0.0383   0.0748  -0.0790   0.00    0.0
2026/01/15 01:12:00.000   30.531723737  114.357260877    17.1683   6   7   0.1379   0.1418   0.3651  -0.0384   0.0747  -0.0792   0.00    0.0
2026/01/15 01:12:30.000   30.531723721  114.357260926    17.1660   6   7   0.1376   0.1414   0.3638  -0.0384   0.0746  -0.0794   0.00    0.0
2026/01/15 01:13:00.000   30.531723697  114.357260990    17.1664   6   7   0.1372   0.1410   0.3625  -0.0385   0.0745  -0.0796   0.00    0.0
2026/01/15 01:13:30.000   30.531723682  114.357261038    17.1622   6   7   0.1368   0.1406   0.3612  -0.0386   0.0744  -0.0797   0.00    0.0
2026/01/15 01:14:00.000   30.531723658  114.357261102    17.1591   6   7   0.1364   0.1402   0.3600  -0.0387   0.0743  -0.0799   0.00    0.0
2026/01/15 01:14:30.000   30.531723639  114.357261152    17.1531   6   7   0.1361   0.1398   0.3587  -0.0388   0.0742  -0.0801   0.00    0.0
2026/01/15 01:15:00.000   30.531723621  114.357261180    17.1472   6   7   0.1357   0.1394   0.3575  -0.0389   0.0741  -0.0803   0.00    0.0
2026/01/15 01:15:30.000   30.531723593  114.357261213    17.1422   6   7   0.1353   0.1390   0.3562  -0.0390   0.0740  -0.0804   0.00    0.0
2026/01/15 01:16:00.000   30.531723582  114.357261255    17.1391   6   7   0.1350   0.1386   0.3550  -0.0391   0.0739  -0.0806   0.00    0.0
2026/01/15 01:16:30.000   30.531723564  114.357261296    17.1369   6   7   0.1346   0.1382   0.3538  -0.0392   0.0738  -0.0808   0.00    0.0
2026/01/15 01:17:00.000   30.531723545  114.357261331    17.1300   6   7   0.1343   0.1378   0.3526  -0.0393   0.0738  -0.0809   0.00    0.0
2026/01/15 01:17:30.000   30.531723522  114.357261374    17.1263   6   7   0.1339   0.1375   0.3515  -0.0394   0.0737  -0.0811   0.00    0.0
2026/01/15 01:18:00.000   30.531723499  114.357261435    17.1257   6   7   0.1336   0.1371   0.3503  -0.0395   0.0736  -0.0812   0.00    0.0
2026/01/15 01:18:30.000   30.531723475  114.357261465    17.1245   6   7   0.1333   0.1367   0.3492  -0.0396   0.0735  -0.0814   0.00    0.0
2026/01/15 01:19:00.000   30.531723459  114.357261509    17.1247   6   7   0.1329   0.1363   0.3480  -0.0397   0.0735  -0.0815   0.00    0.0
2026/01/15 01:19:30.000   30.531723433  114.357261549    17.1227   6   7   0.1326   0.1360   0.3469  -0.0398   0.0734  -0.0817   0.00    0.0
2026/01/15 01:20:00.000   30.531723405  114.357261582    17.1223   6   7   0.1323   0.1356   0.3458  -0.0399   0.0733  -0.0818   0.00    0.0
2026/01/15 01:20:30.000   30.531723378  114.357261609    17.1206   6   7   0.1320   0.1353   0.3447  -0.0400   0.0732  -0.0820   0.00    0.0
2026/01/15 01:21:00.000   30.531723350  114.357261655    17.1190   6   7   0.1317   0.1349   0.3436  -0.0401   0.0732  -0.0821   0.00    0.0
2026/01/15 01:21:30.000   30.531723306  114.357261684    17.1178   6   7   0.1314   0.1346   0.3426  -0.0402   0.0731  -0.0823   0.00    0.0
2026/01/15 01:22:00.000   30.531723272  114.357261715    17.1149   6   7   0.1311   0.1342   0.3415  -0.0403   0.0730  -0.0824   0.00    0.0
2026/01/15 01:22:30.000   30.531723241  114.357261741    17.1128   6   7   0.1308   0.1339   0.3405  -0.0404   0.0730  -0.0825   0.00    0.0
2026/01/15 01:23:00.000   30.531723215  114.357261763    17.1110   6   7   0.1305   0.1335   0.3395  -0.0405   0.0729  -0.0826   0.00    0.0
2026/01/15 01:23:30.000   30.531723173  114.357261780    17.1099   6   7   0.1302   0.1332   0.3384  -0.0406   0.0729  -0.0828   0.00    0.0
2026/01/15 01:24:00.000   30.531723141  114.357261799    17.1080   6   7   0.1299   0.1329   0.3374  -0.0407   0.0728  -0.0829   0.00    0.0
2026/01/15 01:24:30.000   30.531723103  114.357261794    17.1060   6   7   0.1296   0.1325   0.3364  -0.0409   0.0728  -0.0830   0.00    0.0
2026/01/15 01:25:00.000   30.531723071  114.357261808    17.1058   6   7   0.1293   0.1322   0.3355  -0.0410   0.0727  -0.0831   0.00    0.0
2026/01/15 01:25:30.000   30.531723035  114.357261829    17.1026   6   7   0.1291   0.1319   0.3345  -0.0411   0.0726  -0.0833   0.00    0.0
2026/01/15 01:26:00.000   30.531722993  114.357261835    17.1045   6   7   0.1288   0.1316   0.3335  -0.0412   0.0726  -0.0834   0.00    0.0
2026/01/15 01:26:30.000   30.531722953  114.357261838    17.1042   6   7   0.1285   0.1313   0.3326  -0.0413   0.0725  -0.0835   0.00    0.0
2026/01/15 01:27:00.000   30.531722916  114.357261840    17.1044   6   7   0.1282   0.1309   0.3316  -0.0414   0.0725  -0.0836   0.00    0.0
2026/01/15 01:27:30.000   30.531722880  114.357261854    17.1067   6   7   0.1280   0.1306   0.3307  -0.0415   0.0724  -0.0837   0.00    0.0
2026/01/15 01:28:00.000   30.531722839  114.357261849    17.1070   6   7   0.1277   0.1303   0.3298  -0.0416   0.0724  -0.0838   0.00    0.0
2026/01/15 01:28:30.000   30.531722800  114.357261862    17.1076   6   7   0.1275   0.1300   0.3289  -0.0417   0.0723  -0.0839   0.00    0.0
2026/01/15 01:29:00.000   30.531722761  114.357261865    17.1070   6   7   0.1272   0.1297   0.3280  -0.0418   0.0723  -0.0840   0.00    0.0
2026/01/15 01:29:30.000   30.531722724  114.357261874    17.1079   6   7   0.1270   0.1294   0.3271  -0.0419   0.0723  -0.0841   0.00    0.0
2026/01/15 01:30:00.000   30.531722686  114.357261888    17.1093   6   7   0.1267   0.1291   0.3262  -0.0420   0.0722  -0.0842   0.00    0.0
2026/01/15 01:30:30.000   30.531722643  114.357261898    17.1127   6   7   0.1265   0.1288   0.3254  -0.0421   0.0722  -0.0843   0.00    0.0
2026/01/15 01:31:00.000   30.531722600  114.357261898    17.1159   6   7   0.1262   0.1285   0.3245  -0.0422   0.0721  -0.0843   0.00    0.0
2026/01/15 01:31:30.000   30.531722554  114.357261907    17.1184   6   7   0.1260   0.1282   0.3236  -0.0423   0.0721  -0.0844   0.00    0.0
2026/01/15 01:32:00.000   30.531722506  114.357261915    17.1192   6   7   0.1258   0.1279   0.3228  -0.0424   0.0721  -0.0845   0.00    0.0
2026/01/15 01:32:30.000   30.531722461  114.357261926    17.1221   6   7   0.1255   0.1277   0.3220  -0.0425   0.0720  -0.0846   0.00    0.0
2026/01/15 01:33:00.000   30.531722412  114.357261921    17.1193   6   7   0.1253   0.1274   0.3212  -0.0426   0.0720  -0.0847   0.00    0.0
2026/01/15 01:33:30.000   30.531722361  114.357261936    17.1219   6   7   0.1251   0.1271   0.3204  -0.0427   0.0720  -0.0847   0.00    0.0
2026/01/15 01:34:00.000   30.531722314  114.357261942    17.1251   6   7   0.1248   0.1268   0.3195  -0.0428   0.0719  -0.0848   0.00    0.0
2026/01/15 01:34:30.000   30.531722264  114.357261937    17.1269   6   7   0.1246   0.1265   0.3188  -0.0429   0.0719  -0.0849   0.00    0.0
2026/01/15 01:35:00.000   30.531722210  114.357261940    17.1273   6   7   0.1244   0.1263   0.3180  -0.0430   0.0719  -0.0850   0.00    0.0
2026/01/15 01:35:30.000   30.531722157  114.357261940    17.1308   6   7   0.1242   0.1260   0.3172  -0.0431   0.0718  -0.0850   0.00    0.0
2026/01/15 01:36:00.000   30.531722094  114.357261940    17.1307   6   8   0.1240   0.1257   0.3164  -0.0432   0.0718  -0.0851   0.00    0.0
2026/01/15 01:36:30.000   30.531722026  114.357261930    17.1295   6   8   0.1237   0.1255   0.3156  -0.0433   0.0717  -0.0853   0.00    0.0
2026/01/15 01:37:00.000   30.531721960  114.357261914    17.1295   6   8   0.1235   0.1252   0.3147  -0.0434   0.0717  -0.0854   0.00    0.0
2026/01/15 01:37:30.000   30.531721894  114.357261905    17.1271   6   8   0.1233   0.1249   0.3140  -0.0435   0.0717  -0.0855   0.00    0.0
2026/01/15 01:38:00.000   30.531721821  114.357261890    17.1266   6   8   0.1231   0.1247   0.3132  -0.0436   0.0716  -0.0856   0.00    0.0
2026/01/15 01:38:30.000   30.531721753  114.357261879    17.1285   6   8   0.1229   0.1244   0.3124  -0.0437   0.0716  -0.0857   0.00    0.0
2026/01/15 01:39:00.000   30.531721686  114.357261874    17.1300   6   8   0.1226   0.1242   0.3116  -0.0438   0.0715  -0.0858   0.00    0.0
2026/01/15 01:39:30.000   30.531721603  114.357261890    17.1399   6   9   0.1224   0.1239   0.3107  -0.0437   0.0713  -0.0858   0.00    0.0
2026/01/15 01:40:00.000   30.531721533  114.357261898    17.1443   6   9   0.1222   0.1236   0.3097  -0.0437   0.0710  -0.0857   0.00    0.0
2026/01/15 01:40:30.000   30.531721456  114.357261896    17.1505   6   9   0.1219   0.1233   0.3088  -0.0437   0.0707  -0.0856   0.00    0.0
2026/01/15 01:41:00.000   30.531721383  114.357261897    17.1570   6   9   0.1217   0.1230   0.3078  -0.0437   0.0704  -0.0856   0.00    0.0
2026/01/15 01:41:30.000   30.531721306  114.357261883    17.1616   6   9   0.1215   0.1227   0.3069  -0.0437   0.0702  -0.0855   0.00    0.0
2026/01/15 01:42:00.000   30.531721233  114.357261885    17.1690   6   9   0.1212   0.1224   0.3060  -0.0437   0.0699  -0.0854   0.00    0.0
2026/01/15 01:42:30.000   30.531721149  114.357261893    17.1769   6   9   0.1210   0.1222   0.3051  -0.0437   0.0697  -0.0854   0.00    0.0
2026/01/15 01:43:00.000   30.531721075  114.357261881    17.1817   6   9   0.1208   0.1219   0.3042  -0.0437   0.0694  -0.0853   0.00    0.0
2026/01/15 01:43:30.000   30.531720999  114.357261876    17.1883   6   9   0.1206   0.1216   0.3034  -0.0437   0.0692  -0.0852   0.00    0.0
2026/01/15 01:44:00.000   30.531720918  114.357261876    17.1964   6   9   0.1204   0.1213   0.3025  -0.0437   0.0689  -0.0852   0.00    0.0
2026/01/15 01:44:30.000   30.531720840  114.357261874    17.2033   6   9   0.1201   0.1211   0.3016  -0.0437   0.0687  -0.0851   0.00    0.0
2026/01/15 01:45:00.000   30.531720767  114.357261875    17.2084   6   9   0.1199   0.1208   0.3008  -0.0437   0.0684  -0.0850   0.00    0.0
2026/01/15 01:45:30.000   30.531720693  114.357261867    17.2146   6   9   0.1197   0.1205   0.3000  -0.0437   0.0682  -0.0850   0.00    0.0
2026/01/15 01:46:00.000   30.531720612  114.357261870    17.2217   6   9   0.1195   0.1203   0.2991  -0.0437   0.0680  -0.0849   0.00    0.0
2026/01/15 01:46:30.000   30.531720535  114.357261878    17.2279   6   9   0.1193   0.1200   0.2983  -0.0436   0.0677  -0.0848   0.00    0.0
2026/01/15 01:47:00.000   30.531720451  114.357261872    17.2364   6   9   0.1191   0.1197   0.2975  -0.0436   0.0675  -0.0848   0.00    0.0
2026/01/15 01:47:30.000   30.531720373  114.357261871    17.2462   6   9   0.1189   0.1195   0.2967  -0.0436   0.0673  -0.0847   0.00    0.0
2026/01/15 01:48:00.000   30.531720295  114.357261865    17.2558   6   9   0.1186   0.1192   0.2960  -0.0436   0.0671  -0.0846   0.00    0.0
2026/01/15 01:48:30.000   30.531720222  114.357261844    17.2672   6   8   0.1185   0.1190   0.2952  -0.0436   0.0668  -0.0846   0.00    0.0
2026/01/15 01:49:00.000   30.531720138  114.357261822    17.2800   6   8   0.1183   0.1187   0.2946  -0.0436   0.0666  -0.0846   0.00    0.0
2026/01/15 01:49:30.000   30.531720053  114.357261797    17.2938   6   8   0.1181   0.1185   0.2939  -0.0435   0.0664  -0.0846   0.00    0.0
2026/01/15 01:50:00.000   30.531719972  114.357261781    17.3061   6   8   0.1179   0.1182   0.2932  -0.0435   0.0662  -0.0846   0.00    0.0
2026/01/15 01:50:30.000   30.531719897  114.357261750    17.3168   6   8   0.1177   0.1180   0.2925  -0.0435   0.0659  -0.0846   0.00    0.0
2026/01/15 01:51:00.000   30.531719816  114.357261732    17.3323   6   8   0.1175   0.1177   0.2919  -0.0435   0.0657  -0.0845   0.00    0.0
2026/01/15 01:51:30.000   30.531719739  114.357261723    17.3486   6   8   0.1173   0.1175   0.2912  -0.0435   0.0655  -0.0845   0.00    0.0
2026/01/15 01:52:00.000   30.531719656  114.357261702    17.3632   6   8   0.1171   0.1172   0.2905  -0.0434   0.0653  -0.0845   0.00    0.0
2026/01/15 01:52:30.000   30.531719573  114.357261692    17.3775   6   8   0.1169   0.1170   0.2899  -0.0434   0.0651  -0.0845   0.00    0.0
2026/01/15 01:53:00.000   30.531719487  114.357261683    17.3936   6   8   0.1167   0.1168   0.2893  -0.0434   0.0649  -0.0845   0.00    0.0
2026/01/15 01:53:30.000   30.531719405  114.357261667    17.4076   6   8   0.1165   0.1165   0.2886  -0.0434   0.0647  -0.0845   0.00    0.0
2026/01/15 01:54:00.000   30.531719322  114.357261656    17.4221   6   8   0.1164   0.1163   0.2880  -0.0434   0.0645  -0.0844   0.00    0.0
2026/01/15 01:54:30.000   30.531719240  114.357261641    17.4376   6   8   0.1162   0.1161   0.2874  -0.0433   0.0643  -0.0844   0.00    0.0
2026/01/15 01:55:00.000   30.531719154  114.357261627    17.4526   6   8   0.1160   0.1158   0.2868  -0.0433   0.0641  -0.0844   0.00    0.0
2026/01/15 01:55:30.000   30.531719072  114.357261611    17.4654   6   8   0.1158   0.1156   0.2862  -0.0433   0.0640  -0.0844   0.00    0.0
2026/01/15 01:56:00.000   30.531718990  114.357261606    17.4791   6   8   0.1156   0.1154   0.2856  -0.0432   0.0638  -0.0843   0.00    0.0
2026/01/15 01:56:30.000   30.531718904  114.357261591    17.4939   6   8   0.1155   0.1152   0.2850  -0.0432   0.0636  -0.0843   0.00    0.0
2026/01/15 01:57:00.000   30.531718817  114.357261585    17.5104   6   8   0.1153   0.1149   0.2844  -0.0432   0.0634  -0.0843   0.00    0.0
2026/01/15 01:57:30.000   30.531718731  114.357261570    17.5272   6   8   0.1151   0.1147   0.2838  -0.0432   0.0633  -0.0843   0.00    0.0
2026/01/15 01:58:00.000   30.531718646  114.357261554    17.5414   6   8   0.1149   0.1145   0.2832  -0.0431   0.0631  -0.0843   0.00    0.0
2026/01/15 01:58:30.000   30.531718557  114.357261539    17.5571   6   8   0.1147   0.1143   0.2827  -0.0431   0.0629  -0.0842   0.00    0.0
2026/01/15 01:59:00.000   30.531718467  114.357261520    17.5741   6   8   0.1146   0.1140   0.2821  -0.0431   0.0628  -0.0842   0.00    0.0
2026/01/15 01:59:30.000   30.531718382  114.357261502    17.5889   6   8   0.1144   0.1138   0.2815  -0.0430   0.0626  -0.0842   0.00    0.0
2026/01/15 02:00:00.000   30.531718291  114.357261486    17.6044   6   8   0.1142   0.1136   0.2810  -0.0430   0.0624  -0.0842   0.00    0.0
2026/01/15 02:00:30.000   30.531718199  114.357261462    17.6198   6   8   0.1141   0.1134   0.2804  -0.0430   0.0623  -0.0841   0.00    0.0
2026/01/15 02:01:00.000   30.531718094  114.357261434    17.6293   6   8   0.1139   0.1132   0.2799  -0.0429   0.0622  -0.0841   0.00    0.0
2026/01/15 02:01:30.000   30.531717990  114.357261403    17.6374   6   8   0.1137   0.1130   0.2794  -0.0429   0.0620  -0.0840   0.00    0.0
2026/01/15 02:02:00.000   30.531717889  114.357261382    17.6469   6   8   0.1136   0.1128   0.2789  -0.0428   0.0619  -0.0840   0.00    0.0
2026/01/15 02:02:30.000   30.531717789  114.357261358    17.6563   6   8   0.1134   0.1126   0.2785  -0.0428   0.0618  -0.0839   0.00    0.0
2026/01/15 02:03:00.000   30.531717687  114.357261325    17.6657   6   8   0.1132   0.1123   0.2780  -0.0427   0.0617  -0.0839   0.00    0.0
2026/01/15 02:03:30.000   30.531717586  114.357261304    17.6757   6   8   0.1131   0.1121   0.2775  -0.0427   0.0615  -0.0838   0.00    0.0
2026/01/15 02:04:00.000   30.531717479  114.357261283    17.6874   6   8   0.1129   0.1119   0.2770  -0.0426   0.0614  -0.0838   0.00    0.0
2026/01/15 02:04:30.000   30.531717374  114.357261257    17.6968   6   8   0.1127   0.1117   0.2765  -0.0426   0.0613  -0.0837   0.00    0.0
2026/01/15 02:05:00.000   30.531717267  114.357261233    17.7068   6   8   0.1126   0.1115   0.2761  -0.0426   0.0612  -0.0837   0.00    0.0
2026/01/15 02:05:30.000   30.531717163  114.357261206    17.7177   6   8   0.1124   0.1113   0.2756  -0.0425   0.0611  -0.0837   0.00    0.0
2026/01/15 02:06:00.000   30.531717059  114.357261181    17.7273   6   8   0.1122   0.1111   0.2752  -0.0425   0.0610  -0.0836   0.00    0.0
2026/01/15 02:06:30.000   30.531716958  114.357261155    17.7382   6   8   0.1121   0.1109   0.2747  -0.0424   0.0608  -0.0836   0.00    0.0
2026/01/15 02:07:00.000   30.531716856  114.357261131    17.7487   6   8   0.1119   0.1107   0.2742  -0.0424   0.0607  -0.0835   0.00    0.0
2026/01/15 02:07:30.000   30.531716753  114.357261101    17.7612   6   8   0.1118   0.1105   0.2738  -0.0423   0.0606  -0.0835   0.00    0.0
2026/01/15 02:08:00.000   30.531716652  114.357261075    17.7734   6   7   0.1116   0.1104   0.2734  -0.0423   0.0605  -0.0834   0.00    0.0
2026/01/15 02:08:30.000   30.531716557  114.357261056    17.7871   6   7   0.1115   0.1102   0.2729  -0.0422   0.0604  -0.0834   0.00    0.0
2026/01/15 02:09:00.000   30.531716467  114.357261028    17.8015   6   7   0.1113   0.1100   0.2725  -0.0422   0.0603  -0.0833   0.00    0.0
2026/01/15 02:09:30.000   30.531716377  114.357261005    17.8173   6   7   0.1111   0.1098   0.2721  -0.0421   0.0602  -0.0833   0.00    0.0
2026/01/15 02:10:00.000   30.531716287  114.357260980    17.8346   6   7   0.1110   0.1096   0.2717  -0.0421   0.0601  -0.0832   0.00    0.0
2026/01/15 02:10:30.000   30.531716192  114.357260952    17.8500   6   7   0.1108   0.1094   0.2713  -0.0420   0.0600  -0.0831   0.00    0.0
2026/01/15 02:11:00.000   30.531716104  114.357260934    17.8653   6   7   0.1107   0.1092   0.2709  -0.0420   0.0599  -0.0831   0.00    0.0
2026/01/15 02:11:30.000   30.531716011  114.357260913    17.8819   6   7   0.1105   0.1090   0.2705  -0.0419   0.0598  -0.0830   0.00    0.0
2026/01/15 02:12:00.000   30.531715919  114.357260886    17.8981   6   7   0.1104   0.1088   0.2701  -0.0419   0.0597  -0.0829   0.00    0.0
2026/01/15 02:12:30.000   30.531715829  114.357260863    17.9151   6   7   0.1102   0.1087   0.2697  -0.0418   0.0596  -0.0829   0.00    0.0
2026/01/15 02:13:00.000   30.531715739  114.357260838    17.9319   6   7   0.1101   0.1085   0.2693  -0.0418   0.0595  -0.0828   0.00    0.0
2026/01/15 02:13:30.000   30.531715650  114.357260816    17.9489   6   7   0.1099   0.1083   0.2689  -0.0417   0.0594  -0.0828   0.00    0.0
2026/01/15 02:14:00.000   30.531715559  114.357260798    17.9660   6   7   0.1098   0.1081   0.2686  -0.0417   0.0593  -0.0827   0.00    0.0
2026/01/15 02:14:30.000   30.531715471  114.357260776    17.9825   6   7   0.1096   0.1079   0.2682  -0.0416   0.0592  -0.0827   0.00    0.0
2026/01/15 02:15:00.000   30.531715384  114.357260754    17.9999   6   7   0.1095   0.1078   0.2678  -0.0415   0.0591  -0.0826   0.00    0.0
2026/01/15 02:15:30.000   30.531715299  114.357260736    18.0173   6   7   0.1094   0.1076   0.2674  -0.0415   0.0591  -0.0826   0.00    0.0
2026/01/15 02:16:00.000   30.531715207  114.357260709    18.0349   6   7   0.1092   0.1074   0.2671  -0.0414   0.0590  -0.0825   0.00    0.0
2026/01/15 02:16:30.000   30.531715117  114.357260684    18.0534   6   7   0.1091   0.1072   0.2667  -0.0414   0.0589  -0.0824   0.00    0.0
2026/01/15 02:17:00.000   30.531715028  114.357260663    18.0716   6   7   0.1089   0.1071   0.2663  -0.0413   0.0588  -0.0824   0.00    0.0
2026/01/15 02:17:30.000   30.531714940  114.357260649    18.0897   6   7   0.1088   0.1069   0.2660  -0.0413   0.0587  -0.0823   0.00    0.0
2026/01/15 02:18:00.000   30.531714853  114.357260630    18.1083   6   7   0.1086   0.1067   0.2656  -0.0412   0.0587  -0.0823   0.00    0.0
2026/01/15 02:18:30.000   30.531714763  114.357260606    18.1278   6   7   0.1085   0.1066   0.2652  -0.0411   0.0586  -0.0822   0.00    0.0
2026/01/15 02:19:00.000   30.531714678  114.357260583    18.1462   6   7   0.1083   0.1064   0.2649  -0.0411   0.0585  -0.0822   0.00    0.0
2026/01/15 02:19:30.000   30.531714591  114.357260561    18.1657   6   7   0.1082   0.1062   0.2645  -0.0410   0.0585  -0.0821   0.00    0.0
2026/01/15 02:20:00.000   30.531714505  114.357260542    18.1845   6   7   0.1080   0.1061   0.2642  -0.0410   0.0584  -0.0821   0.00    0.0
2026/01/15 02:20:30.000   30.531714418  114.357260523    18.2050   6   7   0.1079   0.1059   0.2638  -0.0409   0.0583  -0.0821   0.00    0.0
2026/01/15 02:21:00.000   30.531714331  114.357260511    18.2248   6   7   0.1077   0.1057   0.2635  -0.0408   0.0583  -0.0820   0.00    0.0
2026/01/15 02:21:30.000   30.531714242  114.357260492    18.2437   6   7   0.1076   0.1056   0.2632  -0.0408   0.0582  -0.0820   0.00    0.0
2026/01/15 02:22:00.000   30.531714156  114.357260476    18.2626   6   7   0.1074   0.1054   0.2628  -0.0407   0.0581  -0.0819   0.00    0.0
2026/01/15 02:22:30.000   30.531714071  114.357260456    18.2818   6   7   0.1073   0.1052   0.2625  -0.0406   0.0581  -0.0819   0.00    0.0
2026/01/15 02:23:00.000   30.531713982  114.357260441    18.3022   6   7   0.1072   0.1051   0.2621  -0.0406   0.0580  -0.0818   0.00    0.0
2026/01/15 02:23:30.000   30.531713892  114.357260423    18.3223   6   7   0.1070   0.1049   0.2618  -0.0405   0.0580  -0.0818   0.00    0.0
2026/01/15 02:24:00.000   30.531713807  114.357260405    18.3427   6   7   0.1069   0.1048   0.2615  -0.0404   0.0579  -0.0817   0.00    0.0
2026/01/15 02:24:30.000   30.531713723  114.357260383    18.3621   6   7   0.1067   0.1046   0.2612  -0.0404   0.0579  -0.0817   0.00    0.0
2026/01/15 02:25:00.000   30.531713635  114.357260363    18.3821   6   7   0.1066   0.1044   0.2608  -0.0403   0.0578  -0.0816   0.00    0.0
2026/01/15 02:25:30.000   30.531713546  114.357260345    18.4016   6   7   0.1064   0.1043   0.2605  -0.0402   0.0578  -0.0816   0.00    0.0
2026/01/15 02:26:00.000   30.531713457  114.357260329    18.4210   6   7   0.1063   0.1041   0.2602  -0.0402   0.0577  -0.0816   0.00    0.0
2026/01/15 02:26:30.000   30.531713372  114.357260316    18.4409   6   7   0.1061   0.1040   0.2599  -0.0401   0.0577  -0.0815   0.00    0.0
2026/01/15 02:27:00.000   30.531713284  114.357260294    18.4618   6   7   0.1060   0.1038   0.2596  -0.0400   0.0577  -0.0815   0.00    0.0
2026/01/15 02:27:30.000   30.531713200  114.357260280    18.4818   6   7   0.1059   0.1037   0.2593  -0.0400   0.0576  -0.0814   0.00    0.0
2026/01/15 02:28:00.000   30.531713113  114.357260264    18.5030   6   7   0.1057   0.1035   0.2589  -0.0399   0.0576  -0.0814   0.00    0.0
2026/01/15 02:28:30.000   30.531713029  114.357260247    18.5248   6   7   0.1056   0.1034   0.2586  -0.0398   0.0575  -0.0813   0.00    0.0
2026/01/15 02:29:00.000   30.531712943  114.357260232    18.5460   6   7   0.1054   0.1032   0.2583  -0.0398   0.0575  -0.0813   0.00    0.0
2026/01/15 02:29:30.000   30.531712855  114.357260215    18.5681   6   7   0.1053   0.1031   0.2580  -0.0397   0.0575  -0.0813   0.00    0.0
2026/01/15 02:30:00.000   30.531712764  114.357260198    18.5910   6   7   0.1051   0.1029   0.2577  -0.0396   0.0574  -0.0812   0.00    0.0
2026/01/15 02:30:30.000   30.531712677  114.357260183    18.6132   6   7   0.1050   0.1028   0.2574  -0.0395   0.0574  -0.0812   0.00    0.0
2026/01/15 02:31:00.000   30.531712593  114.357260169    18.6358   6   7   0.1049   0.1026   0.2571  -0.0395   0.0574  -0.0811   0.00    0.0
2026/01/15 02:31:30.000   30.531712512  114.357260152    18.6576   6   7   0.1047   0.1025   0.2568  -0.0394   0.0573  -0.0811   0.00    0.0
2026/01/15 02:32:00.000   30.531712420  114.357260129    18.6768   6   8   0.1046   0.1023   0.2565  -0.0393   0.0573  -0.0811   0.00    0.0
2026/01/15 02:32:30.000   30.531712329  114.357260110    18.6961   6   8   0.1044   0.1022   0.2562  -0.0393   0.0573  -0.0810   0.00    0.0
2026/01/15 02:33:00.000   30.531712237  114.357260092    18.7156   6   8   0.1043   0.1021   0.2559  -0.0392   0.0572  -0.0810   0.00    0.0
2026/01/15 02:33:30.000   30.531712147  114.357260069    18.7357   6   8   0.1041   0.1019   0.2556  -0.0392   0.0572  -0.0810   0.00    0.0
2026/01/15 02:34:00.000   30.531712057  114.357260048    18.7556   6   8   0.1040   0.1018   0.2553  -0.0391   0.0572  -0.0810   0.00    0.0
2026/01/15 02:34:30.000   30.531711964  114.357260025    18.7761   6   8   0.1038   0.1016   0.2550  -0.0390   0.0571  -0.0809   0.00    0.0
2026/01/15 02:35:00.000   30.531711871  114.357260006    18.7966   6   8   0.1037   0.1015   0.2547  -0.0390   0.0571  -0.0809   0.00    0.0
2026/01/15 02:35:30.000   30.531711779  114.357259988    18.8169   6   8   0.1036   0.1014   0.2544  -0.0389   0.0571  -0.0809   0.00    0.0
2026/01/15 02:36:00.000   30.531711689  114.357259975    18.8375   6   8   0.1034   0.1012   0.2541  -0.0388   0.0570  -0.0808   0.00    0.0
2026/01/15 02:36:30.000   30.531711603  114.357259956    18.8581   6   8   0.1033   0.1011   0.2538  -0.0388   0.0570  -0.0808   0.00    0.0
2026/01/15 02:37:00.000   30.531711514  114.357259931    18.8773   6   8   0.1031   0.1009   0.2535  -0.0387   0.0570  -0.0808   0.00    0.0
2026/01/15 02:37:30.000   30.531711425  114.357259908    18.8980   6   8   0.1030   0.1008   0.2532  -0.0387   0.0569  -0.0808   0.00    0.0
2026/01/15 02:38:00.000   30.531711332  114.357259890    18.9190   6   8   0.1028   0.1007   0.2529  -0.0386   0.0569  -0.0807   0.00    0.0
2026/01/15 02:38:30.000   30.531711244  114.357259874    18.9396   6   8   0.1027   0.1005   0.2526  -0.0385   0.0569  -0.0807   0.00    0.0
2026/01/15 02:39:00.000   30.531711157  114.357259851    18.9605   6   8   0.1025   0.1004   0.2524  -0.0385   0.0569  -0.0807   0.00    0.0
2026/01/15 02:39:30.000   30.531711068  114.357259830    18.9818   6   8   0.1024   0.1003   0.2521  -0.0384   0.0569  -0.0806   0.00    0.0
2026/01/15 02:40:00.000   30.531710980  114.357259809    19.0028   6   8   0.1023   0.1001   0.2518  -0.0383   0.0568  -0.0806   0.00    0.0
2026/01/15 02:40:30.000   30.531710890  114.357259788    19.0240   6   8   0.1021   0.1000   0.2515  -0.0383   0.0568  -0.0806   0.00    0.0
2026/01/15 02:41:00.000   30.531710801  114.357259769    19.0454   6   8   0.1020   0.0999   0.2512  -0.0382   0.0568  -0.0806   0.00    0.0
2026/01/15 02:41:30.000   30.531710712  114.357259757    19.0663   6   8   0.1018   0.0998   0.2509  -0.0382   0.0568  -0.0805   0.00    0.0
2026/01/15 02:42:00.000   30.531710626  114.357259740    19.0879   6   8   0.1017   0.0996   0.2507  -0.0381   0.0568  -0.0805   0.00    0.0
2026/01/15 02:42:30.000   30.531710543  114.357259723    19.1086   6   8   0.1015   0.0995   0.2504  -0.0380   0.0568  -0.0805   0.00    0.0
2026/01/15 02:43:00.000   30.531710457  114.357259706    19.1284   6   8   0.1014   0.0994   0.2501  -0.0380   0.0568  -0.0804   0.00    0.0
2026/01/15 02:43:30.000   30.531710373  114.357259688    19.1503   6   8   0.1013   0.0993   0.2499  -0.0379   0.0567  -0.0804   0.00    0.0
2026/01/15 02:44:00.000   30.531710287  114.357259671    19.1720   6   8   0.1011   0.0991   0.2496  -0.0379   0.0567  -0.0804   0.00    0.0
2026/01/15 02:44:30.000   30.531710202  114.357259657    19.1936   6   8   0.1010   0.0990   0.2493  -0.0378   0.0567  -0.0803   0.00    0.0
2026/01/15 02:45:00.000   30.531710117  114.357259635    19.2145   6   8   0.1008   0.0989   0.2490  -0.0377   0.0567  -0.0803   0.00    0.0
2026/01/15 02:45:30.000   30.531710032  114.357259619    19.2356   6   8   0.1007   0.0988   0.2488  -0.0377   0.0567  -0.0802   0.00    0.0
2026/01/15 02:46:00.000   30.531709947  114.357259601    19.2562   6   8   0.1006   0.0986   0.2485  -0.0376   0.0567  -0.0802   0.00    0.0
2026/01/15 02:46:30.000   30.531709861  114.357259581    19.2771   6   8   0.1004   0.0985   0.2483  -0.0376   0.0567  -0.0802   0.00    0.0
2026/01/15 02:47:00.000   30.531709778  114.357259562    19.2970   6   8   0.1003   0.0984   0.2480  -0.0375   0.0567  -0.0801   0.00    0.0
2026/01/15 02:47:30.000   30.531709697  114.357259543    19.3175   6   8   0.1001   0.0983   0.2477  -0.0375   0.0567  -0.0801   0.00    0.0
2026/01/15 02:48:00.000   30.531709613  114.357259528    19.3391   6   8   0.1000   0.0982   0.2475  -0.0374   0.0567  -0.0800   0.00    0.0
2026/01/15 02:48:30.000   30.531709531  114.357259518    19.3600   6   8   0.0998   0.0980   0.2472  -0.0374   0.0567  -0.0800   0.00    0.0
2026/01/15 02:49:00.000   30.531709448  114.357259503    19.3808   6   8   0.0997   0.0979   0.2470  -0.0373   0.0567  -0.0799   0.00    0.0
2026/01/15 02:49:30.000   30.531709366  114.357259485    19.4017   6   8   0.0996   0.0978   0.2467  -0.0373   0.0567  -0.0799   0.00    0.0
2026/01/15 02:50:00.000   30.531709285  114.357259469    19.4232   6   8   0.0994   0.0977   0.2465  -0.0372   0.0567  -0.0799   0.00    0.0
2026/01/15 02:50:30.000   30.531709208  114.357259451    19.4448   6   8   0.0993   0.0976   0.2462  -0.0372   0.0567  -0.0798   0.00    0.0
2026/01/15 02:51:00.000   30.531709131  114.357259432    19.4656   6   8   0.0991   0.0975   0.2460  -0.0371   0.0567  -0.0798   0.00    0.0
2026/01/15 02:51:30.000   30.531709052  114.357259416    19.4869   6   8   0.0990   0.0974   0.2457  -0.0371   0.0567  -0.0797   0.00    0.0
2026/01/15 02:52:00.000   30.531708972  114.357259400    19.5084   6   8   0.0989   0.0972   0.2455  -0.0370   0.0567  -0.0797   0.00    0.0
2026/01/15 02:52:30.000   30.531708897  114.357259385    19.5293   6   8   0.0987   0.0971   0.2452  -0.0370   0.0567  -0.0796   0.00    0.0
2026/01/15 02:53:00.000   30.531708822  114.357259380    19.5494   6   8   0.0986   0.0970   0.2450  -0.0369   0.0568  -0.0796   0.00    0.0
2026/01/15 02:53:30.000   30.531708746  114.357259369    19.5709   6   9   0.0984   0.0969   0.2446  -0.0368   0.0567  -0.0795   0.00    0.0
2026/01/15 02:54:00.000   30.531708666  114.357259354    19.5927   6   9   0.0983   0.0968   0.2443  -0.0368   0.0566  -0.0794   0.00    0.0
2026/01/15 02:54:30.000   30.531708590  114.357259341    19.6134   6   9   0.0981   0.0967   0.2440  -0.0367   0.0566  -0.0793   0.00    0.0
2026/01/15 02:55:00.000   30.531708515  114.357259324    19.6346   6   9   0.0980   0.0965   0.2437  -0.0366   0.0565  -0.0792   0.00    0.0
2026/01/15 02:55:30.000   30.531708437  114.357259318    19.6577   6   8   0.0979   0.0964   0.2435  -0.0365   0.0565  -0.0791   0.00    0.0
2026/01/15 02:56:00.000   30.531708356  114.357259308    19.6814   6   8   0.0977   0.0963   0.2432  -0.0365   0.0565  -0.0790   0.00    0.0
2026/01/15 02:56:30.000   30.531708277  114.357259297    19.7040   6   8   0.0976   0.0962   0.2429  -0.0364   0.0565  -0.0788   0.00    0.0
2026/01/15 02:57:00.000   30.531708195  114.357259291    19.7276   6   8   0.0974   0.0961   0.2427  -0.0363   0.0564  -0.0787   0.00    0.0
2026/01/15 02:57:30.000   30.531708115  114.357259289    19.7519   6   8   0.0973   0.0960   0.2424  -0.0362   0.0564  -0.0786   0.00    0.0
2026/01/15 02:58:00.000   30.531708041  114.357259279    19.7749   6   8   0.0971   0.0959   0.2421  -0.0362   0.0564  -0.0785   0.00    0.0
2026/01/15 02:58:30.000   30.531707966  114.357259278    19.7983   6   8   0.0970   0.0958   0.2419  -0.0361   0.0564  -0.0784   0.00    0.0
2026/01/15 02:59:00.000   30.531707890  114.357259276    19.8210   6   8   0.0969   0.0956   0.2416  -0.0360   0.0564  -0.0783   0.00    0.0
2026/01/15 02:59:30.000   30.531707819  114.357259271    19.8438   6   8   0.0967   0.0955   0.2413  -0.0359   0.0564  -0.0782   0.00    0.0
2026/01/15 03:00:00.000   30.531707747  114.357259264    19.8661   6   8   0.0966   0.0954   0.2411  -0.0359   0.0563  -0.0781   0.00    0.0
2026/01/15 03:00:30.000   30.531707672  114.357259260    19.8897   6   8   0.0964   0.0953   0.2408  -0.0358   0.0563  -0.0779   0.00    0.0
2026/01/15 03:01:00.000   30.531707600  114.357259253    19.9127   6   8   0.0963   0.0952   0.2405  -0.0357   0.0563  -0.0778   0.00    0.0
2026/01/15 03:01:30.000   30.531707528  114.357259250    19.9359   6   8   0.0962   0.0951   0.2403  -0.0357   0.0563  -0.0777   0.00    0.0
2026/01/15 03:02:00.000   30.531707459  114.357259249    19.9590   6   8   0.0960   0.0950   0.2400  -0.0356   0.0563  -0.0776   0.00    0.0
2026/01/15 03:02:30.000   30.531707385  114.357259247    19.9824   6   8   0.0959   0.0949   0.2398  -0.0355   0.0563  -0.0775   0.00    0.0
2026/01/15 03:03:00.000   30.531707312  114.357259243    20.0055   6   8   0.0957   0.0948   0.2395  -0.0355   0.0563  -0.0774   0.00    0.0
2026/01/15 03:03:30.000   30.531707242  114.357259239    20.0286   6   8   0.0956   0.0947   0.2392  -0.0354   0.0563  -0.0772   0.00    0.0
2026/01/15 03:04:00.000   30.531707170  114.357259234    20.0511   6   8   0.0955   0.0946   0.2390  -0.0353   0.0562  -0.0771   0.00    0.0
2026/01/15 03:04:30.000   30.531707103  114.357259227    20.0733   6   8   0.0953   0.0945   0.2387  -0.0353   0.0562  -0.0770   0.00    0.0
2026/01/15 03:05:00.000   30.531707037  114.357259224    20.0963   6   8   0.0952   0.0944   0.2385  -0.0352   0.0562  -0.0769   0.00    0.0
2026/01/15 03:05:30.000   30.531706967  114.357259220    20.1193   6   8   0.0950   0.0943   0.2382  -0.0352   0.0562  -0.0768   0.00    0.0
2026/01/15 03:06:00.000   30.531706899  114.357259220    20.1422   6   8   0.0949   0.0942   0.2379  -0.0351   0.0562  -0.0766   0.00    0.0
2026/01/15 03:06:30.000   30.531706833  114.357259216    20.1650   6   8   0.0948   0.0941   0.2377  -0.0350   0.0562  -0.0765   0.00    0.0
2026/01/15 03:07:00.000   30.531706763  114.357259218    20.1883   6   8   0.0946   0.0940   0.2374  -0.0350   0.0562  -0.0764   0.00    0.0
2026/01/15 03:07:30.000   30.531706694  114.357259219    20.2120   6   8   0.0945   0.0939   0.2372  -0.0349   0.0562  -0.0763   0.00    0.0
2026/01/15 03:08:00.000   30.531706629  114.357259219    20.2352   6   8   0.0944   0.0938   0.2369  -0.0349   0.0562  -0.0761   0.00    0.0
2026/01/15 03:08:30.000   30.531706562  114.357259221    20.2579   6   8   0.0942   0.0937   0.2367  -0.0348   0.0561  -0.0760   0.00    0.0
2026/01/15 03:09:00.000   30.531706500  114.357259217    20.2798   6   8   0.0941   0.0936   0.2364  -0.0348   0.0561  -0.0759   0.00    0.0
2026/01/15 03:09:30.000   30.531706437  114.357259215    20.3028   6   8   0.0939   0.0935   0.2362  -0.0347   0.0561  -0.0758   0.00    0.0
2026/01/15 03:10:00.000   30.531706374  114.357259213    20.3255   6   8   0.0938   0.0934   0.2359  -0.0347   0.0561  -0.0756   0.00    0.0
2026/01/15 03:10:30.000   30.531706311  114.357259210    20.3482   6   8   0.0937   0.0933   0.2357  -0.0346   0.0561  -0.0755   0.00    0.0
2026/01/15 03:11:00.000   30.531706252  114.357259211    20.3709   6   8   0.0935   0.0932   0.2354  -0.0346   0.0561  -0.0754   0.00    0.0
2026/01/15 03:11:30.000   30.531706193  114.357259209    20.3938   6   8   0.0934   0.0931   0.2351  -0.0345   0.0561  -0.0753   0.00    0.0
2026/01/15 03:12:00.000   30.531706135  114.357259207    20.4162   6   8   0.0933   0.0930   0.2349  -0.0345   0.0561  -0.0751   0.00    0.0
2026/01/15 03:12:30.000   30.531706075  114.357259203    20.4378   6   8   0.0931   0.0929   0.2346  -0.0344   0.0561  -0.0750   0.00    0.0
2026/01/15 03:13:00.000   30.531706018  114.357259200    20.4597   6   8   0.0930   0.0928   0.2344  -0.0344   0.0561  -0.0749   0.00    0.0
2026/01/15 03:13:30.000   30.531705961  114.357259198    20.4803   6   8   0.0929   0.0927   0.2341  -0.0343   0.0561  -0.0748   0.00    0.0
2026/01/15 03:14:00.000   30.531705902  114.357259191    20.5026   6   8   0.0927   0.0926   0.2339  -0.0343   0.0561  -0.0746   0.00    0.0
2026/01/15 03:14:30.000   30.531705844  114.357259185    20.5244   6   8   0.0926   0.0925   0.2336  -0.0342   0.0561  -0.0745   0.00    0.0
2026/01/15 03:15:00.000   30.531705786  114.357259182    20.5472   6   8   0.0925   0.0924   0.2334  -0.0342   0.0561  -0.0744   0.00    0.0
2026/01/15 03:15:30.000   30.531705731  114.357259181    20.5700   6   8   0.0923   0.0923   0.2332  -0.0342   0.0560  -0.0742   0.00    0.0
2026/01/15 03:16:00.000   30.531705675  114.357259181    20.5917   6   8   0.0922   0.0922   0.2329  -0.0341   0.0560  -0.0741   0.00    0.0
2026/01/15 03:16:30.000   30.531705620  114.357259183    20.6135   6   8   0.0921   0.0921   0.2327  -0.0341   0.0560  -0.0740   0.00    0.0
2026/01/15 03:17:00.000   30.531705565  114.357259179    20.6352   6   8   0.0920   0.0920   0.2324  -0.0340   0.0560  -0.0738   0.00    0.0
2026/01/15 03:17:30.000   30.531705515  114.357259174    20.6564   6   8   0.0918   0.0919   0.2322  -0.0340   0.0560  -0.0737   0.00    0.0
2026/01/15 03:18:00.000   30.531705467  114.357259176    20.6774   6   8   0.0917   0.0918   0.2319  -0.0340   0.0560  -0.0736   0.00    0.0
2026/01/15 03:18:30.000   30.531705419  114.357259175    20.6981   6   8   0.0916   0.0917   0.2317  -0.0339   0.0560  -0.0734   0.00    0.0
2026/01/15 03:19:00.000   30.531705363  114.357259178    20.7156   6   8   0.0914   0.0916   0.2314  -0.0339   0.0560  -0.0733   0.00    0.0
2026/01/15 03:19:30.000   30.531705306  114.357259176    20.7332   6   8   0.0913   0.0916   0.2312  -0.0339   0.0560  -0.0732   0.00    0.0
2026/01/15 03:20:00.000   30.531705250  114.357259175    20.7505   6   8   0.0912   0.0915   0.2310  -0.0338   0.0560  -0.0730   0.00    0.0
2026/01/15 03:20:30.000   30.531705195  114.357259175    20.7674   6   8   0.0911   0.0914   0.2308  -0.0338   0.0560  -0.0729   0.00    0.0
2026/01/15 03:21:00.000   30.531705138  114.357259175    20.7853   6   8   0.0909   0.0913   0.2305  -0.0338   0.0560  -0.0727   0.00    0.0
2026/01/15 03:21:30.000   30.531705082  114.357259180    20.8029   6   8   0.0908   0.0912   0.2303  -0.0338   0.0560  -0.0726   0.00    0.0
2026/01/15 03:22:00.000   30.531705032  114.357259178    20.8193   6   8   0.0907   0.0911   0.2301  -0.0337   0.0560  -0.0724   0.00    0.0
2026/01/15 03:22:30.000   30.531704981  114.357259181    20.8359   6   8   0.0906   0.0910   0.2298  -0.0337   0.0560  -0.0723   0.00    0.0
2026/01/15 03:23:00.000   30.531704933  114.357259182    20.8528   6   8   0.0905   0.0909   0.2296  -0.0337   0.0559  -0.0722   0.00    0.0
2026/01/15 03:23:30.000   30.531704884  114.357259182    20.8707   6   7   0.0903   0.0908   0.2294  -0.0337   0.0559  -0.0720   0.00    0.0
2026/01/15 03:24:00.000   30.531704839  114.357259183    20.8883   6   7   0.0902   0.0908   0.2292  -0.0336   0.0559  -0.0719   0.00    0.0
2026/01/15 03:24:30.000   30.531704790  114.357259187    20.9062   6   7   0.0901   0.0907   0.2289  -0.0336   0.0559  -0.0717   0.00    0.0
2026/01/15 03:25:00.000   30.531704739  114.357259192    20.9227   6   8   0.0900   0.0906   0.2287  -0.0336   0.0559  -0.0716   0.00    0.0
2026/01/15 03:25:30.000   30.531704689  114.357259193    20.9408   6   7   0.0898   0.0905   0.2285  -0.0336   0.0559  -0.0714   0.00    0.0
2026/01/15 03:26:00.000   30.531704639  114.357259194    20.9587   6   7   0.0897   0.0904   0.2283  -0.0336   0.0559  -0.0713   0.00    0.0
2026/01/15 03:26:30.000   30.531704592  114.357259198    20.9762   6   7   0.0896   0.0903   0.2281  -0.0335   0.0559  -0.0712   0.00    0.0
2026/01/15 03:27:00.000   30.531704542  114.357259196    20.9920   6   8   0.0895   0.0902   0.2278  -0.0335   0.0559  -0.0710   0.00    0.0
