% program   : RTKPOST ver.demo5 b34d
% inp file  : E:\Master courses\SNDP-PROJECT\Old_data\data\ZIM200CHE_R_20260150000_01D_30S_MO.rnx
% inp file  : E:\Master courses\SNDP-PROJECT\New_Data\nav\BRDC00IGS_R_20260150000_01D_MN.rnx
% obs start : 2026/01/15 00:00:00.0 GPST (week2401 345600.0s)
% obs end   : 2026/01/15 23:59:30.0 GPST (week2401 431970.0s)
% pos mode  : PPP Static
% solution  : Forward
% elev mask : 15.0 deg
% dynamics  : off
% tidecorr  : off
% tropo opt : Saastamoinen
% ephemeris : Broadcast
% navi sys  : GPS
% antenna1  :                       ( 0.0000  0.0000  0.0000)
%
% (lat/lon/height=WGS84/ellipsoidal,Q=1:fix,2:float,3:sbas,4:dgps,5:single,6:ppp,ns=# of satellites)
%  GPST                  latitude(deg) longitude(deg)  height(m)   Q  ns   sdn(m)   sde(m)   sdu(m)  sdne(m)  sdeu(m)  sdun(m) age(s)  ratio
2026/01/15 00:00:00.000   46.877101671    7.465049313   942.8732   6  10   1.9137   1.4401   3.9398  -0.2102  -0.4023   1.0110   0.00    0.0
2026/01/15 00:00:30.000   46.877101451    7.465049584   942.7307   6  10   1.3556   1.0195   2.7935  -0.1580  -0.2910   0.7170   0.00    0.0
2026/01/15 00:01:00.000   46.877101241    7.465049745   942.6987   6  10   1.1078   0.8328   2.2837  -0.1358  -0.2409   0.5865   0.00    0.0
2026/01/15 00:01:30.000   46.877101125    7.465049966   942.7028   6  10   0.9599   0.7214   1.9794  -0.1232  -0.2109   0.5086   0.00    0.0
2026/01/15 00:02:00.000   46.877100904    7.465050158   942.6885   6  10   0.8590   0.6453   1.7715  -0.1149  -0.1906   0.4555   0.00    0.0
2026/01/15 00:02:30.000   46.877100691    7.465050243   942.6556   6  10   0.7845   0.5891   1.6181  -0.1090  -0.1756   0.4162   0.00    0.0
2026/01/15 00:03:00.000   46.877100557    7.465050289   942.6169   6  10   0.7266   0.5455   1.4988  -0.1046  -0.1640   0.3857   0.00    0.0
2026/01/15 00:03:30.000   46.877100572    7.465050252   942.5777   6  10   0.6800   0.5103   1.4026  -0.1011  -0.1547   0.3610   0.00    0.0
2026/01/15 00:04:00.000   46.877100589    7.465050180   942.5497   6  10   0.6413   0.4812   1.3229  -0.0984  -0.1471   0.3406   0.00    0.0
2026/01/15 00:04:30.000   46.877100909    7.465049932   942.6026   6   9   0.6124   0.4578   1.2681  -0.1073  -0.1608   0.3414   0.00    0.0
2026/01/15 00:05:00.000   46.877101188    7.465049781   942.6474   6   9   0.5871   0.4376   1.2200  -0.1129  -0.1691   0.3399   0.00    0.0
2026/01/15 00:05:30.000   46.877101436    7.465049584   942.6958   6   9   0.5649   0.4199   1.1771  -0.1165  -0.1742   0.3371   0.00    0.0
2026/01/15 00:06:00.000   46.877101637    7.465049339   942.7489   6   9   0.5451   0.4042   1.1386  -0.1188  -0.1772   0.3334   0.00    0.0
2026/01/15 00:06:30.000   46.877101791    7.465049135   942.7971   6   9   0.5273   0.3902   1.1037  -0.1202  -0.1788   0.3293   0.00    0.0
2026/01/15 00:07:00.000   46.877101925    7.465048988   942.8341   6   9   0.5111   0.3775   1.0720  -0.1210  -0.1795   0.3248   0.00    0.0
2026/01/15 00:07:30.000   46.877102032    7.465048895   942.8614   6   9   0.4964   0.3661   1.0428  -0.1214  -0.1795   0.3201   0.00    0.0
2026/01/15 00:08:00.000   46.877102138    7.465048814   942.8812   6   9   0.4830   0.3556   1.0159  -0.1215  -0.1790   0.3154   0.00    0.0
2026/01/15 00:08:30.000   46.877102218    7.465048720   942.9063   6   9   0.4706   0.3460   0.9910  -0.1213  -0.1782   0.3107   0.00    0.0
2026/01/15 00:09:00.000   46.877102296    7.465048616   942.9302   6   9   0.4591   0.3371   0.9678  -0.1210  -0.1771   0.3060   0.00    0.0
2026/01/15 00:09:30.000   46.877102262    7.465048439   942.9821   6   8   0.4493   0.3294   0.9495  -0.1185  -0.1796   0.2977   0.00    0.0
2026/01/15 00:10:00.000   46.877102228    7.465048284   943.0252   6   8   0.4401   0.3221   0.9323  -0.1163  -0.1813   0.2898   0.00    0.0
2026/01/15 00:10:30.000   46.877102168    7.465048134   943.0692   6   8   0.4314   0.3154   0.9159  -0.1142  -0.1825   0.2824   0.00    0.0
2026/01/15 00:11:00.000   46.877102115    7.465047959   943.1101   6   8   0.4233   0.3090   0.9003  -0.1123  -0.1833   0.2755   0.00    0.0
2026/01/15 00:11:30.000   46.877102041    7.465047831   943.1473   6   8   0.4156   0.3030   0.8856  -0.1106  -0.1837   0.2689   0.00    0.0
2026/01/15 00:12:00.000   46.877101978    7.465047705   943.1785   6   8   0.4083   0.2974   0.8715  -0.1089  -0.1837   0.2626   0.00    0.0
2026/01/15 00:12:30.000   46.877101909    7.465047594   943.2082   6   8   0.4013   0.2920   0.8580  -0.1074  -0.1836   0.2567   0.00    0.0
2026/01/15 00:13:00.000   46.877101852    7.465047455   943.2387   6   8   0.3947   0.2870   0.8451  -0.1060  -0.1832   0.2510   0.00    0.0
2026/01/15 00:13:30.000   46.877101780    7.465047337   943.2709   6   8   0.3884   0.2822   0.8327  -0.1047  -0.1827   0.2456   0.00    0.0
2026/01/15 00:14:00.000   46.877101701    7.465047218   943.3000   6   8   0.3824   0.2776   0.8208  -0.1034  -0.1820   0.2404   0.00    0.0
2026/01/15 00:14:30.000   46.877101625    7.465047089   943.3292   6   8   0.3767   0.2733   0.8094  -0.1023  -0.1812   0.2355   0.00    0.0
2026/01/15 00:15:00.000   46.877101567    7.465046948   943.3598   6   8   0.3712   0.2692   0.7984  -0.1012  -0.1803   0.2307   0.00    0.0
2026/01/15 00:15:30.000   46.877101489    7.465046815   943.3874   6   8   0.3660   0.2652   0.7877  -0.1001  -0.1793   0.2261   0.00    0.0
2026/01/15 00:16:00.000   46.877101419    7.465046681   943.4158   6   8   0.3609   0.2614   0.7775  -0.0991  -0.1783   0.2216   0.00    0.0
2026/01/15 00:16:30.000   46.877101340    7.465046556   943.4439   6   8   0.3561   0.2578   0.7676  -0.0982  -0.1771   0.2173   0.00    0.0
2026/01/15 00:17:00.000   46.877101273    7.465046446   943.4711   6   8   0.3515   0.2543   0.7580  -0.0973  -0.1760   0.2132   0.00    0.0
2026/01/15 00:17:30.000   46.877101208    7.465046347   943.4985   6   8   0.3470   0.2509   0.7487  -0.0965  -0.1748   0.2091   0.00    0.0
2026/01/15 00:18:00.000   46.877101143    7.465046255   943.5257   6   8   0.3427   0.2477   0.7396  -0.0957  -0.1736   0.2052   0.00    0.0
2026/01/15 00:18:30.000   46.877101073    7.465046183   943.5509   6   8   0.3385   0.2446   0.7309  -0.0949  -0.1723   0.2014   0.00    0.0
2026/01/15 00:19:00.000   46.877101013    7.465046132   943.5767   6   8   0.3345   0.2417   0.7224  -0.0942  -0.1710   0.1977   0.00    0.0
2026/01/15 00:19:30.000   46.877100978    7.465046071   943.6018   6   8   0.3307   0.2388   0.7141  -0.0935  -0.1697   0.1941   0.00    0.0
2026/01/15 00:20:00.000   46.877100943    7.465045999   943.6274   6   8   0.3269   0.2360   0.7061  -0.0928  -0.1684   0.1906   0.00    0.0
2026/01/15 00:20:30.000   46.877100906    7.465045920   943.6517   6   8   0.3233   0.2333   0.6982  -0.0921  -0.1671   0.1872   0.00    0.0
2026/01/15 00:21:00.000   46.877100844    7.465045858   943.6756   6   8   0.3198   0.2307   0.6906  -0.0915  -0.1657   0.1838   0.00    0.0
2026/01/15 00:21:30.000   46.877100796    7.465045775   943.6973   6   8   0.3164   0.2282   0.6831  -0.0909  -0.1644   0.1806   0.00    0.0
2026/01/15 00:22:00.000   46.877100745    7.465045703   943.7196   6   8   0.3132   0.2258   0.6759  -0.0903  -0.1630   0.1773   0.00    0.0
2026/01/15 00:22:30.000   46.877100714    7.465045635   943.7432   6   8   0.3100   0.2235   0.6688  -0.0898  -0.1617   0.1742   0.00    0.0
2026/01/15 00:23:00.000   46.877100664    7.465045579   943.7671   6   8   0.3069   0.2212   0.6619  -0.0893  -0.1603   0.1711   0.00    0.0
2026/01/15 00:23:30.000   46.877100622    7.465045510   943.7941   6   8   0.3039   0.2190   0.6551  -0.0887  -0.1590   0.1681   0.00    0.0
2026/01/15 00:24:00.000   46.877100576    7.465045435   943.8215   6   8   0.3010   0.2168   0.6485  -0.0882  -0.1576   0.1651   0.00    0.0
2026/01/15 00:24:30.000   46.877100543    7.465045365   943.8486   6   8   0.2981   0.2148   0.6420  -0.0878  -0.1563   0.1622   0.00    0.0
2026/01/15 00:25:00.000   46.877100517    7.465045309   943.8732   6   8   0.2954   0.2127   0.6357  -0.0873  -0.1549   0.1593   0.00    0.0
2026/01/15 00:25:30.000   46.877100490    7.465045254   943.8946   6   8   0.2927   0.2108   0.6294  -0.0868  -0.1536   0.1564   0.00    0.0
2026/01/15 00:26:00.000   46.877100452    7.465045191   943.9161   6   8   0.2901   0.2089   0.6234  -0.0864  -0.1523   0.1536   0.00    0.0
2026/01/15 00:26:30.000   46.877100419    7.465045121   943.9399   6   8   0.2876   0.2070   0.6174  -0.0860  -0.1509   0.1509   0.00    0.0
2026/01/15 00:27:00.000   46.877100404    7.465045047   943.9664   6   8   0.2851   0.2052   0.6116  -0.0856  -0.1496   0.1482   0.00    0.0
2026/01/15 00:27:30.000   46.877100391    7.465044984   943.9917   6   8   0.2827   0.2035   0.6058  -0.0851  -0.1483   0.1455   0.00    0.0
2026/01/15 00:28:00.000   46.877100378    7.465044926   944.0140   6   8   0.2804   0.2017   0.6002  -0.0848  -0.1470   0.1428   0.00    0.0
2026/01/15 00:28:30.000   46.877100354    7.465044864   944.0359   6   8   0.2781   0.2001   0.5947  -0.0844  -0.1457   0.1402   0.00    0.0
2026/01/15 00:29:00.000   46.877100325    7.465044794   944.0578   6   8   0.2758   0.1984   0.5893  -0.0840  -0.1444   0.1376   0.00    0.0
2026/01/15 00:29:30.000   46.877100293    7.465044722   944.0803   6   8   0.2737   0.1969   0.5840  -0.0836  -0.1431   0.1350   0.00    0.0
2026/01/15 00:30:00.000   46.877100274    7.465044659   944.1028   6   8   0.2715   0.1953   0.5787  -0.0833  -0.1418   0.1325   0.00    0.0
2026/01/15 00:30:30.000   46.877100257    7.465044607   944.1261   6   8   0.2695   0.1938   0.5736  -0.0830  -0.1405   0.1300   0.00    0.0
2026/01/15 00:31:00.000   46.877100237    7.465044556   944.1515   6   8   0.2674   0.1923   0.5686  -0.0826  -0.1393   0.1275   0.00    0.0
2026/01/15 00:31:30.000   46.877100218    7.465044497   944.1782   6   8   0.2655   0.1909   0.5636  -0.0823  -0.1380   0.1250   0.00    0.0
2026/01/15 00:32:00.000   46.877100197    7.465044434   944.2048   6   8   0.2635   0.1895   0.5587  -0.0820  -0.1368   0.1225   0.00    0.0
2026/01/15 00:32:30.000   46.877100180    7.465044372   944.2317   6   8   0.2616   0.1881   0.5539  -0.0817  -0.1355   0.1201   0.00    0.0
2026/01/15 00:33:00.000   46.877100168    7.465044315   944.2594   6   8   0.2598   0.1868   0.5492  -0.0814  -0.1343   0.1177   0.00    0.0
2026/01/15 00:33:30.000   46.877100159    7.465044257   944.2862   6   8   0.2580   0.1854   0.5446  -0.0811  -0.1331   0.1153   0.00    0.0
2026/01/15 00:34:00.000   46.877100152    7.465044205   944.3114   6   8   0.2562   0.1842   0.5400  -0.0808  -0.1319   0.1129   0.00    0.0
2026/01/15 00:34:30.000   46.877100145    7.465044155   944.3354   6   8   0.2545   0.1829   0.5355  -0.0805  -0.1307   0.1105   0.00    0.0
2026/01/15 00:35:00.000   46.877100140    7.465044099   944.3601   6   8   0.2528   0.1817   0.5311  -0.0802  -0.1295   0.1081   0.00    0.0
2026/01/15 00:35:30.000   46.877100138    7.465044041   944.3853   6   8   0.2511   0.1805   0.5268  -0.0799  -0.1283   0.1058   0.00    0.0
2026/01/15 00:36:00.000   46.877100133    7.465043988   944.4095   6   8   0.2495   0.1793   0.5225  -0.0797  -0.1271   0.1034   0.00    0.0
2026/01/15 00:36:30.000   46.877100136    7.465043941   944.4335   6   8   0.2479   0.1781   0.5183  -0.0794  -0.1260   0.1011   0.00    0.0
2026/01/15 00:37:00.000   46.877100139    7.465043893   944.4598   6   8   0.2464   0.1770   0.5141  -0.0792  -0.1248   0.0987   0.00    0.0
2026/01/15 00:37:30.000   46.877100145    7.465043838   944.4871   6   8   0.2448   0.1759   0.5100  -0.0789  -0.1237   0.0964   0.00    0.0
2026/01/15 00:38:00.000   46.877100143    7.465043779   944.5132   6   8   0.2433   0.1748   0.5060  -0.0787  -0.1225   0.0941   0.00    0.0
2026/01/15 00:38:30.000   46.877100146    7.465043729   944.5389   6   8   0.2419   0.1737   0.5020  -0.0784  -0.1214   0.0917   0.00    0.0
2026/01/15 00:39:00.000   46.877100149    7.465043690   944.5633   6   8   0.2404   0.1727   0.4981  -0.0782  -0.1203   0.0894   0.00    0.0
2026/01/15 00:39:30.000   46.877100152    7.465043650   944.5878   6   8   0.2390   0.1717   0.4942  -0.0780  -0.1192   0.0871   0.00    0.0
2026/01/15 00:40:00.000   46.877100154    7.465043599   944.6111   6   8   0.2376   0.1707   0.4904  -0.0778  -0.1181   0.0847   0.00    0.0
2026/01/15 00:40:30.000   46.877100160    7.465043550   944.6353   6   8   0.2363   0.1697   0.4867  -0.0776  -0.1170   0.0824   0.00    0.0
2026/01/15 00:41:00.000   46.877100167    7.465043509   944.6610   6   8   0.2350   0.1687   0.4830  -0.0773  -0.1159   0.0800   0.00    0.0
2026/01/15 00:41:30.000   46.877100182    7.465043465   944.6864   6   8   0.2337   0.1678   0.4794  -0.0771  -0.1148   0.0777   0.00    0.0
2026/01/15 00:42:00.000   46.877100195    7.465043415   944.7116   6   8   0.2324   0.1669   0.4758  -0.0769  -0.1137   0.0753   0.00    0.0
2026/01/15 00:42:30.000   46.877100204    7.465043364   944.7376   6   8   0.2311   0.1660   0.4722  -0.0767  -0.1127   0.0729   0.00    0.0
2026/01/15 00:43:00.000   46.877100214    7.465043320   944.7626   6   8   0.2299   0.1651   0.4687  -0.0765  -0.1116   0.0705   0.00    0.0
2026/01/15 00:43:30.000   46.877100225    7.465043274   944.7861   6   8   0.2287   0.1642   0.4653  -0.0763  -0.1106   0.0681   0.00    0.0
2026/01/15 00:44:00.000   46.877100239    7.465043228   944.8095   6   8   0.2275   0.1633   0.4619  -0.0761  -0.1096   0.0656   0.00    0.0
2026/01/15 00:44:30.000   46.877100253    7.465043182   944.8339   6   8   0.2263   0.1625   0.4585  -0.0760  -0.1085   0.0631   0.00    0.0
2026/01/15 00:45:00.000   46.877100265    7.465043134   944.8596   6   8   0.2252   0.1616   0.4552  -0.0758  -0.1075   0.0606   0.00    0.0
2026/01/15 00:45:30.000   46.877100279    7.465043080   944.8861   6   8   0.2241   0.1608   0.4520  -0.0756  -0.1065   0.0580   0.00    0.0
2026/01/15 00:46:00.000   46.877100288    7.465043020   944.9126   6   8   0.2229   0.1600   0.4488  -0.0754  -0.1055   0.0554   0.00    0.0
2026/01/15 00:46:30.000   46.877100297    7.465042970   944.9385   6   8   0.2219   0.1592   0.4456  -0.0753  -0.1045   0.0527   0.00    0.0
2026/01/15 00:47:00.000   46.877100308    7.465042926   944.9639   6   8   0.2208   0.1585   0.4425  -0.0751  -0.1035   0.0499   0.00    0.0
2026/01/15 00:47:30.000   46.877100330    7.465042874   944.9892   6   8   0.2197   0.1577   0.4394  -0.0749  -0.1026   0.0470   0.00    0.0
2026/01/15 00:48:00.000   46.877100358    7.465042816   945.0134   6   8   0.2187   0.1570   0.4363  -0.0748  -0.1016   0.0440   0.00    0.0
2026/01/15 00:48:30.000   46.877100389    7.465042765   945.0370   6   8   0.2177   0.1562   0.4333  -0.0746  -0.1006   0.0409   0.00    0.0
2026/01/15 00:49:00.000   46.877100420    7.465042725   945.0592   6   8   0.2167   0.1555   0.4304  -0.0744  -0.0997   0.0377   0.00    0.0
2026/01/15 00:49:30.000   46.877100452    7.465042684   945.0810   6   8   0.2157   0.1548   0.4275  -0.0743  -0.0988   0.0342   0.00    0.0
2026/01/15 00:50:00.000   46.877100481    7.465042632   945.1028   6   8   0.2148   0.1541   0.4246  -0.0741  -0.0978   0.0303   0.00    0.0
2026/01/15 00:50:30.000   46.877100506    7.465042578   945.1271   6   8   0.2138   0.1534   0.4217  -0.0740  -0.0969   0.0261   0.00    0.0
2026/01/15 00:51:00.000   46.877100527    7.465042519   945.1526   6   8   0.2129   0.1527   0.4189  -0.0738  -0.0960   0.0211   0.00    0.0
2026/01/15 00:51:30.000   46.877100548    7.465042460   945.1779   6   8   0.2120   0.1521   0.4161  -0.0737  -0.0951   0.0148   0.00    0.0
2026/01/15 00:52:00.000   46.877100568    7.465042401   945.2021   6   8   0.2111   0.1514   0.4134  -0.0736  -0.0941  -0.0021   0.00    0.0
2026/01/15 00:52:30.000   46.877100591    7.465042347   945.2258   6   8   0.2102   0.1508   0.4107  -0.0734  -0.0932  -0.0149   0.00    0.0
2026/01/15 00:53:00.000   46.877100616    7.465042295   945.2479   6   8   0.2093   0.1501   0.4080  -0.0733  -0.0924  -0.0208   0.00    0.0
2026/01/15 00:53:30.000   46.877100642    7.465042240   945.2699   6   8   0.2085   0.1495   0.4054  -0.0732  -0.0915  -0.0253   0.00    0.0
2026/01/15 00:54:00.000   46.877100671    7.465042185   945.2929   6   8   0.2076   0.1489   0.4028  -0.0730  -0.0906  -0.0290   0.00    0.0
2026/01/15 00:54:30.000   46.877100700    7.465042130   945.3168   6   8   0.2068   0.1483   0.4002  -0.0729  -0.0897  -0.0323   0.00    0.0
2026/01/15 00:55:00.000   46.877100727    7.465042078   945.3400   6   8   0.2060   0.1477   0.3977  -0.0728  -0.0889  -0.0351   0.00    0.0
2026/01/15 00:55:30.000   46.877100755    7.465042027   945.3632   6   8   0.2052   0.1471   0.3952  -0.0726  -0.0880  -0.0377   0.00    0.0
2026/01/15 00:56:00.000   46.877100792    7.465041979   945.3873   6   8   0.2044   0.1465   0.3927  -0.0725  -0.0871  -0.0401   0.00    0.0
2026/01/15 00:56:30.000   46.877100830    7.465041931   945.4105   6   8   0.2036   0.1460   0.3903  -0.0724  -0.0863  -0.0422   0.00    0.0
2026/01/15 00:57:00.000   46.877100865    7.465041876   945.4326   6   8   0.2028   0.1454   0.3879  -0.0723  -0.0855  -0.0442   0.00    0.0
2026/01/15 00:57:30.000   46.877100896    7.465041822   945.4540   6   8   0.2021   0.1449   0.3855  -0.0722  -0.0846  -0.0461   0.00    0.0
2026/01/15 00:58:00.000   46.877100927    7.465041774   945.4744   6   8   0.2013   0.1443   0.3832  -0.0720  -0.0838  -0.0479   0.00    0.0
2026/01/15 00:58:30.000   46.877100957    7.465041732   945.4949   6   8   0.2006   0.1438   0.3808  -0.0719  -0.0830  -0.0496   0.00    0.0
2026/01/15 00:59:00.000   46.877100991    7.465041684   945.5160   6   8   0.1998   0.1433   0.3786  -0.0718  -0.0822  -0.0511   0.00    0.0
2026/01/15 00:59:30.000   46.877101023    7.465041629   945.5366   6   8   0.1991   0.1427   0.3763  -0.0717  -0.0814  -0.0526   0.00    0.0
2026/01/15 01:00:00.000   46.877100991    7.465041643   945.5571   6   8   0.1983   0.1422   0.3740  -0.0714  -0.0805  -0.0541   0.00    0.0
2026/01/15 01:00:30.000   46.877100960    7.465041657   945.5779   6   8   0.1976   0.1416   0.3717  -0.0711  -0.0796  -0.0555   0.00    0.0
2026/01/15 01:01:00.000   46.877100929    7.465041671   945.5995   6   8   0.1968   0.1411   0.3695  -0.0709  -0.0787  -0.0568   0.00    0.0
2026/01/15 01:01:30.000   46.877100893    7.465041686   945.6199   6   8   0.1960   0.1405   0.3673  -0.0706  -0.0779  -0.0580   0.00    0.0
2026/01/15 01:02:00.000   46.877100863    7.465041704   945.6400   6   8   0.1953   0.1400   0.3651  -0.0704  -0.0770  -0.0592   0.00    0.0
2026/01/15 01:02:30.000   46.877100841    7.465041716   945.6600   6   8   0.1945   0.1394   0.3630  -0.0701  -0.0762  -0.0604   0.00    0.0
2026/01/15 01:03:00.000   46.877100826    7.465041730   945.6809   6   8   0.1938   0.1389   0.3608  -0.0699  -0.0753  -0.0615   0.00    0.0
2026/01/15 01:03:30.000   46.877100813    7.465041742   945.7032   6   8   0.1931   0.1384   0.3587  -0.0697  -0.0745  -0.0625   0.00    0.0
2026/01/15 01:04:00.000   46.877100801    7.465041754   945.7252   6   8   0.1924   0.1379   0.3567  -0.0694  -0.0736  -0.0635   0.00    0.0
2026/01/15 01:04:30.000   46.877100786    7.465041769   945.7453   6   8   0.1917   0.1374   0.3546  -0.0692  -0.0728  -0.0645   0.00    0.0
2026/01/15 01:05:00.000   46.877100772    7.465041785   945.7653   6   8   0.1910   0.1369   0.3526  -0.0690  -0.0720  -0.0654   0.00    0.0
2026/01/15 01:05:30.000   46.877100762    7.465041800   945.7853   6   8   0.1904   0.1364   0.3506  -0.0688  -0.0712  -0.0663   0.00    0.0
2026/01/15 01:06:00.000   46.877100754    7.465041812   945.8066   6   8   0.1897   0.1360   0.3487  -0.0686  -0.0703  -0.0672   0.00    0.0
2026/01/15 01:06:30.000   46.877100749    7.465041822   945.8289   6   8   0.1891   0.1355   0.3467  -0.0684  -0.0695  -0.0680   0.00    0.0
2026/01/15 01:07:00.000   46.877100741    7.465041830   945.8503   6   8   0.1884   0.1350   0.3448  -0.0682  -0.0687  -0.0688   0.00    0.0
2026/01/15 01:07:30.000   46.877100732    7.465041838   945.8713   6   8   0.1878   0.1346   0.3429  -0.0680  -0.0679  -0.0695   0.00    0.0
2026/01/15 01:08:00.000   46.877100724    7.465041848   945.8924   6   8   0.1872   0.1341   0.3411  -0.0678  -0.0671  -0.0703   0.00    0.0
2026/01/15 01:08:30.000   46.877100721    7.465041861   945.9134   6   8   0.1866   0.1337   0.3392  -0.0676  -0.0663  -0.0710   0.00    0.0
2026/01/15 01:09:00.000   46.877100717    7.465041868   945.9326   6   8   0.1860   0.1332   0.3374  -0.0674  -0.0655  -0.0717   0.00    0.0
2026/01/15 01:09:30.000   46.877100713    7.465041872   945.9520   6   8   0.1854   0.1328   0.3356  -0.0672  -0.0648  -0.0723   0.00    0.0
2026/01/15 01:10:00.000   46.877100708    7.465041876   945.9719   6   8   0.1848   0.1324   0.3338  -0.0671  -0.0640  -0.0730   0.00    0.0
2026/01/15 01:10:30.000   46.877100716    7.465041857   945.9870   6   7   0.1843   0.1320   0.3324  -0.0670  -0.0635  -0.0730   0.00    0.0
2026/01/15 01:11:00.000   46.877100725    7.465041838   946.0017   6   7   0.1839   0.1316   0.3309  -0.0670  -0.0630  -0.0731   0.00    0.0
2026/01/15 01:11:30.000   46.877100737    7.465041820   946.0163   6   7   0.1834   0.1312   0.3294  -0.0670  -0.0625  -0.0732   0.00    0.0
2026/01/15 01:12:00.000   46.877100753    7.465041802   946.0301   6   7   0.1830   0.1309   0.3280  -0.0670  -0.0621  -0.0733   0.00    0.0
2026/01/15 01:12:30.000   46.877100829    7.465041746   946.0319   6   8   0.1824   0.1305   0.3264  -0.0668  -0.0618  -0.0728   0.00    0.0
2026/01/15 01:13:00.000   46.877100912    7.465041687   946.0338   6   8   0.1818   0.1301   0.3247  -0.0666  -0.0616  -0.0724   0.00    0.0
2026/01/15 01:13:30.000   46.877100992    7.465041625   946.0355   6   8   0.1813   0.1297   0.3231  -0.0664  -0.0614  -0.0720   0.00    0.0
2026/01/15 01:14:00.000   46.877101074    7.465041565   946.0373   6   8   0.1807   0.1293   0.3215  -0.0663  -0.0612  -0.0716   0.00    0.0
2026/01/15 01:14:30.000   46.877101158    7.465041507   946.0393   6   8   0.1801   0.1289   0.3200  -0.0661  -0.0610  -0.0712   0.00    0.0
2026/01/15 01:15:00.000   46.877101240    7.465041452   946.0428   6   8   0.1796   0.1286   0.3184  -0.0659  -0.0607  -0.0708   0.00    0.0
2026/01/15 01:15:30.000   46.877101321    7.465041399   946.0464   6   8   0.1791   0.1282   0.3168  -0.0657  -0.0605  -0.0704   0.00    0.0
2026/01/15 01:16:00.000   46.877101405    7.465041351   946.0512   6   8   0.1785   0.1278   0.3153  -0.0655  -0.0602  -0.0701   0.00    0.0
2026/01/15 01:16:30.000   46.877101439    7.465041315   946.0483   6   9   0.1779   0.1274   0.3137  -0.0653  -0.0599  -0.0702   0.00    0.0
2026/01/15 01:17:00.000   46.877101474    7.465041272   946.0449   6   9   0.1772   0.1271   0.3120  -0.0650  -0.0595  -0.0703   0.00    0.0
2026/01/15 01:17:30.000   46.877101509    7.465041251   946.0411   6   8   0.1766   0.1267   0.3106  -0.0647  -0.0590  -0.0700   0.00    0.0
2026/01/15 01:18:00.000   46.877101549    7.465041230   946.0380   6   8   0.1760   0.1263   0.3092  -0.0644  -0.0585  -0.0698   0.00    0.0
2026/01/15 01:18:30.000   46.877101587    7.465041210   946.0358   6   8   0.1754   0.1260   0.3077  -0.0641  -0.0581  -0.0696   0.00    0.0
2026/01/15 01:19:00.000   46.877101627    7.465041190   946.0339   6   8   0.1748   0.1256   0.3063  -0.0638  -0.0576  -0.0695   0.00    0.0
2026/01/15 01:19:30.000   46.877101666    7.465041168   946.0324   6   8   0.1743   0.1253   0.3050  -0.0635  -0.0571  -0.0693   0.00    0.0
2026/01/15 01:20:00.000   46.877101705    7.465041148   946.0321   6   8   0.1737   0.1249   0.3036  -0.0632  -0.0566  -0.0691   0.00    0.0
2026/01/15 01:20:30.000   46.877101744    7.465041124   946.0325   6   8   0.1731   0.1246   0.3022  -0.0629  -0.0562  -0.0690   0.00    0.0
2026/01/15 01:21:00.000   46.877101785    7.465041098   946.0333   6   8   0.1725   0.1243   0.3009  -0.0626  -0.0557  -0.0688   0.00    0.0
2026/01/15 01:21:30.000   46.877101830    7.465041071   946.0336   6   8   0.1720   0.1239   0.2996  -0.0623  -0.0552  -0.0687   0.00    0.0
2026/01/15 01:22:00.000   46.877101875    7.465041046   946.0334   6   8   0.1714   0.1236   0.2982  -0.0620  -0.0548  -0.0685   0.00    0.0
2026/01/15 01:22:30.000   46.877101919    7.465041020   946.0329   6   8   0.1708   0.1233   0.2969  -0.0617  -0.0543  -0.0684   0.00    0.0
2026/01/15 01:23:00.000   46.877101961    7.465040991   946.0321   6   8   0.1703   0.1229   0.2956  -0.0614  -0.0539  -0.0683   0.00    0.0
2026/01/15 01:23:30.000   46.877102007    7.465040970   946.0324   6   8   0.1697   0.1226   0.2944  -0.0612  -0.0534  -0.0682   0.00    0.0
2026/01/15 01:24:00.000   46.877102048    7.465040948   946.0326   6   8   0.1691   0.1223   0.2931  -0.0609  -0.0529  -0.0681   0.00    0.0
2026/01/15 01:24:30.000   46.877102059    7.465040887   946.0417   6   7   0.1687   0.1220   0.2921  -0.0605  -0.0526  -0.0684   0.00    0.0
2026/01/15 01:25:00.000   46.877102069    7.465040819   946.0505   6   7   0.1682   0.1217   0.2910  -0.0602  -0.0523  -0.0687   0.00    0.0
2026/01/15 01:25:30.000   46.877102079    7.465040748   946.0601   6   7   0.1677   0.1214   0.2900  -0.0598  -0.0520  -0.0690   0.00    0.0
2026/01/15 01:26:00.000   46.877102091    7.465040679   946.0695   6   7   0.1672   0.1211   0.2890  -0.0595  -0.0516  -0.0693   0.00    0.0
2026/01/15 01:26:30.000   46.877102103    7.465040617   946.0797   6   7   0.1668   0.1208   0.2880  -0.0592  -0.0513  -0.0696   0.00    0.0
2026/01/15 01:27:00.000   46.877102117    7.465040552   946.0895   6   7   0.1663   0.1205   0.2870  -0.0588  -0.0510  -0.0699   0.00    0.0
2026/01/15 01:27:30.000   46.877102133    7.465040479   946.0986   6   7   0.1658   0.1202   0.2860  -0.0585  -0.0507  -0.0702   0.00    0.0
2026/01/15 01:28:00.000   46.877102144    7.465040415   946.1088   6   7   0.1653   0.1199   0.2850  -0.0582  -0.0503  -0.0704   0.00    0.0
2026/01/15 01:28:30.000   46.877102155    7.465040356   946.1193   6   7   0.1649   0.1196   0.2840  -0.0578  -0.0500  -0.0707   0.00    0.0
2026/01/15 01:29:00.000   46.877102166    7.465040294   946.1295   6   7   0.1644   0.1193   0.2831  -0.0575  -0.0497  -0.0710   0.00    0.0
2026/01/15 01:29:30.000   46.877102178    7.465040227   946.1391   6   7   0.1639   0.1190   0.2821  -0.0572  -0.0493  -0.0712   0.00    0.0
2026/01/15 01:30:00.000   46.877102191    7.465040167   946.1502   6   7   0.1635   0.1188   0.2811  -0.0569  -0.0490  -0.0714   0.00    0.0
2026/01/15 01:30:30.000   46.877102203    7.465040105   946.1621   6   7   0.1630   0.1185   0.2802  -0.0565  -0.0487  -0.0717   0.00    0.0
2026/01/15 01:31:00.000   46.877102213    7.465040043   946.1750   6   7   0.1625   0.1182   0.2793  -0.0562  -0.0483  -0.0719   0.00    0.0
2026/01/15 01:31:30.000   46.877102222    7.465039977   946.1869   6   7   0.1621   0.1179   0.2783  -0.0559  -0.0480  -0.0721   0.00    0.0
2026/01/15 01:32:00.000   46.877102234    7.465039912   946.1984   6   7   0.1616   0.1177   0.2774  -0.0556  -0.0477  -0.0723   0.00    0.0
2026/01/15 01:32:30.000   46.877102244    7.465039849   946.2099   6   7   0.1611   0.1174   0.2765  -0.0553  -0.0473  -0.0725   0.00    0.0
2026/01/15 01:33:00.000   46.877102255    7.465039787   946.2230   6   7   0.1607   0.1171   0.2756  -0.0550  -0.0470  -0.0727   0.00    0.0
2026/01/15 01:33:30.000   46.877102269    7.465039718   946.2353   6   7   0.1602   0.1169   0.2747  -0.0547  -0.0466  -0.0729   0.00    0.0
2026/01/15 01:34:00.000   46.877102283    7.465039651   946.2478   6   7   0.1598   0.1166   0.2738  -0.0544  -0.0463  -0.0730   0.00    0.0
2026/01/15 01:34:30.000   46.877102293    7.465039588   946.2607   6   7   0.1593   0.1163   0.2729  -0.0541  -0.0460  -0.0732   0.00    0.0
2026/01/15 01:35:00.000   46.877102304    7.465039526   946.2743   6   7   0.1588   0.1161   0.2720  -0.0538  -0.0456  -0.0734   0.00    0.0
2026/01/15 01:35:30.000   46.877102317    7.465039462   946.2868   6   7   0.1584   0.1158   0.2711  -0.0535  -0.0453  -0.0735   0.00    0.0
2026/01/15 01:36:00.000   46.877102329    7.465039401   946.2992   6   7   0.1579   0.1156   0.2703  -0.0532  -0.0450  -0.0737   0.00    0.0
2026/01/15 01:36:30.000   46.877102337    7.465039341   946.3120   6   7   0.1575   0.1153   0.2694  -0.0529  -0.0446  -0.0738   0.00    0.0
2026/01/15 01:37:00.000   46.877102343    7.465039282   946.3251   6   7   0.1570   0.1150   0.2685  -0.0526  -0.0443  -0.0739   0.00    0.0
2026/01/15 01:37:30.000   46.877102346    7.465039224   946.3383   6   7   0.1566   0.1148   0.2677  -0.0523  -0.0439  -0.0741   0.00    0.0
2026/01/15 01:38:00.000   46.877102354    7.465039159   946.3510   6   7   0.1561   0.1145   0.2669  -0.0521  -0.0436  -0.0742   0.00    0.0
2026/01/15 01:38:30.000   46.877102364    7.465039093   946.3642   6   7   0.1557   0.1143   0.2660  -0.0518  -0.0433  -0.0743   0.00    0.0
2026/01/15 01:39:00.000   46.877102372    7.465039031   946.3785   6   7   0.1552   0.1141   0.2652  -0.0515  -0.0429  -0.0744   0.00    0.0
2026/01/15 01:39:30.000   46.877102379    7.465038969   946.3931   6   7   0.1548   0.1138   0.2644  -0.0512  -0.0426  -0.0745   0.00    0.0
2026/01/15 01:40:00.000   46.877102391    7.465038903   946.4078   6   7   0.1543   0.1136   0.2636  -0.0510  -0.0422  -0.0746   0.00    0.0
2026/01/15 01:40:30.000   46.877102398    7.465038836   946.4227   6   7   0.1539   0.1133   0.2628  -0.0507  -0.0419  -0.0747   0.00    0.0
2026/01/15 01:41:00.000   46.877102402    7.465038773   946.4385   6   7   0.1534   0.1131   0.2620  -0.0504  -0.0416  -0.0748   0.00    0.0
2026/01/15 01:41:30.000   46.877102407    7.465038708   946.4538   6   7   0.1530   0.1129   0.2612  -0.0502  -0.0412  -0.0748   0.00    0.0
2026/01/15 01:42:00.000   46.877102411    7.465038646   946.4691   6   7   0.1525   0.1126   0.2604  -0.0499  -0.0409  -0.0749   0.00    0.0
2026/01/15 01:42:30.000   46.877102419    7.465038591   946.4848   6   7   0.1521   0.1124   0.2596  -0.0497  -0.0405  -0.0750   0.00    0.0
2026/01/15 01:43:00.000   46.877102395    7.465038543   946.4940   6   7   0.1517   0.1122   0.2589  -0.0494  -0.0402  -0.0750   0.00    0.0
2026/01/15 01:43:30.000   46.877102367    7.465038491   946.5021   6   7   0.1512   0.1119   0.2581  -0.0492  -0.0399  -0.0749   0.00    0.0
2026/01/15 01:44:00.000   46.877102353    7.465038467   946.5176   6   6   0.1508   0.1117   0.2575  -0.0489  -0.0394  -0.0749   0.00    0.0
2026/01/15 01:44:30.000   46.877102341    7.465038440   946.5334   6   6   0.1504   0.1115   0.2569  -0.0486  -0.0389  -0.0748   0.00    0.0
2026/01/15 01:45:00.000   46.877102329    7.465038413   946.5499   6   6   0.1500   0.1113   0.2562  -0.0483  -0.0384  -0.0747   0.00    0.0
2026/01/15 01:45:30.000   46.877102320    7.465038381   946.5666   6   6   0.1496   0.1111   0.2556  -0.0480  -0.0379  -0.0746   0.00    0.0
2026/01/15 01:46:00.000   46.877102309    7.465038348   946.5834   6   6   0.1492   0.1109   0.2550  -0.0478  -0.0374  -0.0745   0.00    0.0
2026/01/15 01:46:30.000   46.877102298    7.465038314   946.6002   6   6   0.1488   0.1107   0.2543  -0.0475  -0.0369  -0.0744   0.00    0.0
2026/01/15 01:47:00.000   46.877102286    7.465038284   946.6168   6   6   0.1483   0.1105   0.2537  -0.0472  -0.0364  -0.0743   0.00    0.0
2026/01/15 01:47:30.000   46.877102277    7.465038254   946.6335   6   6   0.1479   0.1103   0.2531  -0.0470  -0.0358  -0.0742   0.00    0.0
2026/01/15 01:48:00.000   46.877102268    7.465038223   946.6509   6   6   0.1475   0.1101   0.2525  -0.0467  -0.0353  -0.0741   0.00    0.0
2026/01/15 01:48:30.000   46.877102256    7.465038195   946.6685   6   6   0.1471   0.1099   0.2519  -0.0465  -0.0348  -0.0740   0.00    0.0
2026/01/15 01:49:00.000   46.877102240    7.465038172   946.6859   6   6   0.1467   0.1097   0.2513  -0.0462  -0.0343  -0.0738   0.00    0.0
2026/01/15 01:49:30.000   46.877102225    7.465038149   946.7031   6   6   0.1463   0.1095   0.2507  -0.0460  -0.0338  -0.0737   0.00    0.0
2026/01/15 01:50:00.000   46.877102212    7.465038122   946.7205   6   6   0.1459   0.1093   0.2501  -0.0457  -0.0333  -0.0736   0.00    0.0
2026/01/15 01:50:30.000   46.877102196    7.465038095   946.7380   6   6   0.1455   0.1091   0.2495  -0.0455  -0.0328  -0.0735   0.00    0.0
2026/01/15 01:51:00.000   46.877102177    7.465038071   946.7557   6   6   0.1451   0.1089   0.2489  -0.0453  -0.0323  -0.0734   0.00    0.0
2026/01/15 01:51:30.000   46.877102157    7.465038049   946.7731   6   6   0.1447   0.1087   0.2483  -0.0450  -0.0318  -0.0732   0.00    0.0
2026/01/15 01:52:00.000   46.877102139    7.465038027   946.7906   6   6   0.1443   0.1085   0.2477  -0.0448  -0.0313  -0.0731   0.00    0.0
2026/01/15 01:52:30.000   46.877102122    7.465038001   946.8086   6   6   0.1439   0.1083   0.2472  -0.0446  -0.0307  -0.0730   0.00    0.0
2026/01/15 01:53:00.000   46.877102106    7.465037976   946.8265   6   6   0.1435   0.1081   0.2466  -0.0444  -0.0302  -0.0729   0.00    0.0
2026/01/15 01:53:30.000   46.877102086    7.465037953   946.8445   6   6   0.1431   0.1079   0.2460  -0.0441  -0.0297  -0.0727   0.00    0.0
2026/01/15 01:54:00.000   46.877102068    7.465037926   946.8627   6   6   0.1427   0.1078   0.2455  -0.0439  -0.0292  -0.0726   0.00    0.0
2026/01/15 01:54:30.000   46.877102051    7.465037897   946.8811   6   6   0.1423   0.1076   0.2449  -0.0437  -0.0286  -0.0724   0.00    0.0
2026/01/15 01:55:00.000   46.877102031    7.465037871   946.8996   6   6   0.1419   0.1074   0.2444  -0.0435  -0.0281  -0.0723   0.00    0.0
2026/01/15 01:55:30.000   46.877102014    7.465037844   946.9178   6   6   0.1415   0.1072   0.2438  -0.0433  -0.0276  -0.0722   0.00    0.0
2026/01/15 01:56:00.000   46.877101997    7.465037819   946.9366   6   6   0.1411   0.1070   0.2433  -0.0431  -0.0270  -0.0720   0.00    0.0
2026/01/15 01:56:30.000   46.877101978    7.465037797   946.9558   6   6   0.1407   0.1068   0.2427  -0.0429  -0.0265  -0.0719   0.00    0.0
2026/01/15 01:57:00.000   46.877101960    7.465037773   946.9748   6   6   0.1403   0.1067   0.2422  -0.0427  -0.0259  -0.0717   0.00    0.0
2026/01/15 01:57:30.000   46.877101940    7.465037750   946.9942   6   6   0.1399   0.1065   0.2417  -0.0425  -0.0254  -0.0716   0.00    0.0
2026/01/15 01:58:00.000   46.877101924    7.465037724   947.0133   6   6   0.1395   0.1063   0.2411  -0.0423  -0.0248  -0.0714   0.00    0.0
2026/01/15 01:58:30.000   46.877101907    7.465037702   947.0326   6   6   0.1391   0.1061   0.2406  -0.0421  -0.0242  -0.0713   0.00    0.0
2026/01/15 01:59:00.000   46.877101889    7.465037681   947.0521   6   6   0.1388   0.1059   0.2401  -0.0420  -0.0237  -0.0711   0.00    0.0
2026/01/15 01:59:30.000   46.877101873    7.465037657   947.0717   6   6   0.1384   0.1058   0.2396  -0.0418  -0.0231  -0.0709   0.00    0.0
2026/01/15 02:00:00.000   46.877101871    7.465037607   947.0925   6   6   0.1381   0.1056   0.2391  -0.0416  -0.0226  -0.0708   0.00    0.0
2026/01/15 02:00:30.000   46.877101868    7.465037561   947.1133   6   6   0.1378   0.1055   0.2386  -0.0414  -0.0222  -0.0707   0.00    0.0
2026/01/15 02:01:00.000   46.877101885    7.465037481   947.1279   6   7   0.1374   0.1053   0.2381  -0.0412  -0.0221  -0.0704   0.00    0.0
2026/01/15 02:01:30.000   46.877101901    7.465037402   947.1427   6   7   0.1371   0.1051   0.2375  -0.0410  -0.0221  -0.0702   0.00    0.0
2026/01/15 02:02:00.000   46.877101917    7.465037325   947.1573   6   7   0.1368   0.1049   0.2370  -0.0407  -0.0220  -0.0699   0.00    0.0
2026/01/15 02:02:30.000   46.877101935    7.465037243   947.1717   6   7   0.1365   0.1047   0.2365  -0.0405  -0.0219  -0.0697   0.00    0.0
2026/01/15 02:03:00.000   46.877101951    7.465037164   947.1868   6   7   0.1361   0.1045   0.2359  -0.0402  -0.0219  -0.0694   0.00    0.0
2026/01/15 02:03:30.000   46.877101967    7.465037084   947.2018   6   7   0.1358   0.1043   0.2354  -0.0400  -0.0218  -0.0692   0.00    0.0
2026/01/15 02:04:00.000   46.877101983    7.465037003   947.2169   6   7   0.1355   0.1042   0.2348  -0.0398  -0.0217  -0.0689   0.00    0.0
2026/01/15 02:04:30.000   46.877101994    7.465036927   947.2328   6   7   0.1352   0.1040   0.2343  -0.0396  -0.0217  -0.0687   0.00    0.0
2026/01/15 02:05:00.000   46.877102006    7.465036850   947.2485   6   7   0.1349   0.1038   0.2338  -0.0393  -0.0216  -0.0684   0.00    0.0
2026/01/15 02:05:30.000   46.877102021    7.465036770   947.2641   6   7   0.1346   0.1036   0.2333  -0.0391  -0.0216  -0.0682   0.00    0.0
2026/01/15 02:06:00.000   46.877102033    7.465036693   947.2800   6   7   0.1342   0.1034   0.2328  -0.0389  -0.0215  -0.0679   0.00    0.0
2026/01/15 02:06:30.000   46.877102044    7.465036617   947.2964   6   7   0.1339   0.1032   0.2322  -0.0387  -0.0214  -0.0677   0.00    0.0
2026/01/15 02:07:00.000   46.877102054    7.465036540   947.3128   6   7   0.1336   0.1031   0.2317  -0.0385  -0.0214  -0.0674   0.00    0.0
2026/01/15 02:07:30.000   46.877102062    7.465036465   947.3295   6   7   0.1333   0.1029   0.2312  -0.0383  -0.0213  -0.0672   0.00    0.0
2026/01/15 02:08:00.000   46.877102070    7.465036390   947.3458   6   7   0.1330   0.1027   0.2307  -0.0380  -0.0213  -0.0669   0.00    0.0
2026/01/15 02:08:30.000   46.877102078    7.465036315   947.3623   6   7   0.1327   0.1025   0.2302  -0.0378  -0.0212  -0.0667   0.00    0.0
2026/01/15 02:09:00.000   46.877102086    7.465036239   947.3792   6   7   0.1324   0.1023   0.2297  -0.0376  -0.0211  -0.0664   0.00    0.0
2026/01/15 02:09:30.000   46.877102093    7.465036162   947.3959   6   7   0.1321   0.1022   0.2292  -0.0374  -0.0211  -0.0662   0.00    0.0
2026/01/15 02:10:00.000   46.877102098    7.465036086   947.4126   6   7   0.1318   0.1020   0.2287  -0.0372  -0.0210  -0.0659   0.00    0.0
2026/01/15 02:10:30.000   46.877102102    7.465036009   947.4296   6   7   0.1315   0.1018   0.2283  -0.0370  -0.0209  -0.0657   0.00    0.0
2026/01/15 02:11:00.000   46.877102108    7.465035933   947.4466   6   7   0.1312   0.1016   0.2278  -0.0368  -0.0209  -0.0654   0.00    0.0
2026/01/15 02:11:30.000   46.877102122    7.465035862   947.4654   6   8   0.1308   0.1015   0.2272  -0.0367  -0.0209  -0.0653   0.00    0.0
2026/01/15 02:12:00.000   46.877102132    7.465035792   947.4839   6   8   0.1305   0.1013   0.2267  -0.0365  -0.0208  -0.0651   0.00    0.0
2026/01/15 02:12:30.000   46.877102142    7.465035721   947.5026   6   8   0.1301   0.1011   0.2262  -0.0363  -0.0208  -0.0650   0.00    0.0
2026/01/15 02:13:00.000   46.877102151    7.465035654   947.5214   6   8   0.1298   0.1009   0.2257  -0.0362  -0.0208  -0.0649   0.00    0.0
2026/01/15 02:13:30.000   46.877102158    7.465035586   947.5401   6   8   0.1295   0.1008   0.2252  -0.0360  -0.0207  -0.0647   0.00    0.0
2026/01/15 02:14:00.000   46.877102167    7.465035518   947.5591   6   8   0.1291   0.1006   0.2247  -0.0358  -0.0207  -0.0646   0.00    0.0
2026/01/15 02:14:30.000   46.877102177    7.465035451   947.5786   6   8   0.1288   0.1004   0.2242  -0.0357  -0.0207  -0.0644   0.00    0.0
2026/01/15 02:15:00.000   46.877102185    7.465035385   947.5983   6   8   0.1285   0.1002   0.2237  -0.0355  -0.0206  -0.0643   0.00    0.0
2026/01/15 02:15:30.000   46.877102196    7.465035319   947.6182   6   8   0.1281   0.1000   0.2232  -0.0354  -0.0206  -0.0641   0.00    0.0
2026/01/15 02:16:00.000   46.877102207    7.465035250   947.6385   6   8   0.1278   0.0999   0.2227  -0.0352  -0.0206  -0.0640   0.00    0.0
2026/01/15 02:16:30.000   46.877102215    7.465035180   947.6584   6   8   0.1275   0.0997   0.2222  -0.0351  -0.0205  -0.0638   0.00    0.0
2026/01/15 02:17:00.000   46.877102225    7.465035110   947.6782   6   8   0.1271   0.0995   0.2217  -0.0349  -0.0205  -0.0637   0.00    0.0
2026/01/15 02:17:30.000   46.877102235    7.465035043   947.6982   6   8   0.1268   0.0994   0.2213  -0.0348  -0.0205  -0.0635   0.00    0.0
2026/01/15 02:18:00.000   46.877102244    7.465034976   947.7183   6   8   0.1265   0.0992   0.2208  -0.0346  -0.0204  -0.0634   0.00    0.0
2026/01/15 02:18:30.000   46.877102254    7.465034910   947.7388   6   8   0.1261   0.0990   0.2203  -0.0345  -0.0204  -0.0632   0.00    0.0
2026/01/15 02:19:00.000   46.877102264    7.465034846   947.7595   6   8   0.1258   0.0988   0.2198  -0.0344  -0.0203  -0.0631   0.00    0.0
2026/01/15 02:19:30.000   46.877102275    7.465034783   947.7804   6   8   0.1255   0.0987   0.2194  -0.0342  -0.0203  -0.0629   0.00    0.0
2026/01/15 02:20:00.000   46.877102282    7.465034719   947.8014   6   8   0.1252   0.0985   0.2189  -0.0341  -0.0203  -0.0628   0.00    0.0
2026/01/15 02:20:30.000   46.877102287    7.465034656   947.8225   6   8   0.1248   0.0983   0.2185  -0.0340  -0.0202  -0.0626   0.00    0.0
2026/01/15 02:21:00.000   46.877102293    7.465034595   947.8440   6   8   0.1245   0.0982   0.2180  -0.0339  -0.0202  -0.0625   0.00    0.0
2026/01/15 02:21:30.000   46.877102299    7.465034532   947.8653   6   8   0.1242   0.0980   0.2176  -0.0338  -0.0201  -0.0623   0.00    0.0
2026/01/15 02:22:00.000   46.877102305    7.465034471   947.8869   6   8   0.1239   0.0978   0.2171  -0.0336  -0.0201  -0.0622   0.00    0.0
2026/01/15 02:22:30.000   46.877102314    7.465034408   947.9086   6   8   0.1236   0.0976   0.2167  -0.0335  -0.0200  -0.0620   0.00    0.0
2026/01/15 02:23:00.000   46.877102322    7.465034344   947.9301   6   8   0.1232   0.0975   0.2162  -0.0334  -0.0200  -0.0619   0.00    0.0
2026/01/15 02:23:30.000   46.877102331    7.465034279   947.9519   6   8   0.1229   0.0973   0.2158  -0.0333  -0.0199  -0.0617   0.00    0.0
2026/01/15 02:24:00.000   46.877102342    7.465034215   947.9736   6   8   0.1226   0.0971   0.2154  -0.0332  -0.0199  -0.0616   0.00    0.0
2026/01/15 02:24:30.000   46.877102352    7.465034152   947.9953   6   8   0.1223   0.0970   0.2149  -0.0331  -0.0198  -0.0614   0.00    0.0
2026/01/15 02:25:00.000   46.877102363    7.465034089   948.0173   6   8   0.1220   0.0968   0.2145  -0.0330  -0.0198  -0.0613   0.00    0.0
2026/01/15 02:25:30.000   46.877102372    7.465034025   948.0398   6   8   0.1217   0.0966   0.2141  -0.0329  -0.0197  -0.0611   0.00    0.0
2026/01/15 02:26:00.000   46.877102352    7.465033977   948.0532   6   7   0.1214   0.0965   0.2138  -0.0328  -0.0199  -0.0608   0.00    0.0
2026/01/15 02:26:30.000   46.877102334    7.465033930   948.0668   6   7   0.1211   0.0963   0.2134  -0.0328  -0.0201  -0.0606   0.00    0.0
2026/01/15 02:27:00.000   46.877102320    7.465033883   948.0806   6   7   0.1208   0.0962   0.2131  -0.0327  -0.0203  -0.0603   0.00    0.0
2026/01/15 02:27:30.000   46.877102308    7.465033834   948.0949   6   7   0.1205   0.0960   0.2128  -0.0327  -0.0205  -0.0601   0.00    0.0
2026/01/15 02:28:00.000   46.877102298    7.465033784   948.1095   6   7   0.1202   0.0959   0.2125  -0.0326  -0.0206  -0.0598   0.00    0.0
2026/01/15 02:28:30.000   46.877102285    7.465033734   948.1242   6   7   0.1199   0.0957   0.2122  -0.0326  -0.0208  -0.0596   0.00    0.0
2026/01/15 02:29:00.000   46.877102271    7.465033686   948.1394   6   7   0.1197   0.0956   0.2118  -0.0326  -0.0209  -0.0594   0.00    0.0
2026/01/15 02:29:30.000   46.877102260    7.465033636   948.1550   6   7   0.1194   0.0955   0.2115  -0.0325  -0.0211  -0.0591   0.00    0.0
2026/01/15 02:30:00.000   46.877102249    7.465033587   948.1707   6   7   0.1191   0.0953   0.2112  -0.0325  -0.0212  -0.0589   0.00    0.0
2026/01/15 02:30:30.000   46.877102238    7.465033538   948.1868   6   7   0.1188   0.0952   0.2109  -0.0324  -0.0214  -0.0586   0.00    0.0
2026/01/15 02:31:00.000   46.877102230    7.465033489   948.2030   6   7   0.1185   0.0950   0.2106  -0.0324  -0.0215  -0.0584   0.00    0.0
2026/01/15 02:31:30.000   46.877102223    7.465033438   948.2195   6   7   0.1182   0.0949   0.2103  -0.0324  -0.0216  -0.0581   0.00    0.0
2026/01/15 02:32:00.000   46.877102218    7.465033385   948.2360   6   7   0.1180   0.0947   0.2100  -0.0323  -0.0217  -0.0579   0.00    0.0
2026/01/15 02:32:30.000   46.877102211    7.465033333   948.2527   6   7   0.1177   0.0946   0.2097  -0.0323  -0.0218  -0.0577   0.00    0.0
2026/01/15 02:33:00.000   46.877102203    7.465033283   948.2699   6   7   0.1174   0.0944   0.2094  -0.0323  -0.0219  -0.0574   0.00    0.0
2026/01/15 02:33:30.000   46.877102199    7.465033231   948.2869   6   7   0.1171   0.0943   0.2091  -0.0322  -0.0220  -0.0572   0.00    0.0
2026/01/15 02:34:00.000   46.877102195    7.465033177   948.3040   6   7   0.1168   0.0941   0.2088  -0.0322  -0.0221  -0.0570   0.00    0.0
2026/01/15 02:34:30.000   46.877102190    7.465033125   948.3217   6   7   0.1166   0.0940   0.2085  -0.0322  -0.0222  -0.0567   0.00    0.0
2026/01/15 02:35:00.000   46.877102187    7.465033073   948.3398   6   7   0.1163   0.0938   0.2082  -0.0321  -0.0223  -0.0565   0.00    0.0
2026/01/15 02:35:30.000   46.877102186    7.465033017   948.3578   6   7   0.1160   0.0937   0.2079  -0.0321  -0.0223  -0.0563   0.00    0.0
2026/01/15 02:36:00.000   46.877102186    7.465032962   948.3759   6   7   0.1158   0.0935   0.2076  -0.0321  -0.0224  -0.0561   0.00    0.0
2026/01/15 02:36:30.000   46.877102186    7.465032908   948.3944   6   7   0.1155   0.0934   0.2073  -0.0320  -0.0225  -0.0558   0.00    0.0
2026/01/15 02:37:00.000   46.877102187    7.465032853   948.4132   6   7   0.1152   0.0932   0.2070  -0.0320  -0.0225  -0.0556   0.00    0.0
2026/01/15 02:37:30.000   46.877102188    7.465032797   948.4321   6   7   0.1149   0.0931   0.2067  -0.0320  -0.0226  -0.0554   0.00    0.0
2026/01/15 02:38:00.000   46.877102190    7.465032741   948.4514   6   7   0.1147   0.0929   0.2065  -0.0320  -0.0226  -0.0552   0.00    0.0
2026/01/15 02:38:30.000   46.877102192    7.465032685   948.4710   6   7   0.1144   0.0928   0.2062  -0.0320  -0.0226  -0.0550   0.00    0.0
2026/01/15 02:39:00.000   46.877102196    7.465032630   948.4909   6   7   0.1142   0.0926   0.2059  -0.0319  -0.0227  -0.0547   0.00    0.0
2026/01/15 02:39:30.000   46.877102200    7.465032574   948.5109   6   7   0.1139   0.0925   0.2056  -0.0319  -0.0227  -0.0545   0.00    0.0
2026/01/15 02:40:00.000   46.877102206    7.465032520   948.5310   6   7   0.1136   0.0924   0.2053  -0.0319  -0.0227  -0.0543   0.00    0.0
2026/01/15 02:40:30.000   46.877102212    7.465032465   948.5515   6   7   0.1134   0.0922   0.2051  -0.0319  -0.0227  -0.0541   0.00    0.0
2026/01/15 02:41:00.000   46.877102218    7.465032408   948.5720   6   7   0.1131   0.0921   0.2048  -0.0319  -0.0227  -0.0539   0.00    0.0
2026/01/15 02:41:30.000   46.877102226    7.465032352   948.5928   6   7   0.1129   0.0919   0.2045  -0.0318  -0.0227  -0.0537   0.00    0.0
2026/01/15 02:42:00.000   46.877102236    7.465032296   948.6137   6   7   0.1126   0.0918   0.2042  -0.0318  -0.0228  -0.0535   0.00    0.0
2026/01/15 02:42:30.000   46.877102247    7.465032239   948.6349   6   7   0.1123   0.0916   0.2040  -0.0318  -0.0227  -0.0533   0.00    0.0
2026/01/15 02:43:00.000   46.877102261    7.465032179   948.6562   6   7   0.1121   0.0915   0.2037  -0.0318  -0.0227  -0.0531   0.00    0.0
2026/01/15 02:43:30.000   46.877102273    7.465032121   948.6780   6   7   0.1118   0.0913   0.2034  -0.0318  -0.0227  -0.0528   0.00    0.0
2026/01/15 02:44:00.000   46.877102287    7.465032064   948.6998   6   7   0.1116   0.0912   0.2032  -0.0318  -0.0227  -0.0526   0.00    0.0
2026/01/15 02:44:30.000   46.877102301    7.465032007   948.7218   6   7   0.1113   0.0910   0.2029  -0.0317  -0.0227  -0.0524   0.00    0.0
2026/01/15 02:45:00.000   46.877102315    7.465031949   948.7440   6   7   0.1111   0.0909   0.2026  -0.0317  -0.0227  -0.0522   0.00    0.0
2026/01/15 02:45:30.000   46.877102330    7.465031892   948.7663   6   7   0.1108   0.0908   0.2024  -0.0317  -0.0226  -0.0521   0.00    0.0
2026/01/15 02:46:00.000   46.877102344    7.465031835   948.7887   6   7   0.1106   0.0906   0.2021  -0.0317  -0.0226  -0.0519   0.00    0.0
2026/01/15 02:46:30.000   46.877102357    7.465031777   948.8114   6   7   0.1103   0.0905   0.2018  -0.0317  -0.0226  -0.0517   0.00    0.0
2026/01/15 02:47:00.000   46.877102372    7.465031718   948.8345   6   7   0.1101   0.0903   0.2016  -0.0317  -0.0225  -0.0515   0.00    0.0
2026/01/15 02:47:30.000   46.877102390    7.465031658   948.8575   6   7   0.1099   0.0902   0.2013  -0.0317  -0.0225  -0.0513   0.00    0.0
2026/01/15 02:48:00.000   46.877102409    7.465031595   948.8804   6   7   0.1096   0.0900   0.2011  -0.0317  -0.0224  -0.0511   0.00    0.0
2026/01/15 02:48:30.000   46.877102429    7.465031535   948.9035   6   7   0.1094   0.0899   0.2008  -0.0317  -0.0224  -0.0509   0.00    0.0
2026/01/15 02:49:00.000   46.877102451    7.465031476   948.9266   6   7   0.1091   0.0898   0.2006  -0.0317  -0.0223  -0.0507   0.00    0.0
2026/01/15 02:49:30.000   46.877102474    7.465031416   948.9500   6   7   0.1089   0.0896   0.2003  -0.0317  -0.0223  -0.0505   0.00    0.0
2026/01/15 02:50:00.000   46.877102495    7.465031355   948.9735   6   7   0.1087   0.0895   0.2001  -0.0316  -0.0222  -0.0504   0.00    0.0
2026/01/15 02:50:30.000   46.877102518    7.465031294   948.9972   6   7   0.1084   0.0893   0.1998  -0.0316  -0.0221  -0.0502   0.00    0.0
2026/01/15 02:51:00.000   46.877102542    7.465031231   949.0212   6   7   0.1082   0.0892   0.1995  -0.0316  -0.0220  -0.0500   0.00    0.0
2026/01/15 02:51:30.000   46.877102567    7.465031171   949.0454   6   7   0.1080   0.0891   0.1993  -0.0316  -0.0220  -0.0498   0.00    0.0
2026/01/15 02:52:00.000   46.877102592    7.465031111   949.0697   6   7   0.1077   0.0889   0.1991  -0.0316  -0.0219  -0.0497   0.00    0.0
2026/01/15 02:52:30.000   46.877102618    7.465031050   949.0937   6   7   0.1075   0.0888   0.1988  -0.0316  -0.0218  -0.0495   0.00    0.0
2026/01/15 02:53:00.000   46.877102644    7.465030989   949.1178   6   7   0.1073   0.0886   0.1986  -0.0316  -0.0217  -0.0493   0.00    0.0
2026/01/15 02:53:30.000   46.877102669    7.465030929   949.1422   6   7   0.1071   0.0885   0.1983  -0.0316  -0.0216  -0.0491   0.00    0.0
2026/01/15 02:54:00.000   46.877102695    7.465030867   949.1669   6   7   0.1068   0.0884   0.1981  -0.0316  -0.0215  -0.0490   0.00    0.0
2026/01/15 02:54:30.000   46.877102720    7.465030807   949.1917   6   7   0.1066   0.0882   0.1978  -0.0316  -0.0214  -0.0488   0.00    0.0
2026/01/15 02:55:00.000   46.877102747    7.465030747   949.2162   6   7   0.1064   0.0881   0.1976  -0.0316  -0.0213  -0.0486   0.00    0.0
2026/01/15 02:55:30.000   46.877102772    7.465030687   949.2408   6   7   0.1062   0.0879   0.1973  -0.0316  -0.0212  -0.0485   0.00    0.0
2026/01/15 02:56:00.000   46.877102799    7.465030626   949.2656   6   7   0.1060   0.0878   0.1971  -0.0316  -0.0211  -0.0483   0.00    0.0
2026/01/15 02:56:30.000   46.877102828    7.465030564   949.2906   6   7   0.1057   0.0877   0.1969  -0.0316  -0.0210  -0.0482   0.00    0.0
2026/01/15 02:57:00.000   46.877102857    7.465030503   949.3157   6   7   0.1055   0.0875   0.1966  -0.0316  -0.0208  -0.0480   0.00    0.0
2026/01/15 02:57:30.000   46.877102886    7.465030442   949.3408   6   7   0.1053   0.0874   0.1964  -0.0316  -0.0207  -0.0479   0.00    0.0
2026/01/15 02:58:00.000   46.877102917    7.465030379   949.3661   6   7   0.1051   0.0873   0.1961  -0.0316  -0.0206  -0.0477   0.00    0.0
2026/01/15 02:58:30.000   46.877102949    7.465030316   949.3914   6   7   0.1049   0.0871   0.1959  -0.0316  -0.0204  -0.0476   0.00    0.0
2026/01/15 02:59:00.000   46.877102980    7.465030254   949.4166   6   7   0.1047   0.0870   0.1957  -0.0316  -0.0203  -0.0474   0.00    0.0
2026/01/15 02:59:30.000   46.877103012    7.465030193   949.4418   6   7   0.1045   0.0869   0.1954  -0.0316  -0.0202  -0.0473   0.00    0.0
2026/01/15 03:00:00.000   46.877103068    7.465030156   949.4715   6   7   0.1042   0.0867   0.1952  -0.0316  -0.0200  -0.0471   0.00    0.0
2026/01/15 03:00:30.000   46.877103124    7.465030117   949.5013   6   7   0.1040   0.0866   0.1949  -0.0316  -0.0199  -0.0470   0.00    0.0
2026/01/15 03:01:00.000   46.877103178    7.465030079   949.5309   6   7   0.1037   0.0864   0.1946  -0.0316  -0.0197  -0.0469   0.00    0.0
2026/01/15 03:01:30.000   46.877103232    7.465030039   949.5606   6   7   0.1035   0.0863   0.1944  -0.0316  -0.0196  -0.0468   0.00    0.0
2026/01/15 03:02:00.000   46.877103285    7.465030000   949.5903   6   7   0.1032   0.0862   0.1941  -0.0316  -0.0195  -0.0466   0.00    0.0
2026/01/15 03:02:30.000   46.877103339    7.465029961   949.6200   6   7   0.1030   0.0860   0.1938  -0.0316  -0.0193  -0.0465   0.00    0.0
2026/01/15 03:03:00.000   46.877103395    7.465029924   949.6496   6   7   0.1027   0.0859   0.1936  -0.0316  -0.0192  -0.0464   0.00    0.0
2026/01/15 03:03:30.000   46.877103451    7.465029885   949.6793   6   7   0.1025   0.0858   0.1933  -0.0316  -0.0190  -0.0463   0.00    0.0
2026/01/15 03:04:00.000   46.877103504    7.465029847   949.7091   6   7   0.1022   0.0856   0.1931  -0.0316  -0.0189  -0.0462   0.00    0.0
2026/01/15 03:04:30.000   46.877103556    7.465029807   949.7390   6   7   0.1020   0.0855   0.1928  -0.0316  -0.0187  -0.0461   0.00    0.0
2026/01/15 03:05:00.000   46.877103608    7.465029768   949.7689   6   7   0.1018   0.0854   0.1925  -0.0316  -0.0185  -0.0460   0.00    0.0
2026/01/15 03:05:30.000   46.877103662    7.465029728   949.7989   6   7   0.1016   0.0852   0.1923  -0.0316  -0.0184  -0.0459   0.00    0.0
2026/01/15 03:06:00.000   46.877103715    7.465029688   949.8291   6   7   0.1013   0.0851   0.1920  -0.0316  -0.0182  -0.0458   0.00    0.0
2026/01/15 03:06:30.000   46.877103769    7.465029647   949.8593   6   7   0.1011   0.0850   0.1918  -0.0316  -0.0180  -0.0457   0.00    0.0
2026/01/15 03:07:00.000   46.877103822    7.465029606   949.8896   6   7   0.1009   0.0848   0.1915  -0.0316  -0.0178  -0.0456   0.00    0.0
2026/01/15 03:07:30.000   46.877103876    7.465029566   949.9199   6   7   0.1007   0.0847   0.1912  -0.0316  -0.0176  -0.0455   0.00    0.0
2026/01/15 03:08:00.000   46.877103931    7.465029527   949.9501   6   7   0.1004   0.0846   0.1910  -0.0316  -0.0175  -0.0454   0.00    0.0
2026/01/15 03:08:30.000   46.877103986    7.465029488   949.9801   6   7   0.1002   0.0844   0.1907  -0.0316  -0.0173  -0.0453   0.00    0.0
2026/01/15 03:09:00.000   46.877104042    7.465029448   950.0101   6   7   0.1000   0.0843   0.1905  -0.0317  -0.0171  -0.0452   0.00    0.0
2026/01/15 03:09:30.000   46.877104097    7.465029407   950.0405   6   7   0.0998   0.0842   0.1902  -0.0317  -0.0169  -0.0451   0.00    0.0
2026/01/15 03:10:00.000   46.877104150    7.465029367   950.0710   6   7   0.0996   0.0840   0.1900  -0.0317  -0.0167  -0.0451   0.00    0.0
2026/01/15 03:10:30.000   46.877104204    7.465029326   950.1015   6   7   0.0994   0.0839   0.1897  -0.0317  -0.0165  -0.0450   0.00    0.0
2026/01/15 03:11:00.000   46.877104257    7.465029287   950.1319   6   7   0.0992   0.0838   0.1894  -0.0317  -0.0162  -0.0449   0.00    0.0
2026/01/15 03:11:30.000   46.877104310    7.465029248   950.1624   6   7   0.0990   0.0837   0.1892  -0.0317  -0.0160  -0.0448   0.00    0.0
2026/01/15 03:12:00.000   46.877104363    7.465029209   950.1929   6   7   0.0988   0.0835   0.1889  -0.0317  -0.0158  -0.0448   0.00    0.0
2026/01/15 03:12:30.000   46.877104416    7.465029169   950.2234   6   7   0.0986   0.0834   0.1887  -0.0317  -0.0156  -0.0447   0.00    0.0
2026/01/15 03:13:00.000   46.877104468    7.465029129   950.2540   6   7   0.0984   0.0833   0.1884  -0.0317  -0.0153  -0.0446   0.00    0.0
2026/01/15 03:13:30.000   46.877104521    7.465029091   950.2844   6   7   0.0982   0.0832   0.1882  -0.0317  -0.0151  -0.0446   0.00    0.0
2026/01/15 03:14:00.000   46.877104574    7.465029051   950.3148   6   7   0.0980   0.0830   0.1879  -0.0317  -0.0149  -0.0445   0.00    0.0
2026/01/15 03:14:30.000   46.877104627    7.465029011   950.3449   6   7   0.0978   0.0829   0.1877  -0.0317  -0.0146  -0.0444   0.00    0.0
2026/01/15 03:15:00.000   46.877104678    7.465028969   950.3755   6   7   0.0976   0.0828   0.1874  -0.0317  -0.0143  -0.0444   0.00    0.0
2026/01/15 03:15:30.000   46.877104749    7.465028908   950.4016   6   8   0.0974   0.0827   0.1871  -0.0317  -0.0143  -0.0442   0.00    0.0
2026/01/15 03:16:00.000   46.877104821    7.465028847   950.4275   6   8   0.0972   0.0825   0.1868  -0.0316  -0.0142  -0.0441   0.00    0.0
2026/01/15 03:16:30.000   46.877104891    7.465028785   950.4533   6   8   0.0970   0.0824   0.1865  -0.0316  -0.0142  -0.0440   0.00    0.0
2026/01/15 03:17:00.000   46.877104960    7.465028723   950.4792   6   8   0.0968   0.0823   0.1862  -0.0316  -0.0141  -0.0438   0.00    0.0
2026/01/15 03:17:30.000   46.877105031    7.465028660   950.5046   6   8   0.0966   0.0821   0.1859  -0.0315  -0.0140  -0.0437   0.00    0.0
2026/01/15 03:18:00.000   46.877105101    7.465028597   950.5300   6   8   0.0964   0.0820   0.1856  -0.0315  -0.0139  -0.0436   0.00    0.0
2026/01/15 03:18:30.000   46.877105170    7.465028534   950.5556   6   8   0.0962   0.0819   0.1853  -0.0315  -0.0139  -0.0434   0.00    0.0
2026/01/15 03:19:00.000   46.877105240    7.465028472   950.5813   6   8   0.0960   0.0817   0.1850  -0.0314  -0.0138  -0.0433   0.00    0.0
2026/01/15 03:19:30.000   46.877105309    7.465028411   950.6068   6   8   0.0958   0.0816   0.1847  -0.0314  -0.0137  -0.0432   0.00    0.0
2026/01/15 03:20:00.000   46.877105377    7.465028350   950.6325   6   8   0.0956   0.0815   0.1844  -0.0314  -0.0136  -0.0431   0.00    0.0
2026/01/15 03:20:30.000   46.877105444    7.465028290   950.6582   6   8   0.0954   0.0814   0.1841  -0.0313  -0.0135  -0.0429   0.00    0.0
2026/01/15 03:21:00.000   46.877105510    7.465028229   950.6836   6   8   0.0952   0.0812   0.1838  -0.0313  -0.0135  -0.0428   0.00    0.0
2026/01/15 03:21:30.000   46.877105576    7.465028166   950.7090   6   8   0.0951   0.0811   0.1835  -0.0313  -0.0134  -0.0427   0.00    0.0
2026/01/15 03:22:00.000   46.877105643    7.465028104   950.7345   6   8   0.0949   0.0810   0.1832  -0.0312  -0.0133  -0.0426   0.00    0.0
2026/01/15 03:22:30.000   46.877105710    7.465028044   950.7599   6   8   0.0947   0.0809   0.1829  -0.0312  -0.0132  -0.0425   0.00    0.0
2026/01/15 03:23:00.000   46.877105776    7.465027983   950.7853   6   8   0.0945   0.0807   0.1826  -0.0312  -0.0131  -0.0424   0.00    0.0
2026/01/15 03:23:30.000   46.877105841    7.465027922   950.8110   6   8   0.0943   0.0806   0.1823  -0.0311  -0.0130  -0.0423   0.00    0.0
2026/01/15 03:24:00.000   46.877105905    7.465027862   950.8366   6   8   0.0942   0.0805   0.1820  -0.0311  -0.0129  -0.0421   0.00    0.0
2026/01/15 03:24:30.000   46.877105969    7.465027801   950.8623   6   8   0.0940   0.0804   0.1817  -0.0310  -0.0128  -0.0420   0.00    0.0
2026/01/15 03:25:00.000   46.877106034    7.465027740   950.8879   6   8   0.0938   0.0802   0.1815  -0.0310  -0.0127  -0.0419   0.00    0.0
2026/01/15 03:25:30.000   46.877106098    7.465027679   950.9130   6   8   0.0936   0.0801   0.1812  -0.0310  -0.0125  -0.0418   0.00    0.0
2026/01/15 03:26:00.000   46.877106162    7.465027618   950.9382   6   8   0.0935   0.0800   0.1809  -0.0309  -0.0124  -0.0417   0.00    0.0
2026/01/15 03:26:30.000   46.877106225    7.465027556   950.9636   6   8   0.0933   0.0799   0.1806  -0.0309  -0.0123  -0.0416   0.00    0.0
2026/01/15 03:27:00.000   46.877106289    7.465027493   950.9888   6   8   0.0931   0.0797   0.1803  -0.0309  -0.0122  -0.0415   0.00    0.0
2026/01/15 03:27:30.000   46.877106353    7.465027431   951.0139   6   8   0.0930   0.0796   0.1800  -0.0308  -0.0121  -0.0415   0.00    0.0
2026/01/15 03:28:00.000   46.877106421    7.465027375   951.0311   6   7   0.0928   0.0795   0.1798  -0.0308  -0.0123  -0.0414   0.00    0.0
2026/01/15 03:28:30.000   46.877106489    7.465027318   951.0484   6   7   0.0926   0.0794   0.1796  -0.0307  -0.0124  -0.0414   0.00    0.0
2026/01/15 03:29:00.000   46.877106556    7.465027261   951.0657   6   7   0.0925   0.0793   0.1794  -0.0307  -0.0126  -0.0413   0.00    0.0
