% program   : RTKPOST ver.demo5 b34d
% inp file  : E:\Master courses\SNDP-PROJECT\Old_data\data\ZIM200CHE_R_20260150000_01D_30S_MO.rnx
% inp file  : E:\Master courses\SNDP-PROJECT\New_Data\nav\BRDC00IGS_R_20260150000_01D_MN.rnx
% inp file  : E:\Master courses\SNDP-PROJECT\New_Data\DATA_FINAL_ANT_EXTRA\COD0MGXFIN_20260150000_01D_05M_ORB.SP3
% inp file  : E:\Master courses\SNDP-PROJECT\New_Data\DATA_FINAL_ANT_EXTRA\COD0MGXFIN_20260150000_01D_30S_CLK.CLK
% obs start : 2026/01/15 00:00:00.0 GPST (week2401 345600.0s)
% obs end   : 2026/01/15 02:00:00.0 GPST (week2401 352800.0s)
% pos mode  : PPP Static
% solution  : Forward
% elev mask : 15.0 deg
% dynamics  : off
% tidecorr  : off
% tropo opt : Saastamoinen
% ephemeris : Precise
% navi sys  : GPS Galileo BDS
% antenna1  : TRM59800.00     NONE  ( 0.0000  0.0000  0.0000)
%
% (lat/lon/height=WGS84/ellipsoidal,Q=1:fix,2:float,3:sbas,4:dgps,5:single,6:ppp,ns=# of satellites)
%  GPST                  latitude(deg) longitude(deg)  height(m)   Q  ns   sdn(m)   sde(m)   sdu(m)  sdne(m)  sdeu(m)  sdun(m) age(s)  ratio
2026/01/15 00:00:00.000   46.877109169    7.465079798   955.4865   6  27   0.8632   0.7220   1.7082  -0.3547   0.4889   0.1780   0.00    0.0
2026/01/15 00:00:30.000   46.877109934    7.465078311   955.2747   6  28   0.5987   0.4926   1.1779  -0.2173   0.2881   0.2184   0.00    0.0
2026/01/15 00:01:00.000   46.877110039    7.465078240   955.2398   6  28   0.4863   0.3982   0.9548  -0.1698   0.2207   0.1930   0.00    0.0
2026/01/15 00:01:30.000   46.877110525    7.465078705   955.1248   6  28   0.4200   0.3432   0.8239  -0.1442   0.1848   0.1722   0.00    0.0
2026/01/15 00:02:00.000   46.877111165    7.465079428   954.9793   6  28   0.3751   0.3062   0.7352  -0.1277   0.1618   0.1561   0.00    0.0
2026/01/15 00:02:30.000   46.877111428    7.465078778   954.9878   6  27   0.3421   0.2802   0.6708  -0.1157   0.1427   0.1431   0.00    0.0
2026/01/15 00:03:00.000   46.877110750    7.465077517   955.1184   6  26   0.3166   0.2604   0.6210  -0.1054   0.1264   0.1306   0.00    0.0
2026/01/15 00:03:30.000   46.877110178    7.465076611   955.1987   6  26   0.2960   0.2442   0.5805  -0.0975   0.1138   0.1203   0.00    0.0
2026/01/15 00:04:00.000   46.877109872    7.465075955   955.2624   6  26   0.2789   0.2308   0.5465  -0.0911   0.1037   0.1115   0.00    0.0
2026/01/15 00:04:30.000   46.877109821    7.465075967   955.2170   6  26   0.2645   0.2191   0.5183  -0.0873   0.0955   0.1076   0.00    0.0
2026/01/15 00:05:00.000   46.877109792    7.465075749   955.2053   6  26   0.2521   0.2091   0.4937  -0.0840   0.0887   0.1036   0.00    0.0
2026/01/15 00:05:30.000   46.877109788    7.465075558   955.2168   6  26   0.2412   0.2003   0.4721  -0.0811   0.0829   0.0997   0.00    0.0
2026/01/15 00:06:00.000   46.877109747    7.465075296   955.2382   6  26   0.2316   0.1925   0.4528  -0.0784   0.0780   0.0960   0.00    0.0
2026/01/15 00:06:30.000   46.877109727    7.465075789   955.1994   6  27   0.2230   0.1852   0.4354  -0.0761   0.0750   0.0926   0.00    0.0
2026/01/15 00:07:00.000   46.877109672    7.465076264   955.1675   6  27   0.2152   0.1786   0.4196  -0.0741   0.0723   0.0893   0.00    0.0
2026/01/15 00:07:30.000   46.877109612    7.465076719   955.1501   6  27   0.2082   0.1727   0.4054  -0.0721   0.0699   0.0862   0.00    0.0
2026/01/15 00:08:00.000   46.877109494    7.465076588   955.1702   6  26   0.2018   0.1677   0.3923  -0.0703   0.0668   0.0830   0.00    0.0
2026/01/15 00:08:30.000   46.877109392    7.465076365   955.1816   6  26   0.1958   0.1630   0.3801  -0.0685   0.0640   0.0797   0.00    0.0
2026/01/15 00:09:00.000   46.877109270    7.465076065   955.1935   6  26   0.1902   0.1586   0.3685  -0.0669   0.0614   0.0764   0.00    0.0
2026/01/15 00:09:30.000   46.877109251    7.465075821   955.1849   6  25   0.1851   0.1547   0.3580  -0.0653   0.0589   0.0724   0.00    0.0
2026/01/15 00:10:00.000   46.877109250    7.465075728   955.1659   6  25   0.1804   0.1510   0.3482  -0.0638   0.0566   0.0685   0.00    0.0
2026/01/15 00:10:30.000   46.877109364    7.465075607   955.1361   6  25   0.1759   0.1475   0.3389  -0.0624   0.0546   0.0648   0.00    0.0
2026/01/15 00:11:00.000   46.877109306    7.465075189   955.1496   6  24   0.1718   0.1444   0.3304  -0.0608   0.0522   0.0610   0.00    0.0
2026/01/15 00:11:30.000   46.877109256    7.465075124   955.1214   6  25   0.1680   0.1413   0.3223  -0.0595   0.0506   0.0575   0.00    0.0
2026/01/15 00:12:00.000   46.877109129    7.465075024   955.1045   6  25   0.1644   0.1384   0.3148  -0.0583   0.0491   0.0542   0.00    0.0
2026/01/15 00:12:30.000   46.877109144    7.465075139   955.0653   6  26   0.1610   0.1356   0.3076  -0.0573   0.0483   0.0514   0.00    0.0
2026/01/15 00:13:00.000   46.877109067    7.465074965   955.0659   6  25   0.1577   0.1331   0.3006  -0.0563   0.0469   0.0484   0.00    0.0
2026/01/15 00:13:30.000   46.877109016    7.465074806   955.0693   6  25   0.1545   0.1307   0.2938  -0.0553   0.0457   0.0452   0.00    0.0
2026/01/15 00:14:00.000   46.877108953    7.465074661   955.0742   6  25   0.1514   0.1284   0.2872  -0.0544   0.0446   0.0419   0.00    0.0
2026/01/15 00:14:30.000   46.877108882    7.465074600   955.0839   6  25   0.1485   0.1262   0.2807  -0.0535   0.0436   0.0385   0.00    0.0
2026/01/15 00:15:00.000   46.877108795    7.465074600   955.0905   6  25   0.1457   0.1241   0.2745  -0.0527   0.0426   0.0350   0.00    0.0
2026/01/15 00:15:30.000   46.877108685    7.465074610   955.0869   6  24   0.1430   0.1221   0.2690  -0.0519   0.0415   0.0325   0.00    0.0
2026/01/15 00:16:00.000   46.877108528    7.465074594   955.0882   6  24   0.1405   0.1203   0.2638  -0.0512   0.0405   0.0300   0.00    0.0
2026/01/15 00:16:30.000   46.877108396    7.465074498   955.0892   6  24   0.1381   0.1185   0.2588  -0.0505   0.0396   0.0276   0.00    0.0
2026/01/15 00:17:00.000   46.877108296    7.465074376   955.0911   6  24   0.1359   0.1168   0.2541  -0.0499   0.0387   0.0253   0.00    0.0
2026/01/15 00:17:30.000   46.877108225    7.465074253   955.0955   6  24   0.1338   0.1152   0.2497  -0.0493   0.0379   0.0231   0.00    0.0
2026/01/15 00:18:00.000   46.877108032    7.465073951   955.1216   6  23   0.1317   0.1136   0.2453  -0.0486   0.0369   0.0200   0.00    0.0
2026/01/15 00:18:30.000   46.877107800    7.465073634   955.1455   6  23   0.1296   0.1121   0.2409  -0.0479   0.0359   0.0163   0.00    0.0
2026/01/15 00:19:00.000   46.877107562    7.465073355   955.1663   6  23   0.1276   0.1107   0.2365  -0.0472   0.0350   0.0114   0.00    0.0
2026/01/15 00:19:30.000   46.877107354    7.465073108   955.1784   6  23   0.1256   0.1093   0.2321  -0.0466   0.0342  -0.0017   0.00    0.0
2026/01/15 00:20:00.000   46.877107313    7.465072945   955.1693   6  24   0.1237   0.1079   0.2278  -0.0460   0.0337  -0.0109   0.00    0.0
2026/01/15 00:20:30.000   46.877107235    7.465072816   955.1651   6  24   0.1218   0.1066   0.2237  -0.0455   0.0333  -0.0151   0.00    0.0
2026/01/15 00:21:00.000   46.877107159    7.465072676   955.1614   6  24   0.1200   0.1053   0.2197  -0.0449   0.0328  -0.0180   0.00    0.0
2026/01/15 00:21:30.000   46.877107050    7.465072558   955.1612   6  24   0.1183   0.1041   0.2160  -0.0444   0.0324  -0.0202   0.00    0.0
2026/01/15 00:22:00.000   46.877106941    7.465072483   955.1667   6  24   0.1166   0.1029   0.2125  -0.0440   0.0321  -0.0220   0.00    0.0
2026/01/15 00:22:30.000   46.877106827    7.465072476   955.1746   6  24   0.1151   0.1017   0.2091  -0.0435   0.0317  -0.0233   0.00    0.0
2026/01/15 00:23:00.000   46.877106691    7.465072282   955.1980   6  23   0.1136   0.1006   0.2058  -0.0430   0.0311  -0.0249   0.00    0.0
2026/01/15 00:23:30.000   46.877106554    7.465072139   955.2234   6  23   0.1120   0.0996   0.2024  -0.0425   0.0306  -0.0264   0.00    0.0
2026/01/15 00:24:00.000   46.877106431    7.465072002   955.2482   6  23   0.1105   0.0985   0.1990  -0.0420   0.0302  -0.0278   0.00    0.0
2026/01/15 00:24:30.000   46.877106288    7.465071838   955.2717   6  23   0.1090   0.0975   0.1957  -0.0415   0.0297  -0.0291   0.00    0.0
2026/01/15 00:25:00.000   46.877106190    7.465071803   955.2861   6  24   0.1075   0.0965   0.1923  -0.0411   0.0295  -0.0302   0.00    0.0
2026/01/15 00:25:30.000   46.877106099    7.465071714   955.2968   6  24   0.1061   0.0955   0.1891  -0.0406   0.0292  -0.0311   0.00    0.0
2026/01/15 00:26:00.000   46.877106001    7.465071599   955.3058   6  24   0.1047   0.0945   0.1860  -0.0402   0.0290  -0.0320   0.00    0.0
2026/01/15 00:26:30.000   46.877105919    7.465071515   955.3130   6  24   0.1034   0.0936   0.1831  -0.0398   0.0288  -0.0326   0.00    0.0
2026/01/15 00:27:00.000   46.877105879    7.465071447   955.3154   6  24   0.1021   0.0927   0.1803  -0.0395   0.0286  -0.0332   0.00    0.0
2026/01/15 00:27:30.000   46.877105779    7.465071271   955.3320   6  23   0.1009   0.0918   0.1778  -0.0391   0.0283  -0.0337   0.00    0.0
2026/01/15 00:28:00.000   46.877105643    7.465071124   955.3534   6  23   0.0997   0.0910   0.1752  -0.0387   0.0279  -0.0342   0.00    0.0
2026/01/15 00:28:30.000   46.877105534    7.465070941   955.3713   6  23   0.0985   0.0902   0.1726  -0.0383   0.0276  -0.0347   0.00    0.0
2026/01/15 00:29:00.000   46.877105419    7.465070798   955.3880   6  23   0.0973   0.0894   0.1699  -0.0379   0.0273  -0.0353   0.00    0.0
2026/01/15 00:29:30.000   46.877105312    7.465070663   955.4071   6  23   0.0961   0.0886   0.1672  -0.0375   0.0270  -0.0357   0.00    0.0
2026/01/15 00:30:00.000   46.877105292    7.465070576   955.4151   6  24   0.0950   0.0878   0.1646  -0.0371   0.0268  -0.0361   0.00    0.0
2026/01/15 00:30:30.000   46.877105238    7.465070535   955.4262   6  24   0.0938   0.0870   0.1620  -0.0368   0.0266  -0.0365   0.00    0.0
2026/01/15 00:31:00.000   46.877105195    7.465070530   955.4322   6  24   0.0927   0.0862   0.1596  -0.0365   0.0264  -0.0367   0.00    0.0
2026/01/15 00:31:30.000   46.877105109    7.465070440   955.4429   6  23   0.0916   0.0855   0.1573  -0.0361   0.0261  -0.0370   0.00    0.0
2026/01/15 00:32:00.000   46.877105013    7.465070357   955.4537   6  23   0.0907   0.0848   0.1552  -0.0358   0.0259  -0.0372   0.00    0.0
2026/01/15 00:32:30.000   46.877104911    7.465070256   955.4629   6  23   0.0897   0.0842   0.1532  -0.0355   0.0256  -0.0373   0.00    0.0
2026/01/15 00:33:00.000   46.877104800    7.465070119   955.4750   6  23   0.0888   0.0835   0.1511  -0.0352   0.0254  -0.0375   0.00    0.0
2026/01/15 00:33:30.000   46.877104687    7.465070087   955.4837   6  24   0.0878   0.0828   0.1490  -0.0349   0.0252  -0.0376   0.00    0.0
2026/01/15 00:34:00.000   46.877104576    7.465069999   955.4906   6  23   0.0868   0.0821   0.1470  -0.0346   0.0251  -0.0376   0.00    0.0
2026/01/15 00:34:30.000   46.877104464    7.465069926   955.4985   6  23   0.0858   0.0815   0.1450  -0.0343   0.0249  -0.0377   0.00    0.0
2026/01/15 00:35:00.000   46.877104358    7.465069885   955.5064   6  23   0.0849   0.0808   0.1430  -0.0340   0.0248  -0.0377   0.00    0.0
2026/01/15 00:35:30.000   46.877104285    7.465069820   955.5117   6  23   0.0839   0.0802   0.1411  -0.0338   0.0247  -0.0377   0.00    0.0
2026/01/15 00:36:00.000   46.877104174    7.465069677   955.5242   6  22   0.0830   0.0796   0.1392  -0.0335   0.0245  -0.0378   0.00    0.0
2026/01/15 00:36:30.000   46.877104086    7.465069538   955.5347   6  22   0.0822   0.0790   0.1375  -0.0332   0.0243  -0.0378   0.00    0.0
2026/01/15 00:37:00.000   46.877104007    7.465069409   955.5455   6  22   0.0814   0.0784   0.1359  -0.0329   0.0241  -0.0377   0.00    0.0
2026/01/15 00:37:30.000   46.877103916    7.465069326   955.5578   6  22   0.0806   0.0779   0.1344  -0.0327   0.0239  -0.0377   0.00    0.0
2026/01/15 00:38:00.000   46.877103829    7.465069245   955.5693   6  22   0.0798   0.0773   0.1328  -0.0324   0.0238  -0.0377   0.00    0.0
2026/01/15 00:38:30.000   46.877103783    7.465069237   955.5734   6  23   0.0790   0.0768   0.1312  -0.0322   0.0237  -0.0376   0.00    0.0
2026/01/15 00:39:00.000   46.877103716    7.465069189   955.5789   6  23   0.0782   0.0762   0.1295  -0.0319   0.0235  -0.0376   0.00    0.0
2026/01/15 00:39:30.000   46.877103639    7.465069099   955.5880   6  23   0.0774   0.0757   0.1278  -0.0317   0.0234  -0.0375   0.00    0.0
2026/01/15 00:40:00.000   46.877103538    7.465069007   955.6007   6  23   0.0765   0.0751   0.1262  -0.0314   0.0233  -0.0374   0.00    0.0
2026/01/15 00:40:30.000   46.877103450    7.465068910   955.6109   6  23   0.0757   0.0746   0.1246  -0.0312   0.0231  -0.0374   0.00    0.0
2026/01/15 00:41:00.000   46.877103348    7.465068736   955.6241   6  22   0.0750   0.0741   0.1230  -0.0309   0.0230  -0.0373   0.00    0.0
2026/01/15 00:41:30.000   46.877103248    7.465068578   955.6351   6  22   0.0742   0.0736   0.1216  -0.0307   0.0228  -0.0372   0.00    0.0
2026/01/15 00:42:00.000   46.877103158    7.465068420   955.6451   6  22   0.0736   0.0731   0.1202  -0.0304   0.0226  -0.0371   0.00    0.0
2026/01/15 00:42:30.000   46.877103079    7.465068284   955.6550   6  22   0.0729   0.0727   0.1190  -0.0302   0.0225  -0.0370   0.00    0.0
2026/01/15 00:43:00.000   46.877103002    7.465068164   955.6650   6  22   0.0723   0.0722   0.1177  -0.0300   0.0223  -0.0369   0.00    0.0
2026/01/15 00:43:30.000   46.877102957    7.465068123   955.6689   6  23   0.0716   0.0717   0.1163  -0.0298   0.0222  -0.0368   0.00    0.0
2026/01/15 00:44:00.000   46.877102898    7.465068079   955.6745   6  23   0.0708   0.0712   0.1149  -0.0296   0.0221  -0.0367   0.00    0.0
2026/01/15 00:44:30.000   46.877102835    7.465067996   955.6804   6  23   0.0701   0.0708   0.1135  -0.0294   0.0219  -0.0366   0.00    0.0
2026/01/15 00:45:00.000   46.877102777    7.465067902   955.6857   6  23   0.0694   0.0703   0.1121  -0.0291   0.0218  -0.0365   0.00    0.0
2026/01/15 00:45:30.000   46.877102745    7.465067788   955.6926   6  24   0.0687   0.0698   0.1107  -0.0289   0.0217  -0.0363   0.00    0.0
2026/01/15 00:46:00.000   46.877102681    7.465067617   955.7030   6  23   0.0681   0.0694   0.1094  -0.0287   0.0215  -0.0362   0.00    0.0
2026/01/15 00:46:30.000   46.877102615    7.465067442   955.7129   6  23   0.0675   0.0690   0.1082  -0.0285   0.0214  -0.0361   0.00    0.0
2026/01/15 00:47:00.000   46.877102549    7.465067270   955.7227   6  23   0.0669   0.0685   0.1071  -0.0282   0.0213  -0.0360   0.00    0.0
2026/01/15 00:47:30.000   46.877102486    7.465067122   955.7326   6  23   0.0663   0.0681   0.1060  -0.0281   0.0212  -0.0358   0.00    0.0
2026/01/15 00:48:00.000   46.877102421    7.465066975   955.7441   6  23   0.0657   0.0677   0.1049  -0.0278   0.0210  -0.0357   0.00    0.0
2026/01/15 00:48:30.000   46.877102358    7.465066815   955.7565   6  23   0.0652   0.0673   0.1038  -0.0276   0.0209  -0.0356   0.00    0.0
2026/01/15 00:49:00.000   46.877102293    7.465066638   955.7706   6  23   0.0645   0.0669   0.1026  -0.0274   0.0207  -0.0354   0.00    0.0
2026/01/15 00:49:30.000   46.877102219    7.465066459   955.7849   6  23   0.0639   0.0665   0.1014  -0.0272   0.0206  -0.0353   0.00    0.0
2026/01/15 00:50:00.000   46.877102140    7.465066309   955.7986   6  23   0.0633   0.0661   0.1002  -0.0270   0.0204  -0.0351   0.00    0.0
2026/01/15 00:50:30.000   46.877102063    7.465066157   955.8119   6  23   0.0627   0.0657   0.0991  -0.0268   0.0203  -0.0350   0.00    0.0
2026/01/15 00:51:00.000   46.877101994    7.465066005   955.8238   6  23   0.0622   0.0653   0.0980  -0.0266   0.0201  -0.0348   0.00    0.0
2026/01/15 00:51:30.000   46.877101936    7.465065870   955.8346   6  23   0.0616   0.0649   0.0970  -0.0264   0.0200  -0.0347   0.00    0.0
2026/01/15 00:52:00.000   46.877101876    7.465065735   955.8443   6  22   0.0611   0.0645   0.0961  -0.0262   0.0198  -0.0345   0.00    0.0
2026/01/15 00:52:30.000   46.877101818    7.465065602   955.8527   6  22   0.0606   0.0642   0.0952  -0.0260   0.0196  -0.0344   0.00    0.0
2026/01/15 00:53:00.000   46.877101760    7.465065453   955.8612   6  22   0.0601   0.0638   0.0944  -0.0258   0.0194  -0.0342   0.00    0.0
2026/01/15 00:53:30.000   46.877101702    7.465065281   955.8701   6  22   0.0596   0.0635   0.0934  -0.0257   0.0192  -0.0340   0.00    0.0
2026/01/15 00:54:00.000   46.877101640    7.465065093   955.8793   6  22   0.0591   0.0631   0.0925  -0.0255   0.0190  -0.0339   0.00    0.0
2026/01/15 00:54:30.000   46.877101572    7.465064903   955.8889   6  22   0.0586   0.0628   0.0916  -0.0253   0.0187  -0.0337   0.00    0.0
2026/01/15 00:55:00.000   46.877101500    7.465064718   955.8987   6  22   0.0580   0.0624   0.0906  -0.0251   0.0185  -0.0335   0.00    0.0
2026/01/15 00:55:30.000   46.877101434    7.465064545   955.9080   6  22   0.0575   0.0621   0.0897  -0.0249   0.0183  -0.0333   0.00    0.0
2026/01/15 00:56:00.000   46.877101375    7.465064384   955.9166   6  22   0.0570   0.0617   0.0888  -0.0247   0.0181  -0.0331   0.00    0.0
2026/01/15 00:56:30.000   46.877101327    7.465064232   955.9245   6  22   0.0566   0.0614   0.0880  -0.0245   0.0179  -0.0330   0.00    0.0
2026/01/15 00:57:00.000   46.877101283    7.465064097   955.9324   6  22   0.0561   0.0611   0.0872  -0.0244   0.0177  -0.0328   0.00    0.0
2026/01/15 00:57:30.000   46.877101238    7.465063966   955.9400   6  22   0.0557   0.0608   0.0865  -0.0242   0.0175  -0.0326   0.00    0.0
2026/01/15 00:58:00.000   46.877101187    7.465063821   955.9481   6  22   0.0553   0.0605   0.0857  -0.0241   0.0173  -0.0325   0.00    0.0
2026/01/15 00:58:30.000   46.877101134    7.465063666   955.9564   6  22   0.0548   0.0602   0.0849  -0.0239   0.0171  -0.0323   0.00    0.0
2026/01/15 00:59:00.000   46.877101086    7.465063516   955.9647   6  22   0.0544   0.0598   0.0841  -0.0238   0.0169  -0.0321   0.00    0.0
2026/01/15 00:59:30.000   46.877101037    7.465063365   955.9728   6  22   0.0539   0.0595   0.0833  -0.0236   0.0167  -0.0319   0.00    0.0
2026/01/15 01:00:00.000   46.877100981    7.465063198   955.9800   6  22   0.0534   0.0592   0.0825  -0.0234   0.0165  -0.0317   0.00    0.0
2026/01/15 01:00:30.000   46.877100921    7.465063027   955.9864   6  22   0.0530   0.0589   0.0817  -0.0233   0.0163  -0.0315   0.00    0.0
2026/01/15 01:01:00.000   46.877100865    7.465062856   955.9921   6  22   0.0525   0.0586   0.0809  -0.0231   0.0161  -0.0314   0.00    0.0
2026/01/15 01:01:30.000   46.877100818    7.465062692   955.9977   6  22   0.0521   0.0583   0.0802  -0.0230   0.0160  -0.0312   0.00    0.0
2026/01/15 01:02:00.000   46.877100776    7.465062548   956.0031   6  22   0.0517   0.0580   0.0795  -0.0228   0.0158  -0.0310   0.00    0.0
2026/01/15 01:02:30.000   46.877100740    7.465062423   956.0078   6  22   0.0514   0.0577   0.0789  -0.0227   0.0156  -0.0308   0.00    0.0
2026/01/15 01:03:00.000   46.877100701    7.465062299   956.0123   6  22   0.0510   0.0574   0.0782  -0.0226   0.0155  -0.0307   0.00    0.0
2026/01/15 01:03:30.000   46.877100661    7.465062166   956.0175   6  22   0.0506   0.0572   0.0775  -0.0224   0.0153  -0.0305   0.00    0.0
2026/01/15 01:04:00.000   46.877100619    7.465062021   956.0232   6  22   0.0502   0.0569   0.0768  -0.0223   0.0151  -0.0303   0.00    0.0
2026/01/15 01:04:30.000   46.877100586    7.465061909   956.0264   6  24   0.0498   0.0566   0.0760  -0.0221   0.0149  -0.0301   0.00    0.0
2026/01/15 01:05:00.000   46.877100558    7.465061816   956.0286   6  23   0.0494   0.0563   0.0753  -0.0220   0.0147  -0.0299   0.00    0.0
2026/01/15 01:05:30.000   46.877100533    7.465061732   956.0307   6  23   0.0490   0.0560   0.0746  -0.0218   0.0146  -0.0297   0.00    0.0
2026/01/15 01:06:00.000   46.877100488    7.465061607   956.0351   6  22   0.0486   0.0557   0.0740  -0.0217   0.0144  -0.0295   0.00    0.0
2026/01/15 01:06:30.000   46.877100445    7.465061481   956.0394   6  22   0.0482   0.0555   0.0733  -0.0216   0.0142  -0.0294   0.00    0.0
2026/01/15 01:07:00.000   46.877100403    7.465061350   956.0439   6  22   0.0479   0.0552   0.0727  -0.0214   0.0140  -0.0292   0.00    0.0
2026/01/15 01:07:30.000   46.877100363    7.465061227   956.0489   6  22   0.0476   0.0550   0.0722  -0.0213   0.0139  -0.0291   0.00    0.0
2026/01/15 01:08:00.000   46.877100317    7.465061099   956.0550   6  22   0.0472   0.0547   0.0716  -0.0212   0.0137  -0.0289   0.00    0.0
2026/01/15 01:08:30.000   46.877100272    7.465060962   956.0609   6  22   0.0469   0.0545   0.0710  -0.0211   0.0135  -0.0287   0.00    0.0
2026/01/15 01:09:00.000   46.877100228    7.465060822   956.0665   6  22   0.0465   0.0542   0.0704  -0.0209   0.0134  -0.0285   0.00    0.0
2026/01/15 01:09:30.000   46.877100183    7.465060682   956.0713   6  22   0.0462   0.0539   0.0697  -0.0208   0.0132  -0.0284   0.00    0.0
2026/01/15 01:10:00.000   46.877100137    7.465060540   956.0760   6  22   0.0458   0.0537   0.0691  -0.0207   0.0130  -0.0282   0.00    0.0
2026/01/15 01:10:30.000   46.877100095    7.465060398   956.0820   6  21   0.0454   0.0534   0.0686  -0.0205   0.0129  -0.0280   0.00    0.0
2026/01/15 01:11:00.000   46.877100056    7.465060262   956.0876   6  21   0.0451   0.0532   0.0680  -0.0204   0.0127  -0.0278   0.00    0.0
2026/01/15 01:11:30.000   46.877100022    7.465060134   956.0923   6  21   0.0448   0.0530   0.0675  -0.0203   0.0126  -0.0276   0.00    0.0
2026/01/15 01:12:00.000   46.877099990    7.465060020   956.0963   6  21   0.0445   0.0527   0.0670  -0.0202   0.0125  -0.0275   0.00    0.0
2026/01/15 01:12:30.000   46.877099957    7.465059917   956.1004   6  22   0.0442   0.0525   0.0666  -0.0201   0.0124  -0.0273   0.00    0.0
2026/01/15 01:13:00.000   46.877099922    7.465059806   956.1049   6  22   0.0439   0.0523   0.0661  -0.0199   0.0123  -0.0271   0.00    0.0
2026/01/15 01:13:30.000   46.877099887    7.465059688   956.1096   6  22   0.0436   0.0520   0.0656  -0.0198   0.0121  -0.0269   0.00    0.0
2026/01/15 01:14:00.000   46.877099845    7.465059558   956.1142   6  23   0.0433   0.0518   0.0651  -0.0197   0.0120  -0.0267   0.00    0.0
2026/01/15 01:14:30.000   46.877099799    7.465059438   956.1186   6  23   0.0429   0.0516   0.0646  -0.0196   0.0119  -0.0265   0.00    0.0
2026/01/15 01:15:00.000   46.877099754    7.465059323   956.1231   6  23   0.0426   0.0513   0.0641  -0.0195   0.0118  -0.0264   0.00    0.0
2026/01/15 01:15:30.000   46.877099711    7.465059198   956.1276   6  23   0.0423   0.0511   0.0636  -0.0193   0.0116  -0.0262   0.00    0.0
2026/01/15 01:16:00.000   46.877099669    7.465059067   956.1320   6  23   0.0420   0.0509   0.0631  -0.0192   0.0115  -0.0260   0.00    0.0
2026/01/15 01:16:30.000   46.877099630    7.465058938   956.1363   6  24   0.0417   0.0506   0.0626  -0.0191   0.0114  -0.0258   0.00    0.0
2026/01/15 01:17:00.000   46.877099594    7.465058824   956.1399   6  24   0.0414   0.0504   0.0622  -0.0190   0.0113  -0.0256   0.00    0.0
2026/01/15 01:17:30.000   46.877099562    7.465058731   956.1437   6  23   0.0412   0.0502   0.0618  -0.0189   0.0112  -0.0255   0.00    0.0
2026/01/15 01:18:00.000   46.877099531    7.465058634   956.1473   6  23   0.0409   0.0500   0.0614  -0.0188   0.0111  -0.0253   0.00    0.0
2026/01/15 01:18:30.000   46.877099500    7.465058535   956.1513   6  23   0.0406   0.0498   0.0610  -0.0187   0.0110  -0.0251   0.00    0.0
2026/01/15 01:19:00.000   46.877099469    7.465058421   956.1552   6  23   0.0404   0.0496   0.0605  -0.0186   0.0109  -0.0249   0.00    0.0
2026/01/15 01:19:30.000   46.877099437    7.465058299   956.1590   6  23   0.0401   0.0494   0.0601  -0.0185   0.0108  -0.0247   0.00    0.0
2026/01/15 01:20:00.000   46.877099405    7.465058178   956.1629   6  23   0.0398   0.0491   0.0596  -0.0184   0.0107  -0.0245   0.00    0.0
2026/01/15 01:20:30.000   46.877099376    7.465058060   956.1667   6  23   0.0395   0.0489   0.0592  -0.0183   0.0106  -0.0243   0.00    0.0
2026/01/15 01:21:00.000   46.877099350    7.465057935   956.1699   6  23   0.0392   0.0487   0.0588  -0.0182   0.0106  -0.0241   0.00    0.0
2026/01/15 01:21:30.000   46.877099324    7.465057814   956.1731   6  23   0.0390   0.0485   0.0584  -0.0181   0.0105  -0.0239   0.00    0.0
2026/01/15 01:22:00.000   46.877099296    7.465057705   956.1760   6  23   0.0387   0.0483   0.0580  -0.0180   0.0104  -0.0238   0.00    0.0
2026/01/15 01:22:30.000   46.877099272    7.465057607   956.1784   6  23   0.0385   0.0481   0.0577  -0.0179   0.0103  -0.0236   0.00    0.0
2026/01/15 01:23:00.000   46.877099247    7.465057508   956.1809   6  23   0.0383   0.0479   0.0573  -0.0178   0.0102  -0.0235   0.00    0.0
2026/01/15 01:23:30.000   46.877099221    7.465057395   956.1838   6  23   0.0380   0.0477   0.0569  -0.0177   0.0101  -0.0233   0.00    0.0
2026/01/15 01:24:00.000   46.877099194    7.465057277   956.1873   6  23   0.0378   0.0475   0.0565  -0.0176   0.0101  -0.0231   0.00    0.0
2026/01/15 01:24:30.000   46.877099153    7.465057185   956.1930   6  22   0.0376   0.0474   0.0562  -0.0176   0.0101  -0.0230   0.00    0.0
2026/01/15 01:25:00.000   46.877099112    7.465057098   956.1982   6  22   0.0373   0.0472   0.0558  -0.0176   0.0102  -0.0229   0.00    0.0
2026/01/15 01:25:30.000   46.877099072    7.465056998   956.2027   6  22   0.0371   0.0470   0.0554  -0.0175   0.0103  -0.0228   0.00    0.0
2026/01/15 01:26:00.000   46.877099036    7.465056901   956.2070   6  22   0.0369   0.0469   0.0551  -0.0175   0.0103  -0.0227   0.00    0.0
2026/01/15 01:26:30.000   46.877099006    7.465056816   956.2111   6  22   0.0367   0.0467   0.0547  -0.0175   0.0104  -0.0226   0.00    0.0
2026/01/15 01:27:00.000   46.877098976    7.465056744   956.2151   6  22   0.0365   0.0466   0.0544  -0.0175   0.0104  -0.0225   0.00    0.0
2026/01/15 01:27:30.000   46.877098946    7.465056671   956.2188   6  22   0.0363   0.0464   0.0541  -0.0175   0.0105  -0.0224   0.00    0.0
2026/01/15 01:28:00.000   46.877098915    7.465056589   956.2225   6  22   0.0361   0.0463   0.0538  -0.0174   0.0105  -0.0223   0.00    0.0
2026/01/15 01:28:30.000   46.877098882    7.465056502   956.2261   6  22   0.0359   0.0461   0.0535  -0.0174   0.0106  -0.0222   0.00    0.0
2026/01/15 01:29:00.000   46.877098849    7.465056417   956.2296   6  22   0.0357   0.0460   0.0532  -0.0174   0.0106  -0.0221   0.00    0.0
2026/01/15 01:29:30.000   46.877098810    7.465056336   956.2332   6  22   0.0355   0.0458   0.0528  -0.0174   0.0107  -0.0220   0.00    0.0
2026/01/15 01:30:00.000   46.877098768    7.465056261   956.2367   6  22   0.0353   0.0457   0.0525  -0.0174   0.0107  -0.0219   0.00    0.0
2026/01/15 01:30:30.000   46.877098730    7.465056194   956.2401   6  22   0.0351   0.0455   0.0521  -0.0173   0.0108  -0.0218   0.00    0.0
2026/01/15 01:31:00.000   46.877098694    7.465056135   956.2431   6  22   0.0349   0.0454   0.0518  -0.0173   0.0108  -0.0217   0.00    0.0
2026/01/15 01:31:30.000   46.877098658    7.465056078   956.2458   6  22   0.0347   0.0452   0.0515  -0.0173   0.0108  -0.0216   0.00    0.0
2026/01/15 01:32:00.000   46.877098624    7.465056008   956.2484   6  22   0.0346   0.0451   0.0512  -0.0173   0.0109  -0.0215   0.00    0.0
2026/01/15 01:32:30.000   46.877098594    7.465055944   956.2508   6  22   0.0344   0.0449   0.0509  -0.0173   0.0109  -0.0214   0.00    0.0
2026/01/15 01:33:00.000   46.877098566    7.465055882   956.2546   6  21   0.0342   0.0448   0.0507  -0.0172   0.0110  -0.0213   0.00    0.0
2026/01/15 01:33:30.000   46.877098535    7.465055814   956.2585   6  22   0.0340   0.0447   0.0504  -0.0172   0.0111  -0.0212   0.00    0.0
2026/01/15 01:34:00.000   46.877098502    7.465055736   956.2626   6  22   0.0339   0.0445   0.0501  -0.0172   0.0111  -0.0211   0.00    0.0
2026/01/15 01:34:30.000   46.877098468    7.465055653   956.2665   6  22   0.0337   0.0444   0.0498  -0.0172   0.0112  -0.0210   0.00    0.0
2026/01/15 01:35:00.000   46.877098434    7.465055567   956.2705   6  22   0.0335   0.0442   0.0495  -0.0171   0.0113  -0.0208   0.00    0.0
2026/01/15 01:35:30.000   46.877098400    7.465055485   956.2742   6  22   0.0333   0.0441   0.0493  -0.0171   0.0113  -0.0207   0.00    0.0
2026/01/15 01:36:00.000   46.877098366    7.465055412   956.2780   6  22   0.0331   0.0440   0.0490  -0.0171   0.0114  -0.0206   0.00    0.0
2026/01/15 01:36:30.000   46.877098334    7.465055340   956.2814   6  21   0.0330   0.0438   0.0487  -0.0170   0.0115  -0.0205   0.00    0.0
2026/01/15 01:37:00.000   46.877098307    7.465055272   956.2845   6  21   0.0328   0.0437   0.0485  -0.0170   0.0115  -0.0205   0.00    0.0
2026/01/15 01:37:30.000   46.877098282    7.465055217   956.2875   6  21   0.0327   0.0436   0.0483  -0.0170   0.0116  -0.0204   0.00    0.0
2026/01/15 01:38:00.000   46.877098252    7.465055161   956.2906   6  21   0.0325   0.0434   0.0481  -0.0170   0.0116  -0.0203   0.00    0.0
2026/01/15 01:38:30.000   46.877098225    7.465055088   956.2933   6  21   0.0323   0.0433   0.0479  -0.0169   0.0117  -0.0202   0.00    0.0
2026/01/15 01:39:00.000   46.877098197    7.465055015   956.2960   6  21   0.0322   0.0432   0.0477  -0.0169   0.0117  -0.0201   0.00    0.0
2026/01/15 01:39:30.000   46.877098168    7.465054948   956.2988   6  21   0.0320   0.0430   0.0474  -0.0169   0.0118  -0.0200   0.00    0.0
2026/01/15 01:40:00.000   46.877098136    7.465054883   956.3014   6  21   0.0318   0.0429   0.0472  -0.0169   0.0118  -0.0200   0.00    0.0
2026/01/15 01:40:30.000   46.877098103    7.465054825   956.3039   6  21   0.0317   0.0428   0.0469  -0.0168   0.0119  -0.0199   0.00    0.0
2026/01/15 01:41:00.000   46.877098074    7.465054760   956.3059   6  22   0.0315   0.0426   0.0467  -0.0168   0.0119  -0.0198   0.00    0.0
2026/01/15 01:41:30.000   46.877098047    7.465054698   956.3079   6  22   0.0313   0.0425   0.0465  -0.0168   0.0120  -0.0197   0.00    0.0
2026/01/15 01:42:00.000   46.877098024    7.465054632   956.3101   6  22   0.0312   0.0424   0.0463  -0.0167   0.0120  -0.0196   0.00    0.0
2026/01/15 01:42:30.000   46.877098002    7.465054571   956.3121   6  22   0.0311   0.0423   0.0461  -0.0167   0.0120  -0.0196   0.00    0.0
2026/01/15 01:43:00.000   46.877097984    7.465054514   956.3148   6  22   0.0309   0.0421   0.0459  -0.0167   0.0121  -0.0195   0.00    0.0
2026/01/15 01:43:30.000   46.877097965    7.465054459   956.3178   6  22   0.0308   0.0420   0.0457  -0.0166   0.0121  -0.0194   0.00    0.0
2026/01/15 01:44:00.000   46.877097945    7.465054388   956.3208   6  21   0.0306   0.0419   0.0455  -0.0166   0.0122  -0.0193   0.00    0.0
2026/01/15 01:44:30.000   46.877097924    7.465054312   956.3242   6  21   0.0305   0.0418   0.0453  -0.0166   0.0123  -0.0192   0.00    0.0
2026/01/15 01:45:00.000   46.877097905    7.465054233   956.3274   6  21   0.0303   0.0417   0.0451  -0.0165   0.0123  -0.0191   0.00    0.0
2026/01/15 01:45:30.000   46.877097887    7.465054153   956.3305   6  21   0.0302   0.0415   0.0449  -0.0165   0.0124  -0.0190   0.00    0.0
2026/01/15 01:46:00.000   46.877097870    7.465054068   956.3333   6  21   0.0300   0.0414   0.0447  -0.0164   0.0125  -0.0189   0.00    0.0
2026/01/15 01:46:30.000   46.877097854    7.465053992   956.3362   6  21   0.0299   0.0413   0.0445  -0.0164   0.0125  -0.0188   0.00    0.0
2026/01/15 01:47:00.000   46.877097836    7.465053925   956.3389   6  21   0.0298   0.0412   0.0443  -0.0164   0.0126  -0.0187   0.00    0.0
2026/01/15 01:47:30.000   46.877097817    7.465053863   956.3415   6  21   0.0296   0.0411   0.0441  -0.0163   0.0126  -0.0186   0.00    0.0
2026/01/15 01:48:00.000   46.877097796    7.465053800   956.3444   6  21   0.0295   0.0410   0.0439  -0.0163   0.0127  -0.0185   0.00    0.0
2026/01/15 01:48:30.000   46.877097772    7.465053731   956.3475   6  21   0.0294   0.0408   0.0437  -0.0163   0.0127  -0.0184   0.00    0.0
2026/01/15 01:49:00.000   46.877097749    7.465053655   956.3504   6  21   0.0292   0.0407   0.0435  -0.0162   0.0128  -0.0184   0.00    0.0
2026/01/15 01:49:30.000   46.877097726    7.465053579   956.3529   6  21   0.0291   0.0406   0.0433  -0.0162   0.0128  -0.0183   0.00    0.0
2026/01/15 01:50:00.000   46.877097704    7.465053503   956.3554   6  21   0.0289   0.0405   0.0431  -0.0162   0.0129  -0.0182   0.00    0.0
2026/01/15 01:50:30.000   46.877097680    7.465053430   956.3579   6  21   0.0288   0.0404   0.0429  -0.0161   0.0129  -0.0181   0.00    0.0
2026/01/15 01:51:00.000   46.877097660    7.465053353   956.3599   6  21   0.0287   0.0403   0.0427  -0.0161   0.0129  -0.0180   0.00    0.0
2026/01/15 01:51:30.000   46.877097641    7.465053281   956.3623   6  20   0.0285   0.0401   0.0426  -0.0161   0.0130  -0.0179   0.00    0.0
2026/01/15 01:52:00.000   46.877097626    7.465053209   956.3645   6  20   0.0284   0.0400   0.0424  -0.0160   0.0130  -0.0178   0.00    0.0
2026/01/15 01:52:30.000   46.877097614    7.465053141   956.3663   6  20   0.0283   0.0399   0.0423  -0.0160   0.0131  -0.0177   0.00    0.0
2026/01/15 01:53:00.000   46.877097601    7.465053078   956.3682   6  19   0.0282   0.0398   0.0422  -0.0160   0.0131  -0.0176   0.00    0.0
2026/01/15 01:53:30.000   46.877097587    7.465053014   956.3702   6  19   0.0281   0.0397   0.0420  -0.0159   0.0131  -0.0176   0.00    0.0
2026/01/15 01:54:00.000   46.877097571    7.465052947   956.3725   6  19   0.0279   0.0396   0.0419  -0.0159   0.0132  -0.0175   0.00    0.0
2026/01/15 01:54:30.000   46.877097554    7.465052872   956.3748   6  19   0.0278   0.0395   0.0417  -0.0159   0.0132  -0.0174   0.00    0.0
2026/01/15 01:55:00.000   46.877097535    7.465052806   956.3772   6  19   0.0277   0.0394   0.0415  -0.0158   0.0133  -0.0173   0.00    0.0
2026/01/15 01:55:30.000   46.877097514    7.465052748   956.3798   6  19   0.0275   0.0393   0.0414  -0.0158   0.0133  -0.0172   0.00    0.0
2026/01/15 01:56:00.000   46.877097495    7.465052691   956.3820   6  19   0.0274   0.0391   0.0412  -0.0158   0.0133  -0.0171   0.00    0.0
2026/01/15 01:56:30.000   46.877097479    7.465052631   956.3839   6  19   0.0273   0.0390   0.0411  -0.0157   0.0134  -0.0170   0.00    0.0
2026/01/15 01:57:00.000   46.877097466    7.465052573   956.3854   6  19   0.0272   0.0389   0.0409  -0.0157   0.0134  -0.0170   0.00    0.0
2026/01/15 01:57:30.000   46.877097457    7.465052511   956.3866   6  19   0.0271   0.0388   0.0408  -0.0157   0.0134  -0.0169   0.00    0.0
2026/01/15 01:58:00.000   46.877097445    7.465052444   956.3880   6  19   0.0270   0.0387   0.0407  -0.0156   0.0135  -0.0168   0.00    0.0
2026/01/15 01:58:30.000   46.877097433    7.465052365   956.3898   6  19   0.0269   0.0386   0.0405  -0.0156   0.0135  -0.0167   0.00    0.0
2026/01/15 01:59:00.000   46.877097421    7.465052280   956.3917   6  20   0.0267   0.0385   0.0404  -0.0156   0.0135  -0.0167   0.00    0.0
2026/01/15 01:59:30.000   46.877097408    7.465052198   956.3937   6  20   0.0266   0.0384   0.0402  -0.0156   0.0135  -0.0166   0.00    0.0
2026/01/15 02:00:00.000   46.877097394    7.465052126   956.3959   6  20   0.0265   0.0383   0.0400  -0.0155   0.0136  -0.0165   0.00    0.0
