% program   : RTKPOST ver.demo5 b34d
% inp file  : E:\Master courses\SNDP-PROJECT\Old_data\data\ZIM200CHE_R_20260150000_01D_30S_MO.rnx
% inp file  : E:\Master courses\SNDP-PROJECT\New_Data\nav\BRDC00IGS_R_20260150000_01D_MN.rnx
% inp file  : E:\Master courses\SNDP-PROJECT\New_Data\DATA_FINAL_ANT_EXTRA\COD0MGXFIN_20260150000_01D_05M_ORB.SP3
% inp file  : E:\Master courses\SNDP-PROJECT\New_Data\DATA_FINAL_ANT_EXTRA\COD0MGXFIN_20260150000_01D_30S_CLK.CLK
% obs start : 2026/01/15 00:00:00.0 GPST (week2401 345600.0s)
% obs end   : 2026/01/15 23:59:30.0 GPST (week2401 431970.0s)
% pos mode  : PPP Static
% solution  : Forward
% elev mask : 15.0 deg
% dynamics  : off
% tidecorr  : off
% tropo opt : Saastamoinen
% ephemeris : Precise
% navi sys  : GPS Galileo
% antenna1  : TRM59800.00     NONE  ( 0.0000  0.0000  0.0000)
%
% (lat/lon/height=WGS84/ellipsoidal,Q=1:fix,2:float,3:sbas,4:dgps,5:single,6:ppp,ns=# of satellites)
%  GPST                  latitude(deg) longitude(deg)  height(m)   Q  ns   sdn(m)   sde(m)   sdu(m)  sdne(m)  sdeu(m)  sdun(m) age(s)  ratio
2026/01/15 00:00:00.000   46.877098914    7.465046782   957.2832   6  17   1.0981   0.9226   2.1702  -0.1782   0.2960  -0.4570   0.00    0.0
2026/01/15 00:00:30.000   46.877099413    7.465045268   957.1738   6  18   0.7562   0.6303   1.4813   0.1145  -0.1571  -0.1831   0.00    0.0
2026/01/15 00:01:00.000   46.877098304    7.465044500   957.3427   6  18   0.6130   0.5100   1.1978   0.1151  -0.1679  -0.1027   0.00    0.0
2026/01/15 00:01:30.000   46.877098114    7.465043882   957.4321   6  18   0.5290   0.4398   1.0323   0.1062  -0.1590  -0.0632   0.00    0.0
2026/01/15 00:02:00.000   46.877098043    7.465043716   957.4915   6  18   0.4721   0.3925   0.9204   0.0976  -0.1490  -0.0389   0.00    0.0
2026/01/15 00:02:30.000   46.877097817    7.465043458   957.5467   6  18   0.4302   0.3578   0.8382   0.0902  -0.1400  -0.0211   0.00    0.0
2026/01/15 00:03:00.000   46.877097278    7.465043401   957.6041   6  18   0.3976   0.3308   0.7739   0.0839  -0.1323  -0.0049   0.00    0.0
2026/01/15 00:03:30.000   46.877096851    7.465043453   957.6347   6  18   0.3712   0.3091   0.7217   0.0784  -0.1256   0.0093   0.00    0.0
2026/01/15 00:04:00.000   46.877096685    7.465043525   957.6570   6  18   0.3493   0.2911   0.6783   0.0736  -0.1198   0.0067   0.00    0.0
2026/01/15 00:04:30.000   46.877096549    7.465043678   957.6426   6  17   0.3312   0.2763   0.6438   0.0675  -0.1180   0.0316   0.00    0.0
2026/01/15 00:05:00.000   46.877096539    7.465043797   957.6134   6  17   0.3156   0.2635   0.6138   0.0622  -0.1158   0.0393   0.00    0.0
2026/01/15 00:05:30.000   46.877096579    7.465043936   957.5887   6  17   0.3019   0.2523   0.5872   0.0577  -0.1134   0.0429   0.00    0.0
2026/01/15 00:06:00.000   46.877096657    7.465044027   957.5698   6  17   0.2897   0.2424   0.5636   0.0538  -0.1110   0.0444   0.00    0.0
2026/01/15 00:06:30.000   46.877096648    7.465044063   957.5602   6  17   0.2789   0.2336   0.5424   0.0503  -0.1086   0.0448   0.00    0.0
2026/01/15 00:07:00.000   46.877096494    7.465044031   957.5627   6  17   0.2691   0.2257   0.5232   0.0472  -0.1062   0.0444   0.00    0.0
2026/01/15 00:07:30.000   46.877096383    7.465044027   957.5798   6  17   0.2603   0.2185   0.5058   0.0445  -0.1039   0.0437   0.00    0.0
2026/01/15 00:08:00.000   46.877096352    7.465044034   957.5770   6  17   0.2521   0.2120   0.4895   0.0420  -0.1017   0.0420   0.00    0.0
2026/01/15 00:08:30.000   46.877096355    7.465043937   957.5648   6  17   0.2445   0.2060   0.4742   0.0397  -0.0995   0.0395   0.00    0.0
2026/01/15 00:09:00.000   46.877096337    7.465043759   957.5619   6  17   0.2374   0.2004   0.4597   0.0377  -0.0973   0.0365   0.00    0.0
2026/01/15 00:09:30.000   46.877096300    7.465043577   957.5625   6  16   0.2311   0.1954   0.4471   0.0371  -0.0963   0.0267   0.00    0.0
2026/01/15 00:10:00.000   46.877096248    7.465043533   957.5607   6  16   0.2253   0.1908   0.4351   0.0366  -0.0952   0.0128   0.00    0.0
2026/01/15 00:10:30.000   46.877096339    7.465043420   957.5526   6  16   0.2198   0.1865   0.4239   0.0360  -0.0940  -0.0178   0.00    0.0
2026/01/15 00:11:00.000   46.877096459    7.465043312   957.5509   6  16   0.2147   0.1824   0.4133   0.0354  -0.0927  -0.0271   0.00    0.0
2026/01/15 00:11:30.000   46.877096553    7.465043123   957.5385   6  16   0.2098   0.1786   0.4033   0.0347  -0.0915  -0.0331   0.00    0.0
2026/01/15 00:12:00.000   46.877096545    7.465042965   957.5268   6  16   0.2053   0.1751   0.3940   0.0341  -0.0902  -0.0373   0.00    0.0
2026/01/15 00:12:30.000   46.877096555    7.465042857   957.5169   6  16   0.2010   0.1717   0.3853   0.0334  -0.0890  -0.0406   0.00    0.0
2026/01/15 00:13:00.000   46.877096505    7.465042838   957.5084   6  16   0.1969   0.1685   0.3767   0.0328  -0.0877  -0.0436   0.00    0.0
2026/01/15 00:13:30.000   46.877096490    7.465042825   957.4952   6  16   0.1929   0.1655   0.3683   0.0321  -0.0864  -0.0464   0.00    0.0
2026/01/15 00:14:00.000   46.877096444    7.465042813   957.4790   6  16   0.1891   0.1626   0.3600   0.0315  -0.0850  -0.0490   0.00    0.0
2026/01/15 00:14:30.000   46.877096373    7.465042835   957.4714   6  16   0.1853   0.1598   0.3520   0.0309  -0.0836  -0.0512   0.00    0.0
2026/01/15 00:15:00.000   46.877096283    7.465042865   957.4647   6  16   0.1818   0.1571   0.3443   0.0303  -0.0823  -0.0532   0.00    0.0
2026/01/15 00:15:30.000   46.877096215    7.465042909   957.4524   6  15   0.1784   0.1547   0.3377   0.0294  -0.0813  -0.0536   0.00    0.0
2026/01/15 00:16:00.000   46.877096124    7.465042961   957.4460   6  15   0.1753   0.1523   0.3313   0.0285  -0.0804  -0.0540   0.00    0.0
2026/01/15 00:16:30.000   46.877096063    7.465042919   957.4379   6  15   0.1722   0.1500   0.3253   0.0276  -0.0794  -0.0543   0.00    0.0
2026/01/15 00:17:00.000   46.877096004    7.465042862   957.4303   6  15   0.1694   0.1479   0.3196   0.0268  -0.0785  -0.0545   0.00    0.0
2026/01/15 00:17:30.000   46.877095971    7.465042838   957.4220   6  15   0.1667   0.1458   0.3142   0.0260  -0.0776  -0.0545   0.00    0.0
2026/01/15 00:18:00.000   46.877095961    7.465042852   957.4106   6  15   0.1640   0.1438   0.3087   0.0253  -0.0766  -0.0548   0.00    0.0
2026/01/15 00:18:30.000   46.877095964    7.465042834   957.3974   6  15   0.1613   0.1419   0.3032   0.0246  -0.0756  -0.0551   0.00    0.0
2026/01/15 00:19:00.000   46.877095936    7.465042812   957.3833   6  15   0.1587   0.1400   0.2977   0.0239  -0.0745  -0.0555   0.00    0.0
2026/01/15 00:19:30.000   46.877095896    7.465042790   957.3642   6  15   0.1561   0.1382   0.2922   0.0232  -0.0734  -0.0560   0.00    0.0
2026/01/15 00:20:00.000   46.877095926    7.465042688   957.3418   6  15   0.1536   0.1364   0.2869   0.0226  -0.0723  -0.0564   0.00    0.0
2026/01/15 00:20:30.000   46.877095921    7.465042656   957.3238   6  15   0.1512   0.1347   0.2817   0.0220  -0.0712  -0.0567   0.00    0.0
2026/01/15 00:21:00.000   46.877095943    7.465042652   957.3052   6  15   0.1489   0.1330   0.2767   0.0214  -0.0702  -0.0569   0.00    0.0
2026/01/15 00:21:30.000   46.877095927    7.465042674   957.2892   6  15   0.1467   0.1315   0.2721   0.0208  -0.0691  -0.0571   0.00    0.0
2026/01/15 00:22:00.000   46.877095896    7.465042698   957.2809   6  15   0.1446   0.1299   0.2676   0.0202  -0.0682  -0.0572   0.00    0.0
2026/01/15 00:22:30.000   46.877095830    7.465042736   957.2801   6  15   0.1426   0.1285   0.2635   0.0196  -0.0672  -0.0572   0.00    0.0
2026/01/15 00:23:00.000   46.877095827    7.465042711   957.2752   6  15   0.1406   0.1270   0.2592   0.0191  -0.0663  -0.0573   0.00    0.0
2026/01/15 00:23:30.000   46.877095797    7.465042736   957.2714   6  15   0.1386   0.1256   0.2549   0.0186  -0.0653  -0.0574   0.00    0.0
2026/01/15 00:24:00.000   46.877095783    7.465042774   957.2656   6  15   0.1366   0.1242   0.2505   0.0181  -0.0642  -0.0575   0.00    0.0
2026/01/15 00:24:30.000   46.877095771    7.465042784   957.2586   6  15   0.1346   0.1229   0.2462   0.0176  -0.0632  -0.0577   0.00    0.0
2026/01/15 00:25:00.000   46.877095747    7.465042824   957.2543   6  15   0.1327   0.1216   0.2419   0.0171  -0.0622  -0.0578   0.00    0.0
2026/01/15 00:25:30.000   46.877095757    7.465042836   957.2429   6  15   0.1308   0.1203   0.2378   0.0166  -0.0612  -0.0578   0.00    0.0
2026/01/15 00:26:00.000   46.877095754    7.465042835   957.2279   6  15   0.1290   0.1191   0.2339   0.0162  -0.0602  -0.0578   0.00    0.0
2026/01/15 00:26:30.000   46.877095739    7.465042858   957.2138   6  15   0.1273   0.1179   0.2302   0.0157  -0.0593  -0.0578   0.00    0.0
2026/01/15 00:27:00.000   46.877095745    7.465042869   957.1996   6  15   0.1256   0.1167   0.2267   0.0152  -0.0584  -0.0577   0.00    0.0
2026/01/15 00:27:30.000   46.877095750    7.465042889   957.1928   6  15   0.1241   0.1156   0.2234   0.0147  -0.0576  -0.0575   0.00    0.0
2026/01/15 00:28:00.000   46.877095711    7.465042928   957.1918   6  15   0.1225   0.1145   0.2201   0.0143  -0.0568  -0.0574   0.00    0.0
2026/01/15 00:28:30.000   46.877095703    7.465042902   957.1847   6  15   0.1210   0.1134   0.2166   0.0138  -0.0559  -0.0573   0.00    0.0
2026/01/15 00:29:00.000   46.877095702    7.465042921   957.1728   6  15   0.1194   0.1124   0.2131   0.0134  -0.0550  -0.0572   0.00    0.0
2026/01/15 00:29:30.000   46.877095718    7.465042961   957.1616   6  15   0.1178   0.1113   0.2097   0.0130  -0.0541  -0.0571   0.00    0.0
2026/01/15 00:30:00.000   46.877095762    7.465042924   957.1500   6  15   0.1162   0.1103   0.2063   0.0126  -0.0533  -0.0570   0.00    0.0
2026/01/15 00:30:30.000   46.877095759    7.465042917   957.1455   6  15   0.1147   0.1093   0.2030   0.0122  -0.0524  -0.0568   0.00    0.0
2026/01/15 00:31:00.000   46.877095755    7.465042906   957.1410   6  15   0.1133   0.1083   0.1998   0.0118  -0.0516  -0.0567   0.00    0.0
2026/01/15 00:31:30.000   46.877095762    7.465042899   957.1332   6  15   0.1119   0.1074   0.1969   0.0114  -0.0508  -0.0565   0.00    0.0
2026/01/15 00:32:00.000   46.877095757    7.465042930   957.1257   6  15   0.1106   0.1065   0.1941   0.0109  -0.0501  -0.0562   0.00    0.0
2026/01/15 00:32:30.000   46.877095743    7.465042944   957.1167   6  15   0.1094   0.1056   0.1915   0.0105  -0.0494  -0.0560   0.00    0.0
2026/01/15 00:33:00.000   46.877095746    7.465042945   957.1067   6  15   0.1081   0.1047   0.1888   0.0101  -0.0487  -0.0557   0.00    0.0
2026/01/15 00:33:30.000   46.877095708    7.465042999   957.0971   6  15   0.1068   0.1039   0.1861   0.0096  -0.0480  -0.0555   0.00    0.0
2026/01/15 00:34:00.000   46.877095706    7.465043002   957.0828   6  15   0.1055   0.1030   0.1833   0.0092  -0.0473  -0.0553   0.00    0.0
2026/01/15 00:34:30.000   46.877095705    7.465043029   957.0696   6  15   0.1042   0.1022   0.1805   0.0088  -0.0465  -0.0550   0.00    0.0
2026/01/15 00:35:00.000   46.877095700    7.465043066   957.0594   6  15   0.1030   0.1013   0.1777   0.0085  -0.0458  -0.0548   0.00    0.0
2026/01/15 00:35:30.000   46.877095724    7.465043066   957.0477   6  15   0.1017   0.1005   0.1751   0.0081  -0.0451  -0.0545   0.00    0.0
2026/01/15 00:36:00.000   46.877095740    7.465043072   957.0381   6  15   0.1005   0.0997   0.1725   0.0076  -0.0445  -0.0542   0.00    0.0
2026/01/15 00:36:30.000   46.877095759    7.465043055   957.0304   6  15   0.0994   0.0990   0.1701   0.0072  -0.0438  -0.0539   0.00    0.0
2026/01/15 00:37:00.000   46.877095776    7.465043027   957.0256   6  15   0.0983   0.0982   0.1679   0.0067  -0.0432  -0.0536   0.00    0.0
2026/01/15 00:37:30.000   46.877095778    7.465043047   957.0229   6  15   0.0973   0.0975   0.1658   0.0062  -0.0427  -0.0533   0.00    0.0
2026/01/15 00:38:00.000   46.877095812    7.465043081   957.0149   6  15   0.0963   0.0968   0.1637   0.0057  -0.0421  -0.0530   0.00    0.0
2026/01/15 00:38:30.000   46.877095864    7.465043148   957.0015   6  15   0.0952   0.0961   0.1614   0.0052  -0.0415  -0.0527   0.00    0.0
2026/01/15 00:39:00.000   46.877095906    7.465043206   956.9859   6  15   0.0941   0.0954   0.1591   0.0047  -0.0409  -0.0524   0.00    0.0
2026/01/15 00:39:30.000   46.877095942    7.465043223   956.9748   6  15   0.0930   0.0947   0.1569   0.0041  -0.0403  -0.0521   0.00    0.0
2026/01/15 00:40:00.000   46.877095942    7.465043239   956.9708   6  15   0.0919   0.0940   0.1546   0.0035  -0.0398  -0.0517   0.00    0.0
2026/01/15 00:40:30.000   46.877095931    7.465043225   956.9677   6  15   0.0909   0.0933   0.1525   0.0028  -0.0392  -0.0514   0.00    0.0
2026/01/15 00:41:00.000   46.877095931    7.465043181   956.9636   6  15   0.0899   0.0927   0.1504   0.0019  -0.0387  -0.0511   0.00    0.0
2026/01/15 00:41:30.000   46.877095921    7.465043132   956.9596   6  15   0.0890   0.0920   0.1485  -0.0010  -0.0382  -0.0507   0.00    0.0
2026/01/15 00:42:00.000   46.877095915    7.465043071   956.9565   6  15   0.0881   0.0914   0.1466  -0.0023  -0.0377  -0.0504   0.00    0.0
2026/01/15 00:42:30.000   46.877095914    7.465043033   956.9537   6  15   0.0872   0.0908   0.1450  -0.0032  -0.0372  -0.0501   0.00    0.0
2026/01/15 00:43:00.000   46.877095925    7.465043020   956.9483   6  15   0.0863   0.0902   0.1432  -0.0038  -0.0368  -0.0497   0.00    0.0
2026/01/15 00:43:30.000   46.877095941    7.465043036   956.9401   6  15   0.0854   0.0896   0.1414  -0.0043  -0.0363  -0.0494   0.00    0.0
2026/01/15 00:44:00.000   46.877095955    7.465043074   956.9311   6  15   0.0845   0.0890   0.1395  -0.0046  -0.0358  -0.0491   0.00    0.0
2026/01/15 00:44:30.000   46.877095976    7.465043077   956.9219   6  15   0.0836   0.0884   0.1377  -0.0050  -0.0354  -0.0487   0.00    0.0
2026/01/15 00:45:00.000   46.877095998    7.465043064   956.9134   6  15   0.0827   0.0878   0.1358  -0.0053  -0.0349  -0.0483   0.00    0.0
2026/01/15 00:45:30.000   46.877096031    7.465043052   956.9067   6  15   0.0818   0.0872   0.1340  -0.0055  -0.0344  -0.0480   0.00    0.0
2026/01/15 00:46:00.000   46.877096048    7.465043041   956.9002   6  15   0.0810   0.0867   0.1323  -0.0058  -0.0340  -0.0476   0.00    0.0
2026/01/15 00:46:30.000   46.877096055    7.465043014   956.8952   6  15   0.0802   0.0861   0.1307  -0.0060  -0.0336  -0.0473   0.00    0.0
2026/01/15 00:47:00.000   46.877096060    7.465042970   956.8924   6  15   0.0794   0.0856   0.1292  -0.0063  -0.0332  -0.0470   0.00    0.0
2026/01/15 00:47:30.000   46.877096069    7.465042942   956.8903   6  15   0.0787   0.0851   0.1279  -0.0066  -0.0329  -0.0466   0.00    0.0
2026/01/15 00:48:00.000   46.877096085    7.465042930   956.8871   6  15   0.0779   0.0846   0.1264  -0.0068  -0.0325  -0.0463   0.00    0.0
2026/01/15 00:48:30.000   46.877096106    7.465042915   956.8826   6  15   0.0772   0.0841   0.1249  -0.0070  -0.0321  -0.0460   0.00    0.0
2026/01/15 00:49:00.000   46.877096138    7.465042894   956.8778   6  15   0.0764   0.0836   0.1234  -0.0071  -0.0317  -0.0456   0.00    0.0
2026/01/15 00:49:30.000   46.877096168    7.465042867   956.8730   6  15   0.0756   0.0831   0.1218  -0.0073  -0.0314  -0.0452   0.00    0.0
2026/01/15 00:50:00.000   46.877096187    7.465042858   956.8685   6  15   0.0748   0.0825   0.1203  -0.0074  -0.0310  -0.0449   0.00    0.0
2026/01/15 00:50:30.000   46.877096197    7.465042845   956.8644   6  15   0.0741   0.0821   0.1188  -0.0075  -0.0307  -0.0445   0.00    0.0
2026/01/15 00:51:00.000   46.877096207    7.465042838   956.8602   6  15   0.0733   0.0816   0.1174  -0.0077  -0.0303  -0.0442   0.00    0.0
2026/01/15 00:51:30.000   46.877096223    7.465042851   956.8556   6  15   0.0726   0.0811   0.1161  -0.0078  -0.0300  -0.0438   0.00    0.0
2026/01/15 00:52:00.000   46.877096237    7.465042874   956.8507   6  15   0.0720   0.0806   0.1148  -0.0079  -0.0297  -0.0435   0.00    0.0
2026/01/15 00:52:30.000   46.877096244    7.465042884   956.8463   6  15   0.0714   0.0802   0.1137  -0.0081  -0.0294  -0.0432   0.00    0.0
2026/01/15 00:53:00.000   46.877096258    7.465042884   956.8411   6  15   0.0708   0.0798   0.1125  -0.0082  -0.0291  -0.0429   0.00    0.0
2026/01/15 00:53:30.000   46.877096277    7.465042879   956.8351   6  15   0.0701   0.0793   0.1112  -0.0083  -0.0288  -0.0426   0.00    0.0
2026/01/15 00:54:00.000   46.877096297    7.465042867   956.8284   6  15   0.0694   0.0789   0.1100  -0.0084  -0.0285  -0.0422   0.00    0.0
2026/01/15 00:54:30.000   46.877096313    7.465042847   956.8219   6  15   0.0687   0.0784   0.1087  -0.0085  -0.0282  -0.0419   0.00    0.0
2026/01/15 00:55:00.000   46.877096322    7.465042818   956.8165   6  15   0.0681   0.0780   0.1074  -0.0085  -0.0279  -0.0415   0.00    0.0
2026/01/15 00:55:30.000   46.877096337    7.465042794   956.8114   6  15   0.0674   0.0775   0.1062  -0.0086  -0.0277  -0.0412   0.00    0.0
2026/01/15 00:56:00.000   46.877096355    7.465042783   956.8059   6  15   0.0668   0.0771   0.1050  -0.0087  -0.0274  -0.0408   0.00    0.0
2026/01/15 00:56:30.000   46.877096379    7.465042772   956.8005   6  15   0.0662   0.0767   0.1039  -0.0088  -0.0271  -0.0405   0.00    0.0
2026/01/15 00:57:00.000   46.877096401    7.465042773   956.7964   6  15   0.0656   0.0763   0.1028  -0.0088  -0.0269  -0.0402   0.00    0.0
2026/01/15 00:57:30.000   46.877096415    7.465042773   956.7937   6  15   0.0651   0.0759   0.1019  -0.0089  -0.0266  -0.0399   0.00    0.0
2026/01/15 00:58:00.000   46.877096425    7.465042771   956.7907   6  15   0.0646   0.0755   0.1008  -0.0090  -0.0264  -0.0396   0.00    0.0
2026/01/15 00:58:30.000   46.877096432    7.465042765   956.7871   6  15   0.0640   0.0751   0.0998  -0.0091  -0.0262  -0.0393   0.00    0.0
2026/01/15 00:59:00.000   46.877096450    7.465042770   956.7830   6  15   0.0634   0.0747   0.0987  -0.0091  -0.0259  -0.0390   0.00    0.0
2026/01/15 00:59:30.000   46.877096472    7.465042792   956.7777   6  15   0.0628   0.0744   0.0976  -0.0092  -0.0257  -0.0387   0.00    0.0
2026/01/15 01:00:00.000   46.877096489    7.465042797   956.7715   6  15   0.0622   0.0740   0.0966  -0.0092  -0.0255  -0.0383   0.00    0.0
2026/01/15 01:00:30.000   46.877096498    7.465042777   956.7654   6  15   0.0617   0.0736   0.0955  -0.0093  -0.0253  -0.0380   0.00    0.0
2026/01/15 01:01:00.000   46.877096503    7.465042734   956.7597   6  15   0.0611   0.0732   0.0945  -0.0093  -0.0250  -0.0377   0.00    0.0
2026/01/15 01:01:30.000   46.877096510    7.465042688   956.7546   6  15   0.0606   0.0728   0.0936  -0.0094  -0.0248  -0.0374   0.00    0.0
2026/01/15 01:02:00.000   46.877096522    7.465042658   956.7503   6  15   0.0601   0.0725   0.0927  -0.0094  -0.0246  -0.0371   0.00    0.0
2026/01/15 01:02:30.000   46.877096535    7.465042633   956.7467   6  15   0.0597   0.0721   0.0919  -0.0095  -0.0245  -0.0369   0.00    0.0
2026/01/15 01:03:00.000   46.877096549    7.465042607   956.7427   6  15   0.0592   0.0718   0.0910  -0.0095  -0.0243  -0.0366   0.00    0.0
2026/01/15 01:03:30.000   46.877096563    7.465042575   956.7392   6  15   0.0587   0.0715   0.0901  -0.0096  -0.0241  -0.0363   0.00    0.0
2026/01/15 01:04:00.000   46.877096574    7.465042553   956.7355   6  15   0.0582   0.0711   0.0892  -0.0096  -0.0239  -0.0360   0.00    0.0
2026/01/15 01:04:30.000   46.877096582    7.465042536   956.7310   6  15   0.0577   0.0707   0.0883  -0.0096  -0.0237  -0.0357   0.00    0.0
2026/01/15 01:05:00.000   46.877096591    7.465042529   956.7259   6  15   0.0572   0.0704   0.0874  -0.0097  -0.0235  -0.0354   0.00    0.0
2026/01/15 01:05:30.000   46.877096603    7.465042529   956.7209   6  15   0.0567   0.0701   0.0865  -0.0097  -0.0234  -0.0351   0.00    0.0
2026/01/15 01:06:00.000   46.877096612    7.465042520   956.7160   6  15   0.0562   0.0697   0.0856  -0.0097  -0.0232  -0.0348   0.00    0.0
2026/01/15 01:06:30.000   46.877096622    7.465042510   956.7112   6  15   0.0557   0.0694   0.0848  -0.0098  -0.0230  -0.0345   0.00    0.0
2026/01/15 01:07:00.000   46.877096631    7.465042495   956.7069   6  15   0.0553   0.0691   0.0841  -0.0098  -0.0229  -0.0343   0.00    0.0
2026/01/15 01:07:30.000   46.877096635    7.465042486   956.7039   6  15   0.0549   0.0688   0.0834  -0.0098  -0.0227  -0.0340   0.00    0.0
2026/01/15 01:08:00.000   46.877096638    7.465042476   956.7011   6  15   0.0545   0.0685   0.0827  -0.0099  -0.0226  -0.0338   0.00    0.0
2026/01/15 01:08:30.000   46.877096643    7.465042459   956.6976   6  15   0.0541   0.0682   0.0819  -0.0099  -0.0224  -0.0335   0.00    0.0
2026/01/15 01:09:00.000   46.877096649    7.465042437   956.6936   6  15   0.0536   0.0678   0.0811  -0.0099  -0.0223  -0.0332   0.00    0.0
2026/01/15 01:09:30.000   46.877096653    7.465042407   956.6890   6  15   0.0532   0.0675   0.0804  -0.0099  -0.0221  -0.0329   0.00    0.0
2026/01/15 01:10:00.000   46.877096655    7.465042371   956.6845   6  15   0.0527   0.0672   0.0796  -0.0100  -0.0220  -0.0327   0.00    0.0
2026/01/15 01:10:30.000   46.877096664    7.465042337   956.6821   6  14   0.0523   0.0669   0.0789  -0.0100  -0.0218  -0.0324   0.00    0.0
2026/01/15 01:11:00.000   46.877096676    7.465042309   956.6798   6  14   0.0519   0.0666   0.0782  -0.0100  -0.0216  -0.0321   0.00    0.0
2026/01/15 01:11:30.000   46.877096686    7.465042284   956.6771   6  14   0.0515   0.0663   0.0776  -0.0100  -0.0214  -0.0318   0.00    0.0
2026/01/15 01:12:00.000   46.877096694    7.465042263   956.6742   6  14   0.0511   0.0660   0.0770  -0.0101  -0.0213  -0.0315   0.00    0.0
2026/01/15 01:12:30.000   46.877096698    7.465042243   956.6723   6  15   0.0507   0.0658   0.0765  -0.0101  -0.0211  -0.0313   0.00    0.0
2026/01/15 01:13:00.000   46.877096703    7.465042208   956.6707   6  15   0.0504   0.0655   0.0759  -0.0101  -0.0210  -0.0310   0.00    0.0
2026/01/15 01:13:30.000   46.877096704    7.465042163   956.6694   6  15   0.0500   0.0652   0.0753  -0.0101  -0.0208  -0.0308   0.00    0.0
2026/01/15 01:14:00.000   46.877096703    7.465042115   956.6665   6  15   0.0496   0.0649   0.0747  -0.0101  -0.0207  -0.0305   0.00    0.0
2026/01/15 01:14:30.000   46.877096704    7.465042087   956.6628   6  15   0.0492   0.0646   0.0741  -0.0101  -0.0206  -0.0302   0.00    0.0
2026/01/15 01:15:00.000   46.877096708    7.465042066   956.6590   6  15   0.0488   0.0644   0.0734  -0.0100  -0.0204  -0.0299   0.00    0.0
2026/01/15 01:15:30.000   46.877096715    7.465042035   956.6551   6  15   0.0484   0.0641   0.0728  -0.0100  -0.0203  -0.0297   0.00    0.0
2026/01/15 01:16:00.000   46.877096720    7.465041996   956.6517   6  15   0.0480   0.0638   0.0722  -0.0100  -0.0201  -0.0294   0.00    0.0
2026/01/15 01:16:30.000   46.877096724    7.465041955   956.6490   6  16   0.0477   0.0635   0.0717  -0.0100  -0.0200  -0.0292   0.00    0.0
2026/01/15 01:17:00.000   46.877096730    7.465041919   956.6466   6  16   0.0474   0.0633   0.0712  -0.0100  -0.0199  -0.0289   0.00    0.0
2026/01/15 01:17:30.000   46.877096737    7.465041891   956.6447   6  15   0.0471   0.0630   0.0707  -0.0100  -0.0198  -0.0287   0.00    0.0
2026/01/15 01:18:00.000   46.877096747    7.465041867   956.6422   6  15   0.0467   0.0628   0.0702  -0.0100  -0.0196  -0.0284   0.00    0.0
2026/01/15 01:18:30.000   46.877096754    7.465041849   956.6399   6  15   0.0464   0.0625   0.0697  -0.0100  -0.0195  -0.0281   0.00    0.0
2026/01/15 01:19:00.000   46.877096762    7.465041813   956.6374   6  15   0.0461   0.0623   0.0692  -0.0099  -0.0193  -0.0279   0.00    0.0
2026/01/15 01:19:30.000   46.877096767    7.465041769   956.6350   6  15   0.0457   0.0620   0.0687  -0.0099  -0.0192  -0.0276   0.00    0.0
2026/01/15 01:20:00.000   46.877096773    7.465041726   956.6325   6  15   0.0454   0.0618   0.0682  -0.0099  -0.0191  -0.0273   0.00    0.0
2026/01/15 01:20:30.000   46.877096780    7.465041681   956.6301   6  15   0.0450   0.0615   0.0677  -0.0099  -0.0189  -0.0270   0.00    0.0
2026/01/15 01:21:00.000   46.877096793    7.465041627   956.6274   6  15   0.0447   0.0613   0.0672  -0.0098  -0.0188  -0.0267   0.00    0.0
2026/01/15 01:21:30.000   46.877096804    7.465041574   956.6250   6  15   0.0444   0.0610   0.0667  -0.0098  -0.0187  -0.0265   0.00    0.0
2026/01/15 01:22:00.000   46.877096812    7.465041536   956.6224   6  15   0.0441   0.0608   0.0663  -0.0098  -0.0185  -0.0263   0.00    0.0
2026/01/15 01:22:30.000   46.877096818    7.465041510   956.6195   6  15   0.0439   0.0606   0.0659  -0.0098  -0.0184  -0.0261   0.00    0.0
2026/01/15 01:23:00.000   46.877096828    7.465041493   956.6160   6  15   0.0436   0.0603   0.0655  -0.0098  -0.0183  -0.0258   0.00    0.0
2026/01/15 01:23:30.000   46.877096837    7.465041471   956.6126   6  15   0.0433   0.0601   0.0650  -0.0098  -0.0182  -0.0256   0.00    0.0
2026/01/15 01:24:00.000   46.877096847    7.465041447   956.6098   6  15   0.0430   0.0599   0.0645  -0.0098  -0.0181  -0.0253   0.00    0.0
2026/01/15 01:24:30.000   46.877096847    7.465041436   956.6086   6  14   0.0427   0.0597   0.0641  -0.0100  -0.0178  -0.0252   0.00    0.0
2026/01/15 01:25:00.000   46.877096844    7.465041431   956.6074   6  14   0.0424   0.0595   0.0637  -0.0102  -0.0176  -0.0250   0.00    0.0
2026/01/15 01:25:30.000   46.877096842    7.465041412   956.6058   6  14   0.0422   0.0593   0.0632  -0.0103  -0.0173  -0.0248   0.00    0.0
2026/01/15 01:26:00.000   46.877096842    7.465041397   956.6043   6  14   0.0419   0.0591   0.0628  -0.0105  -0.0171  -0.0247   0.00    0.0
2026/01/15 01:26:30.000   46.877096843    7.465041381   956.6030   6  14   0.0417   0.0590   0.0624  -0.0107  -0.0169  -0.0245   0.00    0.0
2026/01/15 01:27:00.000   46.877096840    7.465041368   956.6022   6  14   0.0415   0.0588   0.0621  -0.0108  -0.0166  -0.0244   0.00    0.0
2026/01/15 01:27:30.000   46.877096839    7.465041347   956.6014   6  14   0.0412   0.0586   0.0617  -0.0109  -0.0164  -0.0242   0.00    0.0
2026/01/15 01:28:00.000   46.877096837    7.465041331   956.6003   6  14   0.0410   0.0585   0.0614  -0.0111  -0.0162  -0.0241   0.00    0.0
2026/01/15 01:28:30.000   46.877096835    7.465041320   956.5989   6  14   0.0408   0.0583   0.0610  -0.0112  -0.0160  -0.0240   0.00    0.0
2026/01/15 01:29:00.000   46.877096833    7.465041308   956.5973   6  14   0.0405   0.0582   0.0606  -0.0114  -0.0158  -0.0238   0.00    0.0
2026/01/15 01:29:30.000   46.877096827    7.465041302   956.5956   6  14   0.0403   0.0580   0.0602  -0.0115  -0.0155  -0.0236   0.00    0.0
2026/01/15 01:30:00.000   46.877096820    7.465041306   956.5938   6  14   0.0400   0.0578   0.0598  -0.0117  -0.0153  -0.0235   0.00    0.0
2026/01/15 01:30:30.000   46.877096816    7.465041313   956.5921   6  14   0.0398   0.0577   0.0594  -0.0118  -0.0151  -0.0233   0.00    0.0
2026/01/15 01:31:00.000   46.877096810    7.465041319   956.5902   6  14   0.0396   0.0575   0.0590  -0.0119  -0.0149  -0.0232   0.00    0.0
2026/01/15 01:31:30.000   46.877096801    7.465041326   956.5885   6  14   0.0393   0.0573   0.0587  -0.0120  -0.0146  -0.0231   0.00    0.0
2026/01/15 01:32:00.000   46.877096794    7.465041316   956.5868   6  14   0.0391   0.0572   0.0583  -0.0122  -0.0144  -0.0229   0.00    0.0
2026/01/15 01:32:30.000   46.877096789    7.465041296   956.5851   6  14   0.0389   0.0570   0.0580  -0.0123  -0.0142  -0.0228   0.00    0.0
2026/01/15 01:33:00.000   46.877096788    7.465041276   956.5842   6  13   0.0387   0.0569   0.0577  -0.0123  -0.0140  -0.0226   0.00    0.0
2026/01/15 01:33:30.000   46.877096788    7.465041259   956.5833   6  13   0.0385   0.0568   0.0574  -0.0124  -0.0137  -0.0225   0.00    0.0
2026/01/15 01:34:00.000   46.877096786    7.465041248   956.5824   6  13   0.0383   0.0566   0.0571  -0.0125  -0.0134  -0.0223   0.00    0.0
2026/01/15 01:34:30.000   46.877096784    7.465041239   956.5813   6  13   0.0381   0.0565   0.0568  -0.0126  -0.0131  -0.0221   0.00    0.0
2026/01/15 01:35:00.000   46.877096783    7.465041222   956.5803   6  13   0.0379   0.0563   0.0564  -0.0127  -0.0129  -0.0220   0.00    0.0
2026/01/15 01:35:30.000   46.877096781    7.465041203   956.5794   6  13   0.0377   0.0562   0.0561  -0.0128  -0.0126  -0.0218   0.00    0.0
2026/01/15 01:36:00.000   46.877096776    7.465041190   956.5789   6  13   0.0374   0.0560   0.0558  -0.0129  -0.0123  -0.0217   0.00    0.0
2026/01/15 01:36:30.000   46.877096772    7.465041171   956.5789   6  12   0.0373   0.0559   0.0555  -0.0130  -0.0120  -0.0215   0.00    0.0
2026/01/15 01:37:00.000   46.877096770    7.465041148   956.5789   6  12   0.0371   0.0558   0.0553  -0.0130  -0.0118  -0.0214   0.00    0.0
2026/01/15 01:37:30.000   46.877096766    7.465041134   956.5792   6  12   0.0369   0.0556   0.0551  -0.0131  -0.0116  -0.0213   0.00    0.0
2026/01/15 01:38:00.000   46.877096759    7.465041126   956.5794   6  12   0.0367   0.0555   0.0548  -0.0131  -0.0113  -0.0212   0.00    0.0
2026/01/15 01:38:30.000   46.877096755    7.465041107   956.5792   6  12   0.0365   0.0554   0.0546  -0.0132  -0.0111  -0.0211   0.00    0.0
2026/01/15 01:39:00.000   46.877096751    7.465041089   956.5787   6  12   0.0363   0.0553   0.0543  -0.0133  -0.0108  -0.0210   0.00    0.0
2026/01/15 01:39:30.000   46.877096747    7.465041078   956.5780   6  12   0.0361   0.0551   0.0541  -0.0134  -0.0105  -0.0208   0.00    0.0
2026/01/15 01:40:00.000   46.877096742    7.465041067   956.5770   6  12   0.0359   0.0550   0.0538  -0.0134  -0.0103  -0.0207   0.00    0.0
2026/01/15 01:40:30.000   46.877096736    7.465041061   956.5760   6  12   0.0357   0.0549   0.0536  -0.0135  -0.0100  -0.0206   0.00    0.0
2026/01/15 01:41:00.000   46.877096732    7.465041049   956.5750   6  12   0.0355   0.0547   0.0533  -0.0136  -0.0097  -0.0205   0.00    0.0
2026/01/15 01:41:30.000   46.877096727    7.465041040   956.5742   6  12   0.0354   0.0546   0.0531  -0.0136  -0.0094  -0.0203   0.00    0.0
2026/01/15 01:42:00.000   46.877096723    7.465041025   956.5741   6  12   0.0352   0.0545   0.0528  -0.0137  -0.0092  -0.0202   0.00    0.0
2026/01/15 01:42:30.000   46.877096717    7.465041011   956.5739   6  12   0.0350   0.0544   0.0526  -0.0137  -0.0089  -0.0201   0.00    0.0
2026/01/15 01:43:00.000   46.877096716    7.465040997   956.5740   6  12   0.0349   0.0543   0.0524  -0.0138  -0.0085  -0.0200   0.00    0.0
2026/01/15 01:43:30.000   46.877096713    7.465040991   956.5741   6  12   0.0347   0.0542   0.0522  -0.0138  -0.0081  -0.0199   0.00    0.0
2026/01/15 01:44:00.000   46.877096712    7.465040982   956.5740   6  11   0.0345   0.0541   0.0520  -0.0138  -0.0077  -0.0197   0.00    0.0
2026/01/15 01:44:30.000   46.877096711    7.465040976   956.5740   6  11   0.0344   0.0539   0.0518  -0.0139  -0.0072  -0.0196   0.00    0.0
2026/01/15 01:45:00.000   46.877096711    7.465040967   956.5738   6  11   0.0342   0.0538   0.0515  -0.0139  -0.0067  -0.0194   0.00    0.0
2026/01/15 01:45:30.000   46.877096712    7.465040960   956.5737   6  11   0.0340   0.0537   0.0513  -0.0139  -0.0062  -0.0193   0.00    0.0
2026/01/15 01:46:00.000   46.877096712    7.465040944   956.5737   6  11   0.0339   0.0536   0.0511  -0.0139  -0.0056  -0.0191   0.00    0.0
2026/01/15 01:46:30.000   46.877096712    7.465040922   956.5737   6  11   0.0337   0.0535   0.0509  -0.0140  -0.0050  -0.0190   0.00    0.0
2026/01/15 01:47:00.000   46.877096711    7.465040905   956.5738   6  11   0.0336   0.0534   0.0507  -0.0140  -0.0044  -0.0189   0.00    0.0
2026/01/15 01:47:30.000   46.877096710    7.465040890   956.5740   6  11   0.0334   0.0533   0.0505  -0.0140  -0.0037  -0.0188   0.00    0.0
2026/01/15 01:48:00.000   46.877096707    7.465040873   956.5743   6  11   0.0333   0.0532   0.0503  -0.0140  -0.0029  -0.0186   0.00    0.0
2026/01/15 01:48:30.000   46.877096703    7.465040851   956.5747   6  11   0.0331   0.0531   0.0501  -0.0141  -0.0015  -0.0185   0.00    0.0
2026/01/15 01:49:00.000   46.877096699    7.465040830   956.5749   6  11   0.0330   0.0530   0.0499  -0.0141   0.0020  -0.0184   0.00    0.0
2026/01/15 01:49:30.000   46.877096695    7.465040811   956.5750   6  11   0.0328   0.0529   0.0497  -0.0141   0.0032  -0.0182   0.00    0.0
2026/01/15 01:50:00.000   46.877096693    7.465040789   956.5750   6  11   0.0326   0.0528   0.0495  -0.0142   0.0040  -0.0181   0.00    0.0
2026/01/15 01:50:30.000   46.877096690    7.465040769   956.5752   6  11   0.0325   0.0528   0.0493  -0.0142   0.0047  -0.0180   0.00    0.0
2026/01/15 01:51:00.000   46.877096686    7.465040745   956.5753   6  11   0.0323   0.0527   0.0491  -0.0142   0.0053  -0.0178   0.00    0.0
2026/01/15 01:51:30.000   46.877096684    7.465040722   956.5754   6  11   0.0322   0.0526   0.0489  -0.0143   0.0058  -0.0177   0.00    0.0
2026/01/15 01:52:00.000   46.877096682    7.465040698   956.5754   6  11   0.0320   0.0525   0.0487  -0.0143   0.0062  -0.0176   0.00    0.0
2026/01/15 01:52:30.000   46.877096682    7.465040676   956.5755   6  11   0.0319   0.0524   0.0485  -0.0143   0.0065  -0.0175   0.00    0.0
2026/01/15 01:53:00.000   46.877096681    7.465040663   956.5754   6  11   0.0318   0.0523   0.0483  -0.0144   0.0069  -0.0174   0.00    0.0
2026/01/15 01:53:30.000   46.877096680    7.465040647   956.5752   6  11   0.0316   0.0522   0.0481  -0.0144   0.0073  -0.0173   0.00    0.0
2026/01/15 01:54:00.000   46.877096679    7.465040630   956.5751   6  11   0.0315   0.0521   0.0479  -0.0144   0.0076  -0.0172   0.00    0.0
2026/01/15 01:54:30.000   46.877096678    7.465040611   956.5750   6  11   0.0313   0.0520   0.0477  -0.0145   0.0080  -0.0171   0.00    0.0
2026/01/15 01:55:00.000   46.877096676    7.465040594   956.5747   6  11   0.0312   0.0519   0.0475  -0.0145   0.0083  -0.0169   0.00    0.0
2026/01/15 01:55:30.000   46.877096673    7.465040578   956.5745   6  11   0.0310   0.0518   0.0473  -0.0145   0.0086  -0.0168   0.00    0.0
2026/01/15 01:56:00.000   46.877096671    7.465040560   956.5741   6  11   0.0309   0.0517   0.0471  -0.0146   0.0089  -0.0167   0.00    0.0
2026/01/15 01:56:30.000   46.877096671    7.465040542   956.5736   6  11   0.0308   0.0516   0.0470  -0.0146   0.0091  -0.0166   0.00    0.0
2026/01/15 01:57:00.000   46.877096672    7.465040530   956.5731   6  11   0.0306   0.0515   0.0468  -0.0146   0.0093  -0.0165   0.00    0.0
2026/01/15 01:57:30.000   46.877096674    7.465040513   956.5725   6  11   0.0305   0.0515   0.0466  -0.0147   0.0096  -0.0164   0.00    0.0
2026/01/15 01:58:00.000   46.877096673    7.465040496   956.5722   6  11   0.0304   0.0514   0.0464  -0.0147   0.0098  -0.0163   0.00    0.0
2026/01/15 01:58:30.000   46.877096671    7.465040472   956.5720   6  11   0.0303   0.0513   0.0463  -0.0147   0.0100  -0.0163   0.00    0.0
2026/01/15 01:59:00.000   46.877096670    7.465040442   956.5720   6  12   0.0301   0.0512   0.0461  -0.0148   0.0102  -0.0161   0.00    0.0
2026/01/15 01:59:30.000   46.877096670    7.465040409   956.5718   6  12   0.0300   0.0511   0.0459  -0.0148   0.0104  -0.0160   0.00    0.0
2026/01/15 02:00:00.000   46.877096670    7.465040380   956.5715   6  12   0.0298   0.0510   0.0457  -0.0148   0.0106  -0.0159   0.00    0.0
2026/01/15 02:00:30.000   46.877096670    7.465040356   956.5711   6  12   0.0297   0.0509   0.0455  -0.0149   0.0108  -0.0158   0.00    0.0
2026/01/15 02:01:00.000   46.877096669    7.465040332   956.5705   6  13   0.0296   0.0508   0.0453  -0.0149   0.0109  -0.0157   0.00    0.0
2026/01/15 02:01:30.000   46.877096671    7.465040305   956.5696   6  13   0.0294   0.0507   0.0451  -0.0149   0.0111  -0.0156   0.00    0.0
2026/01/15 02:02:00.000   46.877096672    7.465040286   956.5687   6  13   0.0293   0.0506   0.0449  -0.0149   0.0112  -0.0156   0.00    0.0
2026/01/15 02:02:30.000   46.877096670    7.465040274   956.5682   6  13   0.0292   0.0505   0.0448  -0.0149   0.0114  -0.0155   0.00    0.0
2026/01/15 02:03:00.000   46.877096668    7.465040264   956.5679   6  13   0.0291   0.0504   0.0446  -0.0150   0.0115  -0.0154   0.00    0.0
2026/01/15 02:03:30.000   46.877096666    7.465040256   956.5674   6  13   0.0290   0.0503   0.0444  -0.0150   0.0116  -0.0153   0.00    0.0
2026/01/15 02:04:00.000   46.877096664    7.465040249   956.5670   6  13   0.0288   0.0502   0.0443  -0.0150   0.0118  -0.0152   0.00    0.0
2026/01/15 02:04:30.000   46.877096663    7.465040230   956.5666   6  13   0.0287   0.0502   0.0441  -0.0150   0.0119  -0.0151   0.00    0.0
2026/01/15 02:05:00.000   46.877096661    7.465040208   956.5661   6  13   0.0286   0.0501   0.0439  -0.0151   0.0120  -0.0150   0.00    0.0
2026/01/15 02:05:30.000   46.877096659    7.465040199   956.5661   6  14   0.0284   0.0500   0.0437  -0.0151   0.0121  -0.0149   0.00    0.0
2026/01/15 02:06:00.000   46.877096656    7.465040183   956.5659   6  14   0.0283   0.0499   0.0435  -0.0151   0.0122  -0.0149   0.00    0.0
2026/01/15 02:06:30.000   46.877096654    7.465040161   956.5654   6  14   0.0282   0.0498   0.0433  -0.0152   0.0123  -0.0148   0.00    0.0
2026/01/15 02:07:00.000   46.877096654    7.465040146   956.5650   6  14   0.0281   0.0497   0.0432  -0.0152   0.0124  -0.0147   0.00    0.0
2026/01/15 02:07:30.000   46.877096654    7.465040129   956.5645   6  14   0.0280   0.0496   0.0430  -0.0152   0.0125  -0.0146   0.00    0.0
2026/01/15 02:08:00.000   46.877096652    7.465040108   956.5639   6  14   0.0279   0.0495   0.0429  -0.0152   0.0126  -0.0146   0.00    0.0
2026/01/15 02:08:30.000   46.877096649    7.465040086   956.5636   6  14   0.0278   0.0494   0.0427  -0.0152   0.0127  -0.0145   0.00    0.0
2026/01/15 02:09:00.000   46.877096647    7.465040054   956.5631   6  14   0.0277   0.0493   0.0425  -0.0153   0.0128  -0.0144   0.00    0.0
2026/01/15 02:09:30.000   46.877096644    7.465040035   956.5628   6  14   0.0275   0.0492   0.0424  -0.0153   0.0129  -0.0143   0.00    0.0
2026/01/15 02:10:00.000   46.877096643    7.465040001   956.5619   6  14   0.0274   0.0491   0.0422  -0.0153   0.0130  -0.0142   0.00    0.0
2026/01/15 02:10:30.000   46.877096643    7.465039971   956.5611   6  14   0.0273   0.0490   0.0420  -0.0154   0.0131  -0.0142   0.00    0.0
2026/01/15 02:11:00.000   46.877096643    7.465039941   956.5602   6  14   0.0272   0.0489   0.0418  -0.0154   0.0131  -0.0141   0.00    0.0
2026/01/15 02:11:30.000   46.877096644    7.465039923   956.5597   6  15   0.0271   0.0488   0.0417  -0.0154   0.0132  -0.0140   0.00    0.0
2026/01/15 02:12:00.000   46.877096645    7.465039901   956.5593   6  15   0.0270   0.0487   0.0415  -0.0154   0.0133  -0.0140   0.00    0.0
2026/01/15 02:12:30.000   46.877096646    7.465039884   956.5588   6  15   0.0269   0.0486   0.0414  -0.0154   0.0133  -0.0139   0.00    0.0
2026/01/15 02:13:00.000   46.877096646    7.465039868   956.5582   6  15   0.0268   0.0485   0.0412  -0.0155   0.0134  -0.0139   0.00    0.0
2026/01/15 02:13:30.000   46.877096645    7.465039852   956.5577   6  15   0.0267   0.0484   0.0411  -0.0155   0.0134  -0.0138   0.00    0.0
2026/01/15 02:14:00.000   46.877096643    7.465039828   956.5572   6  15   0.0266   0.0483   0.0409  -0.0155   0.0135  -0.0137   0.00    0.0
2026/01/15 02:14:30.000   46.877096640    7.465039803   956.5567   6  15   0.0265   0.0482   0.0407  -0.0155   0.0136  -0.0137   0.00    0.0
2026/01/15 02:15:00.000   46.877096638    7.465039776   956.5560   6  15   0.0263   0.0481   0.0405  -0.0156   0.0136  -0.0136   0.00    0.0
2026/01/15 02:15:30.000   46.877096636    7.465039749   956.5552   6  15   0.0262   0.0480   0.0404  -0.0156   0.0137  -0.0135   0.00    0.0
2026/01/15 02:16:00.000   46.877096635    7.465039727   956.5547   6  15   0.0261   0.0479   0.0402  -0.0156   0.0138  -0.0135   0.00    0.0
2026/01/15 02:16:30.000   46.877096634    7.465039700   956.5543   6  15   0.0260   0.0478   0.0401  -0.0157   0.0138  -0.0134   0.00    0.0
2026/01/15 02:17:00.000   46.877096633    7.465039668   956.5536   6  15   0.0259   0.0477   0.0399  -0.0157   0.0138  -0.0134   0.00    0.0
2026/01/15 02:17:30.000   46.877096631    7.465039639   956.5528   6  15   0.0259   0.0476   0.0398  -0.0157   0.0139  -0.0133   0.00    0.0
2026/01/15 02:18:00.000   46.877096631    7.465039609   956.5519   6  15   0.0258   0.0475   0.0396  -0.0157   0.0139  -0.0133   0.00    0.0
2026/01/15 02:18:30.000   46.877096630    7.465039583   956.5512   6  15   0.0257   0.0474   0.0395  -0.0157   0.0140  -0.0132   0.00    0.0
2026/01/15 02:19:00.000   46.877096628    7.465039554   956.5505   6  15   0.0256   0.0473   0.0393  -0.0158   0.0140  -0.0132   0.00    0.0
2026/01/15 02:19:30.000   46.877096626    7.465039531   956.5497   6  15   0.0255   0.0472   0.0392  -0.0158   0.0141  -0.0131   0.00    0.0
2026/01/15 02:20:00.000   46.877096623    7.465039507   956.5486   6  15   0.0254   0.0471   0.0390  -0.0158   0.0141  -0.0130   0.00    0.0
2026/01/15 02:20:30.000   46.877096621    7.465039481   956.5475   6  15   0.0253   0.0470   0.0388  -0.0158   0.0142  -0.0130   0.00    0.0
2026/01/15 02:21:00.000   46.877096618    7.465039458   956.5465   6  15   0.0252   0.0469   0.0387  -0.0159   0.0142  -0.0129   0.00    0.0
2026/01/15 02:21:30.000   46.877096617    7.465039437   956.5457   6  15   0.0251   0.0468   0.0385  -0.0159   0.0142  -0.0129   0.00    0.0
2026/01/15 02:22:00.000   46.877096615    7.465039416   956.5450   6  15   0.0250   0.0467   0.0384  -0.0159   0.0143  -0.0129   0.00    0.0
2026/01/15 02:22:30.000   46.877096614    7.465039393   956.5441   6  15   0.0249   0.0466   0.0383  -0.0159   0.0143  -0.0128   0.00    0.0
2026/01/15 02:23:00.000   46.877096611    7.465039376   956.5432   6  15   0.0248   0.0465   0.0381  -0.0159   0.0143  -0.0128   0.00    0.0
2026/01/15 02:23:30.000   46.877096608    7.465039356   956.5423   6  15   0.0247   0.0464   0.0380  -0.0160   0.0143  -0.0127   0.00    0.0
2026/01/15 02:24:00.000   46.877096605    7.465039335   956.5412   6  15   0.0247   0.0464   0.0378  -0.0160   0.0144  -0.0127   0.00    0.0
2026/01/15 02:24:30.000   46.877096603    7.465039312   956.5398   6  15   0.0246   0.0463   0.0377  -0.0160   0.0144  -0.0126   0.00    0.0
2026/01/15 02:25:00.000   46.877096599    7.465039304   956.5388   6  15   0.0245   0.0462   0.0375  -0.0160   0.0144  -0.0126   0.00    0.0
2026/01/15 02:25:30.000   46.877096596    7.465039283   956.5377   6  15   0.0244   0.0461   0.0374  -0.0161   0.0145  -0.0126   0.00    0.0
2026/01/15 02:26:00.000   46.877096595    7.465039267   956.5373   6  14   0.0243   0.0460   0.0373  -0.0161   0.0145  -0.0125   0.00    0.0
2026/01/15 02:26:30.000   46.877096594    7.465039245   956.5369   6  14   0.0242   0.0459   0.0372  -0.0161   0.0145  -0.0124   0.00    0.0
2026/01/15 02:27:00.000   46.877096594    7.465039224   956.5366   6  14   0.0241   0.0458   0.0371  -0.0161   0.0145  -0.0124   0.00    0.0
2026/01/15 02:27:30.000   46.877096592    7.465039208   956.5366   6  14   0.0241   0.0457   0.0370  -0.0161   0.0146  -0.0123   0.00    0.0
2026/01/15 02:28:00.000   46.877096591    7.465039190   956.5364   6  14   0.0240   0.0456   0.0369  -0.0162   0.0146  -0.0122   0.00    0.0
2026/01/15 02:28:30.000   46.877096592    7.465039169   956.5361   6  14   0.0239   0.0455   0.0368  -0.0162   0.0146  -0.0122   0.00    0.0
2026/01/15 02:29:00.000   46.877096593    7.465039157   956.5359   6  14   0.0238   0.0454   0.0366  -0.0162   0.0146  -0.0121   0.00    0.0
2026/01/15 02:29:30.000   46.877096593    7.465039143   956.5357   6  14   0.0238   0.0453   0.0365  -0.0162   0.0147  -0.0120   0.00    0.0
2026/01/15 02:30:00.000   46.877096592    7.465039135   956.5356   6  14   0.0237   0.0452   0.0364  -0.0162   0.0147  -0.0120   0.00    0.0
2026/01/15 02:30:30.000   46.877096591    7.465039123   956.5356   6  14   0.0236   0.0451   0.0363  -0.0163   0.0147  -0.0119   0.00    0.0
2026/01/15 02:31:00.000   46.877096591    7.465039108   956.5353   6  14   0.0235   0.0450   0.0362  -0.0163   0.0148  -0.0119   0.00    0.0
2026/01/15 02:31:30.000   46.877096591    7.465039086   956.5347   6  14   0.0234   0.0449   0.0361  -0.0163   0.0148  -0.0118   0.00    0.0
2026/01/15 02:32:00.000   46.877096591    7.465039066   956.5342   6  14   0.0234   0.0448   0.0360  -0.0163   0.0148  -0.0118   0.00    0.0
2026/01/15 02:32:30.000   46.877096591    7.465039043   956.5336   6  14   0.0233   0.0448   0.0359  -0.0163   0.0148  -0.0117   0.00    0.0
2026/01/15 02:33:00.000   46.877096589    7.465039028   956.5331   6  14   0.0232   0.0447   0.0358  -0.0163   0.0148  -0.0117   0.00    0.0
2026/01/15 02:33:30.000   46.877096588    7.465039011   956.5326   6  14   0.0232   0.0446   0.0357  -0.0163   0.0148  -0.0116   0.00    0.0
2026/01/15 02:34:00.000   46.877096587    7.465038995   956.5322   6  14   0.0231   0.0445   0.0356  -0.0164   0.0149  -0.0116   0.00    0.0
2026/01/15 02:34:30.000   46.877096586    7.465038978   956.5317   6  14   0.0230   0.0444   0.0355  -0.0164   0.0149  -0.0115   0.00    0.0
2026/01/15 02:35:00.000   46.877096585    7.465038964   956.5312   6  14   0.0230   0.0443   0.0354  -0.0164   0.0149  -0.0115   0.00    0.0
2026/01/15 02:35:30.000   46.877096584    7.465038954   956.5306   6  14   0.0229   0.0442   0.0353  -0.0164   0.0149  -0.0114   0.00    0.0
2026/01/15 02:36:00.000   46.877096583    7.465038945   956.5301   6  14   0.0228   0.0441   0.0352  -0.0164   0.0150  -0.0114   0.00    0.0
2026/01/15 02:36:30.000   46.877096583    7.465038931   956.5295   6  14   0.0227   0.0440   0.0351  -0.0164   0.0150  -0.0113   0.00    0.0
2026/01/15 02:37:00.000   46.877096583    7.465038916   956.5290   6  14   0.0227   0.0439   0.0350  -0.0164   0.0150  -0.0113   0.00    0.0
2026/01/15 02:37:30.000   46.877096582    7.465038902   956.5286   6  14   0.0226   0.0438   0.0349  -0.0164   0.0150  -0.0112   0.00    0.0
2026/01/15 02:38:00.000   46.877096582    7.465038889   956.5283   6  14   0.0226   0.0437   0.0348  -0.0165   0.0150  -0.0112   0.00    0.0
2026/01/15 02:38:30.000   46.877096583    7.465038871   956.5278   6  14   0.0225   0.0436   0.0347  -0.0165   0.0150  -0.0112   0.00    0.0
2026/01/15 02:39:00.000   46.877096584    7.465038851   956.5273   6  14   0.0224   0.0436   0.0346  -0.0165   0.0150  -0.0111   0.00    0.0
2026/01/15 02:39:30.000   46.877096584    7.465038830   956.5268   6  14   0.0224   0.0435   0.0345  -0.0165   0.0151  -0.0111   0.00    0.0
2026/01/15 02:40:00.000   46.877096584    7.465038807   956.5261   6  14   0.0223   0.0434   0.0344  -0.0165   0.0151  -0.0110   0.00    0.0
2026/01/15 02:40:30.000   46.877096584    7.465038790   956.5255   6  14   0.0222   0.0433   0.0343  -0.0165   0.0151  -0.0110   0.00    0.0
2026/01/15 02:41:00.000   46.877096584    7.465038770   956.5250   6  14   0.0222   0.0432   0.0341  -0.0165   0.0151  -0.0110   0.00    0.0
2026/01/15 02:41:30.000   46.877096584    7.465038748   956.5244   6  14   0.0221   0.0431   0.0340  -0.0165   0.0151  -0.0109   0.00    0.0
2026/01/15 02:42:00.000   46.877096584    7.465038728   956.5239   6  14   0.0220   0.0430   0.0340  -0.0165   0.0151  -0.0109   0.00    0.0
2026/01/15 02:42:30.000   46.877096583    7.465038715   956.5234   6  14   0.0220   0.0429   0.0339  -0.0165   0.0151  -0.0109   0.00    0.0
2026/01/15 02:43:00.000   46.877096584    7.465038701   956.5229   6  14   0.0219   0.0428   0.0338  -0.0166   0.0152  -0.0108   0.00    0.0
2026/01/15 02:43:30.000   46.877096585    7.465038678   956.5222   6  14   0.0219   0.0427   0.0337  -0.0166   0.0152  -0.0108   0.00    0.0
2026/01/15 02:44:00.000   46.877096586    7.465038660   956.5215   6  14   0.0218   0.0426   0.0336  -0.0166   0.0152  -0.0108   0.00    0.0
2026/01/15 02:44:30.000   46.877096586    7.465038642   956.5209   6  14   0.0217   0.0425   0.0335  -0.0166   0.0152  -0.0108   0.00    0.0
2026/01/15 02:45:00.000   46.877096585    7.465038621   956.5201   6  14   0.0217   0.0425   0.0334  -0.0166   0.0152  -0.0107   0.00    0.0
2026/01/15 02:45:30.000   46.877096586    7.465038599   956.5194   6  14   0.0216   0.0424   0.0333  -0.0166   0.0152  -0.0107   0.00    0.0
2026/01/15 02:46:00.000   46.877096587    7.465038584   956.5188   6  14   0.0215   0.0423   0.0332  -0.0166   0.0152  -0.0107   0.00    0.0
2026/01/15 02:46:30.000   46.877096588    7.465038569   956.5182   6  14   0.0215   0.0422   0.0331  -0.0166   0.0152  -0.0106   0.00    0.0
2026/01/15 02:47:00.000   46.877096589    7.465038552   956.5175   6  14   0.0214   0.0421   0.0330  -0.0166   0.0152  -0.0106   0.00    0.0
2026/01/15 02:47:30.000   46.877096588    7.465038546   956.5169   6  14   0.0214   0.0420   0.0329  -0.0166   0.0153  -0.0106   0.00    0.0
2026/01/15 02:48:00.000   46.877096587    7.465038542   956.5163   6  14   0.0213   0.0419   0.0328  -0.0166   0.0153  -0.0106   0.00    0.0
2026/01/15 02:48:30.000   46.877096587    7.465038532   956.5157   6  14   0.0213   0.0418   0.0327  -0.0166   0.0153  -0.0105   0.00    0.0
2026/01/15 02:49:00.000   46.877096587    7.465038514   956.5150   6  14   0.0212   0.0417   0.0326  -0.0166   0.0153  -0.0105   0.00    0.0
2026/01/15 02:49:30.000   46.877096588    7.465038492   956.5141   6  14   0.0212   0.0417   0.0325  -0.0166   0.0153  -0.0105   0.00    0.0
2026/01/15 02:50:00.000   46.877096588    7.465038471   956.5132   6  14   0.0211   0.0416   0.0324  -0.0166   0.0153  -0.0105   0.00    0.0
2026/01/15 02:50:30.000   46.877096589    7.465038455   956.5125   6  14   0.0210   0.0415   0.0323  -0.0166   0.0153  -0.0105   0.00    0.0
2026/01/15 02:51:00.000   46.877096590    7.465038436   956.5118   6  14   0.0210   0.0414   0.0322  -0.0167   0.0153  -0.0104   0.00    0.0
2026/01/15 02:51:30.000   46.877096592    7.465038417   956.5111   6  14   0.0209   0.0413   0.0321  -0.0167   0.0153  -0.0104   0.00    0.0
2026/01/15 02:52:00.000   46.877096593    7.465038405   956.5105   6  14   0.0209   0.0412   0.0320  -0.0167   0.0153  -0.0104   0.00    0.0
2026/01/15 02:52:30.000   46.877096593    7.465038400   956.5099   6  14   0.0208   0.0411   0.0319  -0.0167   0.0153  -0.0104   0.00    0.0
2026/01/15 02:53:00.000   46.877096593    7.465038394   956.5094   6  14   0.0208   0.0410   0.0318  -0.0167   0.0153  -0.0104   0.00    0.0
2026/01/15 02:53:30.000   46.877096593    7.465038390   956.5089   6  14   0.0207   0.0409   0.0317  -0.0167   0.0153  -0.0104   0.00    0.0
2026/01/15 02:54:00.000   46.877096594    7.465038384   956.5083   6  14   0.0207   0.0409   0.0316  -0.0167   0.0153  -0.0103   0.00    0.0
2026/01/15 02:54:30.000   46.877096595    7.465038368   956.5076   6  14   0.0206   0.0408   0.0315  -0.0167   0.0153  -0.0103   0.00    0.0
2026/01/15 02:55:00.000   46.877096596    7.465038347   956.5067   6  14   0.0206   0.0407   0.0314  -0.0167   0.0153  -0.0103   0.00    0.0
2026/01/15 02:55:30.000   46.877096597    7.465038330   956.5060   6  14   0.0205   0.0406   0.0313  -0.0167   0.0153  -0.0103   0.00    0.0
2026/01/15 02:56:00.000   46.877096597    7.465038316   956.5053   6  14   0.0205   0.0405   0.0313  -0.0167   0.0153  -0.0103   0.00    0.0
2026/01/15 02:56:30.000   46.877096596    7.465038302   956.5050   6  13   0.0204   0.0404   0.0312  -0.0167   0.0153  -0.0103   0.00    0.0
2026/01/15 02:57:00.000   46.877096597    7.465038285   956.5046   6  13   0.0204   0.0403   0.0311  -0.0167   0.0153  -0.0103   0.00    0.0
2026/01/15 02:57:30.000   46.877096597    7.465038269   956.5041   6  13   0.0203   0.0403   0.0310  -0.0167   0.0153  -0.0103   0.00    0.0
2026/01/15 02:58:00.000   46.877096597    7.465038251   956.5035   6  13   0.0203   0.0402   0.0310  -0.0167   0.0153  -0.0103   0.00    0.0
2026/01/15 02:58:30.000   46.877096596    7.465038233   956.5029   6  13   0.0202   0.0401   0.0309  -0.0167   0.0153  -0.0103   0.00    0.0
2026/01/15 02:59:00.000   46.877096595    7.465038218   956.5024   6  13   0.0202   0.0400   0.0308  -0.0167   0.0153  -0.0103   0.00    0.0
2026/01/15 02:59:30.000   46.877096593    7.465038201   956.5019   6  13   0.0201   0.0399   0.0307  -0.0167   0.0153  -0.0103   0.00    0.0
2026/01/15 03:00:00.000   46.877096593    7.465038178   956.5014   6  13   0.0201   0.0398   0.0306  -0.0167   0.0153  -0.0103   0.00    0.0
2026/01/15 03:00:30.000   46.877096593    7.465038159   956.5008   6  13   0.0200   0.0397   0.0306  -0.0167   0.0153  -0.0102   0.00    0.0
2026/01/15 03:01:00.000   46.877096593    7.465038139   956.5001   6  13   0.0200   0.0397   0.0305  -0.0167   0.0153  -0.0102   0.00    0.0
2026/01/15 03:01:30.000   46.877096593    7.465038122   956.4994   6  13   0.0199   0.0396   0.0304  -0.0167   0.0153  -0.0102   0.00    0.0
2026/01/15 03:02:00.000   46.877096594    7.465038103   956.4988   6  13   0.0199   0.0395   0.0303  -0.0167   0.0153  -0.0102   0.00    0.0
2026/01/15 03:02:30.000   46.877096594    7.465038082   956.4982   6  13   0.0198   0.0394   0.0303  -0.0167   0.0153  -0.0102   0.00    0.0
2026/01/15 03:03:00.000   46.877096594    7.465038062   956.4975   6  13   0.0198   0.0393   0.0302  -0.0167   0.0153  -0.0102   0.00    0.0
2026/01/15 03:03:30.000   46.877096594    7.465038045   956.4969   6  13   0.0198   0.0392   0.0301  -0.0167   0.0153  -0.0102   0.00    0.0
2026/01/15 03:04:00.000   46.877096593    7.465038028   956.4962   6  13   0.0197   0.0392   0.0300  -0.0166   0.0152  -0.0102   0.00    0.0
2026/01/15 03:04:30.000   46.877096593    7.465038011   956.4954   6  13   0.0197   0.0391   0.0300  -0.0166   0.0152  -0.0102   0.00    0.0
2026/01/15 03:05:00.000   46.877096594    7.465037989   956.4947   6  14   0.0196   0.0390   0.0299  -0.0166   0.0152  -0.0102   0.00    0.0
2026/01/15 03:05:30.000   46.877096594    7.465037973   956.4939   6  14   0.0196   0.0389   0.0298  -0.0166   0.0152  -0.0102   0.00    0.0
2026/01/15 03:06:00.000   46.877096594    7.465037954   956.4933   6  14   0.0195   0.0388   0.0297  -0.0166   0.0152  -0.0102   0.00    0.0
2026/01/15 03:06:30.000   46.877096593    7.465037938   956.4927   6  14   0.0195   0.0387   0.0296  -0.0166   0.0152  -0.0102   0.00    0.0
2026/01/15 03:07:00.000   46.877096593    7.465037918   956.4921   6  14   0.0194   0.0387   0.0296  -0.0166   0.0152  -0.0102   0.00    0.0
2026/01/15 03:07:30.000   46.877096593    7.465037901   956.4915   6  14   0.0194   0.0386   0.0295  -0.0166   0.0152  -0.0102   0.00    0.0
2026/01/15 03:08:00.000   46.877096594    7.465037884   956.4909   6  14   0.0194   0.0385   0.0294  -0.0166   0.0152  -0.0102   0.00    0.0
2026/01/15 03:08:30.000   46.877096593    7.465037872   956.4903   6  14   0.0193   0.0384   0.0294  -0.0166   0.0152  -0.0102   0.00    0.0
2026/01/15 03:09:00.000   46.877096593    7.465037860   956.4896   6  14   0.0193   0.0383   0.0293  -0.0166   0.0152  -0.0102   0.00    0.0
2026/01/15 03:09:30.000   46.877096593    7.465037847   956.4891   6  14   0.0192   0.0382   0.0292  -0.0166   0.0152  -0.0102   0.00    0.0
2026/01/15 03:10:00.000   46.877096592    7.465037841   956.4887   6  14   0.0192   0.0382   0.0291  -0.0166   0.0152  -0.0102   0.00    0.0
2026/01/15 03:10:30.000   46.877096591    7.465037837   956.4883   6  14   0.0191   0.0381   0.0290  -0.0166   0.0151  -0.0102   0.00    0.0
2026/01/15 03:11:00.000   46.877096589    7.465037835   956.4879   6  14   0.0191   0.0380   0.0290  -0.0166   0.0151  -0.0102   0.00    0.0
2026/01/15 03:11:30.000   46.877096589    7.465037828   956.4873   6  14   0.0191   0.0379   0.0289  -0.0166   0.0151  -0.0102   0.00    0.0
2026/01/15 03:12:00.000   46.877096588    7.465037823   956.4868   6  14   0.0190   0.0378   0.0288  -0.0166   0.0151  -0.0102   0.00    0.0
2026/01/15 03:12:30.000   46.877096587    7.465037814   956.4862   6  14   0.0190   0.0378   0.0288  -0.0166   0.0151  -0.0102   0.00    0.0
2026/01/15 03:13:00.000   46.877096587    7.465037800   956.4857   6  14   0.0189   0.0377   0.0287  -0.0166   0.0151  -0.0102   0.00    0.0
2026/01/15 03:13:30.000   46.877096589    7.465037779   956.4850   6  14   0.0189   0.0376   0.0286  -0.0166   0.0151  -0.0102   0.00    0.0
2026/01/15 03:14:00.000   46.877096589    7.465037767   956.4844   6  14   0.0189   0.0375   0.0285  -0.0166   0.0151  -0.0102   0.00    0.0
2026/01/15 03:14:30.000   46.877096589    7.465037760   956.4837   6  14   0.0188   0.0374   0.0285  -0.0165   0.0151  -0.0102   0.00    0.0
2026/01/15 03:15:00.000   46.877096587    7.465037760   956.4833   6  14   0.0188   0.0373   0.0284  -0.0165   0.0151  -0.0102   0.00    0.0
2026/01/15 03:15:30.000   46.877096586    7.465037755   956.4829   6  15   0.0187   0.0373   0.0283  -0.0165   0.0150  -0.0102   0.00    0.0
2026/01/15 03:16:00.000   46.877096586    7.465037747   956.4824   6  15   0.0187   0.0372   0.0282  -0.0165   0.0150  -0.0102   0.00    0.0
2026/01/15 03:16:30.000   46.877096586    7.465037732   956.4818   6  15   0.0187   0.0371   0.0281  -0.0165   0.0150  -0.0102   0.00    0.0
2026/01/15 03:17:00.000   46.877096586    7.465037718   956.4813   6  15   0.0186   0.0370   0.0281  -0.0165   0.0150  -0.0102   0.00    0.0
2026/01/15 03:17:30.000   46.877096587    7.465037703   956.4805   6  15   0.0186   0.0369   0.0280  -0.0165   0.0150  -0.0102   0.00    0.0
2026/01/15 03:18:00.000   46.877096587    7.465037692   956.4798   6  15   0.0186   0.0369   0.0279  -0.0165   0.0150  -0.0102   0.00    0.0
2026/01/15 03:18:30.000   46.877096587    7.465037679   956.4790   6  15   0.0185   0.0368   0.0279  -0.0165   0.0150  -0.0102   0.00    0.0
2026/01/15 03:19:00.000   46.877096587    7.465037666   956.4783   6  15   0.0185   0.0367   0.0278  -0.0165   0.0149  -0.0102   0.00    0.0
2026/01/15 03:19:30.000   46.877096588    7.465037652   956.4774   6  15   0.0184   0.0366   0.0277  -0.0165   0.0149  -0.0102   0.00    0.0
2026/01/15 03:20:00.000   46.877096588    7.465037636   956.4766   6  15   0.0184   0.0365   0.0276  -0.0164   0.0149  -0.0103   0.00    0.0
2026/01/15 03:20:30.000   46.877096589    7.465037617   956.4758   6  15   0.0184   0.0364   0.0276  -0.0164   0.0149  -0.0103   0.00    0.0
2026/01/15 03:21:00.000   46.877096589    7.465037604   956.4748   6  15   0.0183   0.0364   0.0275  -0.0164   0.0149  -0.0103   0.00    0.0
2026/01/15 03:21:30.000   46.877096589    7.465037591   956.4740   6  15   0.0183   0.0363   0.0274  -0.0164   0.0149  -0.0103   0.00    0.0
2026/01/15 03:22:00.000   46.877096589    7.465037582   956.4732   6  15   0.0182   0.0362   0.0273  -0.0164   0.0149  -0.0103   0.00    0.0
2026/01/15 03:22:30.000   46.877096589    7.465037575   956.4726   6  15   0.0182   0.0361   0.0273  -0.0164   0.0148  -0.0103   0.00    0.0
2026/01/15 03:23:00.000   46.877096588    7.465037570   956.4720   6  15   0.0182   0.0360   0.0272  -0.0164   0.0148  -0.0103   0.00    0.0
2026/01/15 03:23:30.000   46.877096588    7.465037561   956.4713   6  15   0.0181   0.0360   0.0271  -0.0164   0.0148  -0.0103   0.00    0.0
2026/01/15 03:24:00.000   46.877096588    7.465037550   956.4706   6  15   0.0181   0.0359   0.0271  -0.0163   0.0148  -0.0103   0.00    0.0
2026/01/15 03:24:30.000   46.877096589    7.465037537   956.4698   6  15   0.0181   0.0358   0.0270  -0.0163   0.0148  -0.0103   0.00    0.0
2026/01/15 03:25:00.000   46.877096590    7.465037523   956.4690   6  15   0.0180   0.0357   0.0269  -0.0163   0.0148  -0.0103   0.00    0.0
2026/01/15 03:25:30.000   46.877096591    7.465037504   956.4681   6  15   0.0180   0.0356   0.0268  -0.0163   0.0147  -0.0103   0.00    0.0
2026/01/15 03:26:00.000   46.877096593    7.465037483   956.4671   6  15   0.0180   0.0356   0.0268  -0.0163   0.0147  -0.0103   0.00    0.0
2026/01/15 03:26:30.000   46.877096594    7.465037464   956.4661   6  15   0.0179   0.0355   0.0267  -0.0163   0.0147  -0.0103   0.00    0.0
2026/01/15 03:27:00.000   46.877096595    7.465037452   956.4653   6  15   0.0179   0.0354   0.0266  -0.0163   0.0147  -0.0103   0.00    0.0
2026/01/15 03:27:30.000   46.877096596    7.465037438   956.4645   6  15   0.0179   0.0353   0.0266  -0.0163   0.0147  -0.0103   0.00    0.0
2026/01/15 03:28:00.000   46.877096597    7.465037420   956.4639   6  14   0.0178   0.0353   0.0265  -0.0162   0.0146  -0.0103   0.00    0.0
