% program   : RTKPOST ver.demo5 b34d
% inp file  : E:\Master courses\SNDP-PROJECT\Old_data\data\ZIM200CHE_R_20260150000_01D_30S_MO.rnx
% inp file  : E:\Master courses\SNDP-PROJECT\New_Data\nav\BRDC00IGS_R_20260150000_01D_MN.rnx
% inp file  : E:\Master courses\SNDP-PROJECT\New_Data\DATA_FINAL_ANT_EXTRA\COD0MGXFIN_20260150000_01D_05M_ORB.SP3
% inp file  : E:\Master courses\SNDP-PROJECT\New_Data\DATA_FINAL_ANT_EXTRA\COD0MGXFIN_20260150000_01D_30S_CLK.CLK
% obs start : 2026/01/15 00:00:00.0 GPST (week2401 345600.0s)
% obs end   : 2026/01/15 23:59:30.0 GPST (week2401 431970.0s)
% pos mode  : PPP Static
% solution  : Forward
% elev mask : 15.0 deg
% dynamics  : off
% tidecorr  : off
% tropo opt : Saastamoinen
% ephemeris : Precise
% navi sys  : GPS GLONASS Galileo QZSS BDS
% antenna1  : TRM59800.00     NONE  ( 0.0000  0.0000  0.0000)
%
% (lat/lon/height=WGS84/ellipsoidal,Q=1:fix,2:float,3:sbas,4:dgps,5:single,6:ppp,ns=# of satellites)
%  GPST                  latitude(deg) longitude(deg)  height(m)   Q  ns   sdn(m)   sde(m)   sdu(m)  sdne(m)  sdeu(m)  sdun(m) age(s)  ratio
2026/01/15 00:00:00.000   46.877110359    7.465078875   955.5180   6  32   0.8145   0.7039   1.6123  -0.3058   0.4455   0.1171   0.00    0.0
2026/01/15 00:00:30.000   46.877110866    7.465077668   955.3319   6  33   0.5665   0.4824   1.1145  -0.1851   0.2634   0.1777   0.00    0.0
2026/01/15 00:01:00.000   46.877110907    7.465077632   955.2874   6  33   0.4603   0.3904   0.9038  -0.1439   0.2017   0.1588   0.00    0.0
2026/01/15 00:01:30.000   46.877111339    7.465078121   955.1850   6  33   0.3976   0.3367   0.7799  -0.1219   0.1688   0.1419   0.00    0.0
2026/01/15 00:02:00.000   46.877111926    7.465078856   955.0503   6  33   0.3551   0.3004   0.6958  -0.1079   0.1478   0.1285   0.00    0.0
2026/01/15 00:02:30.000   46.877112143    7.465078207   955.0525   6  32   0.3238   0.2750   0.6346  -0.0975   0.1300   0.1172   0.00    0.0
2026/01/15 00:03:00.000   46.877111503    7.465076891   955.1621   6  31   0.2997   0.2556   0.5873  -0.0884   0.1146   0.1059   0.00    0.0
2026/01/15 00:03:30.000   46.877110921    7.465075946   955.2269   6  31   0.2801   0.2398   0.5486  -0.0814   0.1027   0.0964   0.00    0.0
2026/01/15 00:04:00.000   46.877110622    7.465075239   955.2719   6  31   0.2638   0.2266   0.5162  -0.0758   0.0932   0.0883   0.00    0.0
2026/01/15 00:04:30.000   46.877110602    7.465075221   955.2228   6  31   0.2501   0.2151   0.4891  -0.0729   0.0856   0.0850   0.00    0.0
2026/01/15 00:05:00.000   46.877110604    7.465074954   955.2005   6  31   0.2382   0.2052   0.4655  -0.0703   0.0793   0.0815   0.00    0.0
2026/01/15 00:05:30.000   46.877110622    7.465074750   955.2108   6  31   0.2278   0.1966   0.4447  -0.0680   0.0740   0.0780   0.00    0.0
2026/01/15 00:06:00.000   46.877110590    7.465074508   955.2390   6  31   0.2186   0.1889   0.4263  -0.0659   0.0695   0.0746   0.00    0.0
2026/01/15 00:06:30.000   46.877110603    7.465074991   955.2090   6  32   0.2104   0.1817   0.4095  -0.0642   0.0668   0.0716   0.00    0.0
2026/01/15 00:07:00.000   46.877110602    7.465075464   955.1909   6  32   0.2030   0.1753   0.3944  -0.0626   0.0644   0.0686   0.00    0.0
2026/01/15 00:07:30.000   46.877110608    7.465075912   955.1940   6  32   0.1963   0.1695   0.3807  -0.0611   0.0623   0.0658   0.00    0.0
2026/01/15 00:08:00.000   46.877110543    7.465075779   955.2322   6  31   0.1901   0.1645   0.3681  -0.0596   0.0594   0.0627   0.00    0.0
2026/01/15 00:08:30.000   46.877110468    7.465075548   955.2535   6  31   0.1843   0.1599   0.3563  -0.0582   0.0567   0.0595   0.00    0.0
2026/01/15 00:09:00.000   46.877110355    7.465075241   955.2721   6  31   0.1790   0.1557   0.3451  -0.0569   0.0544   0.0562   0.00    0.0
2026/01/15 00:09:30.000   46.877110352    7.465075000   955.2753   6  30   0.1741   0.1518   0.3349  -0.0555   0.0519   0.0520   0.00    0.0
2026/01/15 00:10:00.000   46.877110352    7.465074901   955.2638   6  30   0.1696   0.1481   0.3253  -0.0543   0.0498   0.0479   0.00    0.0
2026/01/15 00:10:30.000   46.877110451    7.465074768   955.2373   6  30   0.1653   0.1447   0.3163  -0.0531   0.0478   0.0438   0.00    0.0
2026/01/15 00:11:00.000   46.877110379    7.465074351   955.2507   6  29   0.1614   0.1417   0.3080  -0.0518   0.0455   0.0395   0.00    0.0
2026/01/15 00:11:30.000   46.877110309    7.465074281   955.2235   6  30   0.1577   0.1386   0.3002  -0.0507   0.0439   0.0354   0.00    0.0
2026/01/15 00:12:00.000   46.877110170    7.465074172   955.2056   6  30   0.1542   0.1358   0.2929  -0.0496   0.0425   0.0314   0.00    0.0
2026/01/15 00:12:30.000   46.877110127    7.465073955   955.1935   6  30   0.1510   0.1332   0.2861  -0.0488   0.0412   0.0279   0.00    0.0
2026/01/15 00:13:00.000   46.877110018    7.465073812   955.1898   6  30   0.1478   0.1307   0.2793  -0.0480   0.0399   0.0237   0.00    0.0
2026/01/15 00:13:30.000   46.877109935    7.465073676   955.1908   6  30   0.1447   0.1283   0.2727  -0.0472   0.0388   0.0188   0.00    0.0
2026/01/15 00:14:00.000   46.877109841    7.465073558   955.1933   6  30   0.1418   0.1260   0.2662  -0.0465   0.0377   0.0122   0.00    0.0
2026/01/15 00:14:30.000   46.877109749    7.465073521   955.2025   6  30   0.1389   0.1239   0.2599  -0.0458   0.0368  -0.0066   0.00    0.0
2026/01/15 00:15:00.000   46.877109650    7.465073528   955.2075   6  30   0.1362   0.1218   0.2539  -0.0451   0.0359  -0.0149   0.00    0.0
2026/01/15 00:15:30.000   46.877109539    7.465073536   955.2016   6  29   0.1336   0.1199   0.2484  -0.0445   0.0348  -0.0183   0.00    0.0
2026/01/15 00:16:00.000   46.877109384    7.465073514   955.2022   6  29   0.1312   0.1180   0.2432  -0.0440   0.0339  -0.0209   0.00    0.0
2026/01/15 00:16:30.000   46.877109255    7.465073418   955.2056   6  29   0.1289   0.1163   0.2383  -0.0434   0.0330  -0.0229   0.00    0.0
2026/01/15 00:17:00.000   46.877109148    7.465073294   955.2094   6  29   0.1267   0.1146   0.2337  -0.0429   0.0322  -0.0245   0.00    0.0
2026/01/15 00:17:30.000   46.877109059    7.465073172   955.2140   6  29   0.1246   0.1130   0.2294  -0.0424   0.0315  -0.0258   0.00    0.0
2026/01/15 00:18:00.000   46.877108851    7.465072871   955.2396   6  28   0.1226   0.1115   0.2251  -0.0419   0.0305  -0.0273   0.00    0.0
2026/01/15 00:18:30.000   46.877108607    7.465072555   955.2633   6  28   0.1206   0.1100   0.2208  -0.0413   0.0296  -0.0289   0.00    0.0
2026/01/15 00:19:00.000   46.877108362    7.465072271   955.2834   6  28   0.1187   0.1086   0.2165  -0.0408   0.0287  -0.0303   0.00    0.0
2026/01/15 00:19:30.000   46.877108140    7.465072023   955.2975   6  28   0.1167   0.1072   0.2122  -0.0402   0.0279  -0.0316   0.00    0.0
2026/01/15 00:20:00.000   46.877108069    7.465071868   955.2919   6  29   0.1148   0.1059   0.2080  -0.0398   0.0275  -0.0327   0.00    0.0
2026/01/15 00:20:30.000   46.877107977    7.465071738   955.2913   6  29   0.1130   0.1045   0.2040  -0.0394   0.0271  -0.0336   0.00    0.0
2026/01/15 00:21:00.000   46.877107883    7.465071591   955.2879   6  29   0.1112   0.1032   0.2001  -0.0390   0.0267  -0.0343   0.00    0.0
2026/01/15 00:21:30.000   46.877107771    7.465071461   955.2882   6  29   0.1096   0.1020   0.1965  -0.0386   0.0263  -0.0350   0.00    0.0
2026/01/15 00:22:00.000   46.877107649    7.465071381   955.2929   6  29   0.1080   0.1008   0.1931  -0.0382   0.0260  -0.0355   0.00    0.0
2026/01/15 00:22:30.000   46.877107518    7.465071368   955.2985   6  29   0.1065   0.0997   0.1899  -0.0379   0.0257  -0.0358   0.00    0.0
2026/01/15 00:23:00.000   46.877107367    7.465071169   955.3205   6  28   0.1050   0.0986   0.1867  -0.0375   0.0252  -0.0363   0.00    0.0
2026/01/15 00:23:30.000   46.877107215    7.465071024   955.3452   6  28   0.1035   0.0976   0.1834  -0.0371   0.0247  -0.0368   0.00    0.0
2026/01/15 00:24:00.000   46.877107066    7.465070885   955.3699   6  28   0.1020   0.0965   0.1801  -0.0367   0.0242  -0.0373   0.00    0.0
2026/01/15 00:24:30.000   46.877106894    7.465070722   955.3938   6  28   0.1006   0.0955   0.1768  -0.0363   0.0238  -0.0378   0.00    0.0
2026/01/15 00:25:00.000   46.877106771    7.465070685   955.4098   6  29   0.0991   0.0945   0.1736  -0.0359   0.0236  -0.0381   0.00    0.0
2026/01/15 00:25:30.000   46.877106660    7.465070593   955.4228   6  29   0.0977   0.0935   0.1705  -0.0356   0.0234  -0.0384   0.00    0.0
2026/01/15 00:26:00.000   46.877106544    7.465070475   955.4342   6  29   0.0964   0.0926   0.1675  -0.0353   0.0233  -0.0387   0.00    0.0
2026/01/15 00:26:30.000   46.877106448    7.465070381   955.4449   6  29   0.0951   0.0916   0.1647  -0.0350   0.0231  -0.0388   0.00    0.0
2026/01/15 00:27:00.000   46.877106382    7.465070308   955.4496   6  29   0.0939   0.0907   0.1621  -0.0347   0.0229  -0.0389   0.00    0.0
2026/01/15 00:27:30.000   46.877106267    7.465070127   955.4667   6  28   0.0927   0.0899   0.1597  -0.0344   0.0226  -0.0390   0.00    0.0
2026/01/15 00:28:00.000   46.877106121    7.465069975   955.4887   6  28   0.0916   0.0891   0.1573  -0.0341   0.0223  -0.0391   0.00    0.0
2026/01/15 00:28:30.000   46.877105994    7.465069790   955.5080   6  28   0.0904   0.0883   0.1547  -0.0338   0.0220  -0.0392   0.00    0.0
2026/01/15 00:29:00.000   46.877105858    7.465069641   955.5255   6  28   0.0892   0.0875   0.1522  -0.0335   0.0217  -0.0393   0.00    0.0
2026/01/15 00:29:30.000   46.877105724    7.465069497   955.5444   6  28   0.0881   0.0867   0.1496  -0.0332   0.0214  -0.0394   0.00    0.0
2026/01/15 00:30:00.000   46.877105663    7.465069412   955.5529   6  29   0.0869   0.0859   0.1471  -0.0329   0.0213  -0.0394   0.00    0.0
2026/01/15 00:30:30.000   46.877105580    7.465069362   955.5635   6  29   0.0858   0.0851   0.1447  -0.0327   0.0211  -0.0394   0.00    0.0
2026/01/15 00:31:00.000   46.877105509    7.465069347   955.5696   6  29   0.0847   0.0844   0.1424  -0.0325   0.0210  -0.0394   0.00    0.0
2026/01/15 00:31:30.000   46.877105392    7.465069252   955.5788   6  28   0.0837   0.0836   0.1402  -0.0322   0.0208  -0.0393   0.00    0.0
2026/01/15 00:32:00.000   46.877105271    7.465069167   955.5879   6  28   0.0827   0.0830   0.1382  -0.0319   0.0205  -0.0393   0.00    0.0
2026/01/15 00:32:30.000   46.877105150    7.465069065   955.5958   6  28   0.0818   0.0823   0.1363  -0.0317   0.0203  -0.0392   0.00    0.0
2026/01/15 00:33:00.000   46.877105017    7.465068924   955.6058   6  28   0.0809   0.0816   0.1344  -0.0314   0.0201  -0.0391   0.00    0.0
2026/01/15 00:33:30.000   46.877104882    7.465068882   955.6130   6  29   0.0799   0.0810   0.1324  -0.0312   0.0200  -0.0390   0.00    0.0
2026/01/15 00:34:00.000   46.877104745    7.465068783   955.6192   6  28   0.0790   0.0803   0.1304  -0.0310   0.0199  -0.0388   0.00    0.0
2026/01/15 00:34:30.000   46.877104608    7.465068693   955.6262   6  28   0.0780   0.0796   0.1285  -0.0308   0.0198  -0.0387   0.00    0.0
2026/01/15 00:35:00.000   46.877104479    7.465068639   955.6338   6  28   0.0771   0.0790   0.1266  -0.0306   0.0197  -0.0385   0.00    0.0
2026/01/15 00:35:30.000   46.877104381    7.465068562   955.6398   6  28   0.0762   0.0784   0.1248  -0.0304   0.0196  -0.0383   0.00    0.0
2026/01/15 00:36:00.000   46.877104251    7.465068408   955.6514   6  27   0.0753   0.0778   0.1230  -0.0302   0.0194  -0.0382   0.00    0.0
2026/01/15 00:36:30.000   46.877104142    7.465068259   955.6601   6  27   0.0745   0.0772   0.1214  -0.0300   0.0193  -0.0380   0.00    0.0
2026/01/15 00:37:00.000   46.877104041    7.465068122   955.6691   6  27   0.0737   0.0766   0.1199  -0.0298   0.0191  -0.0378   0.00    0.0
2026/01/15 00:37:30.000   46.877103931    7.465068033   955.6789   6  27   0.0730   0.0761   0.1185  -0.0296   0.0190  -0.0377   0.00    0.0
2026/01/15 00:38:00.000   46.877103820    7.465067944   955.6888   6  27   0.0722   0.0755   0.1170  -0.0294   0.0189  -0.0375   0.00    0.0
2026/01/15 00:38:30.000   46.877103747    7.465067925   955.6933   6  28   0.0714   0.0750   0.1154  -0.0292   0.0188  -0.0373   0.00    0.0
2026/01/15 00:39:00.000   46.877103656    7.465067867   955.6987   6  28   0.0706   0.0744   0.1138  -0.0290   0.0187  -0.0371   0.00    0.0
2026/01/15 00:39:30.000   46.877103553    7.465067770   955.7075   6  28   0.0698   0.0739   0.1122  -0.0289   0.0186  -0.0369   0.00    0.0
2026/01/15 00:40:00.000   46.877103429    7.465067670   955.7196   6  28   0.0690   0.0733   0.1107  -0.0287   0.0185  -0.0367   0.00    0.0
2026/01/15 00:40:30.000   46.877103315    7.465067565   955.7291   6  28   0.0683   0.0728   0.1092  -0.0285   0.0184  -0.0365   0.00    0.0
2026/01/15 00:41:00.000   46.877103192    7.465067384   955.7409   6  27   0.0675   0.0723   0.1077  -0.0283   0.0182  -0.0363   0.00    0.0
2026/01/15 00:41:30.000   46.877103077    7.465067218   955.7508   6  27   0.0668   0.0718   0.1064  -0.0281   0.0181  -0.0361   0.00    0.0
2026/01/15 00:42:00.000   46.877102972    7.465067044   955.7601   6  28   0.0662   0.0713   0.1051  -0.0280   0.0180  -0.0359   0.00    0.0
2026/01/15 00:42:30.000   46.877102880    7.465066892   955.7692   6  28   0.0656   0.0708   0.1040  -0.0278   0.0179  -0.0357   0.00    0.0
2026/01/15 00:43:00.000   46.877102781    7.465066756   955.7788   6  28   0.0649   0.0704   0.1027  -0.0276   0.0178  -0.0354   0.00    0.0
2026/01/15 00:43:30.000   46.877102708    7.465066698   955.7836   6  29   0.0642   0.0699   0.1014  -0.0275   0.0177  -0.0352   0.00    0.0
2026/01/15 00:44:00.000   46.877102620    7.465066638   955.7894   6  29   0.0636   0.0694   0.1001  -0.0273   0.0177  -0.0350   0.00    0.0
2026/01/15 00:44:30.000   46.877102529    7.465066545   955.7974   6  28   0.0629   0.0689   0.0990  -0.0272   0.0177  -0.0348   0.00    0.0
2026/01/15 00:45:00.000   46.877102444    7.465066439   955.8043   6  28   0.0622   0.0685   0.0979  -0.0270   0.0178  -0.0345   0.00    0.0
2026/01/15 00:45:30.000   46.877102379    7.465066315   955.8123   6  29   0.0615   0.0680   0.0969  -0.0269   0.0179  -0.0343   0.00    0.0
2026/01/15 00:46:00.000   46.877102290    7.465066135   955.8231   6  28   0.0609   0.0676   0.0958  -0.0267   0.0180  -0.0341   0.00    0.0
2026/01/15 00:46:30.000   46.877102204    7.465065954   955.8330   6  28   0.0603   0.0671   0.0949  -0.0266   0.0180  -0.0339   0.00    0.0
2026/01/15 00:47:00.000   46.877102122    7.465065776   955.8429   6  28   0.0598   0.0667   0.0940  -0.0264   0.0181  -0.0337   0.00    0.0
2026/01/15 00:47:30.000   46.877102042    7.465065622   955.8528   6  28   0.0592   0.0663   0.0931  -0.0263   0.0181  -0.0335   0.00    0.0
2026/01/15 00:48:00.000   46.877101964    7.465065467   955.8645   6  28   0.0587   0.0659   0.0922  -0.0261   0.0182  -0.0333   0.00    0.0
2026/01/15 00:48:30.000   46.877101886    7.465065297   955.8772   6  28   0.0581   0.0655   0.0913  -0.0260   0.0182  -0.0331   0.00    0.0
2026/01/15 00:49:00.000   46.877101808    7.465065111   955.8915   6  28   0.0576   0.0651   0.0904  -0.0258   0.0182  -0.0329   0.00    0.0
2026/01/15 00:49:30.000   46.877101720    7.465064923   955.9061   6  28   0.0570   0.0647   0.0894  -0.0257   0.0182  -0.0327   0.00    0.0
2026/01/15 00:50:00.000   46.877101626    7.465064765   955.9200   6  28   0.0564   0.0643   0.0884  -0.0255   0.0182  -0.0325   0.00    0.0
2026/01/15 00:50:30.000   46.877101533    7.465064605   955.9334   6  28   0.0558   0.0639   0.0875  -0.0254   0.0182  -0.0323   0.00    0.0
2026/01/15 00:51:00.000   46.877101451    7.465064446   955.9455   6  28   0.0553   0.0635   0.0866  -0.0252   0.0182  -0.0321   0.00    0.0
2026/01/15 00:51:30.000   46.877101377    7.465064303   955.9567   6  28   0.0548   0.0631   0.0858  -0.0251   0.0182  -0.0319   0.00    0.0
2026/01/15 00:52:00.000   46.877101304    7.465064161   955.9671   6  27   0.0543   0.0628   0.0850  -0.0250   0.0182  -0.0317   0.00    0.0
2026/01/15 00:52:30.000   46.877101234    7.465064022   955.9761   6  27   0.0539   0.0624   0.0843  -0.0249   0.0181  -0.0315   0.00    0.0
2026/01/15 00:53:00.000   46.877101164    7.465063863   955.9852   6  27   0.0534   0.0621   0.0836  -0.0247   0.0180  -0.0313   0.00    0.0
2026/01/15 00:53:30.000   46.877101093    7.465063679   955.9946   6  27   0.0529   0.0617   0.0828  -0.0246   0.0179  -0.0311   0.00    0.0
2026/01/15 00:54:00.000   46.877101017    7.465063478   956.0045   6  27   0.0524   0.0614   0.0820  -0.0245   0.0179  -0.0309   0.00    0.0
2026/01/15 00:54:30.000   46.877100934    7.465063279   956.0145   6  27   0.0519   0.0610   0.0812  -0.0243   0.0178  -0.0307   0.00    0.0
2026/01/15 00:55:00.000   46.877100852    7.465063087   956.0251   6  27   0.0514   0.0606   0.0804  -0.0242   0.0177  -0.0305   0.00    0.0
2026/01/15 00:55:30.000   46.877100774    7.465062912   956.0347   6  27   0.0509   0.0603   0.0796  -0.0241   0.0176  -0.0303   0.00    0.0
2026/01/15 00:56:00.000   46.877100705    7.465062748   956.0436   6  27   0.0504   0.0599   0.0789  -0.0239   0.0175  -0.0301   0.00    0.0
2026/01/15 00:56:30.000   46.877100645    7.465062593   956.0516   6  27   0.0500   0.0596   0.0782  -0.0238   0.0175  -0.0300   0.00    0.0
2026/01/15 00:57:00.000   46.877100584    7.465062454   956.0592   6  27   0.0496   0.0593   0.0775  -0.0237   0.0174  -0.0298   0.00    0.0
2026/01/15 00:57:30.000   46.877100528    7.465062317   956.0666   6  27   0.0492   0.0590   0.0769  -0.0236   0.0173  -0.0296   0.00    0.0
2026/01/15 00:58:00.000   46.877100468    7.465062166   956.0747   6  27   0.0488   0.0587   0.0763  -0.0235   0.0172  -0.0294   0.00    0.0
2026/01/15 00:58:30.000   46.877100404    7.465062004   956.0830   6  27   0.0484   0.0584   0.0756  -0.0234   0.0172  -0.0292   0.00    0.0
2026/01/15 00:59:00.000   46.877100348    7.465061846   956.0919   6  27   0.0479   0.0580   0.0749  -0.0232   0.0171  -0.0291   0.00    0.0
2026/01/15 00:59:30.000   46.877100290    7.465061689   956.1004   6  27   0.0475   0.0577   0.0742  -0.0231   0.0170  -0.0289   0.00    0.0
2026/01/15 01:00:00.000   46.877100229    7.465061515   956.1082   6  27   0.0471   0.0574   0.0735  -0.0230   0.0169  -0.0287   0.00    0.0
2026/01/15 01:00:30.000   46.877100166    7.465061339   956.1156   6  27   0.0467   0.0571   0.0728  -0.0229   0.0168  -0.0285   0.00    0.0
2026/01/15 01:01:00.000   46.877100111    7.465061165   956.1226   6  27   0.0462   0.0568   0.0721  -0.0228   0.0167  -0.0283   0.00    0.0
2026/01/15 01:01:30.000   46.877100060    7.465060998   956.1290   6  27   0.0459   0.0565   0.0715  -0.0226   0.0167  -0.0281   0.00    0.0
2026/01/15 01:02:00.000   46.877100015    7.465060847   956.1352   6  27   0.0455   0.0562   0.0709  -0.0225   0.0166  -0.0279   0.00    0.0
2026/01/15 01:02:30.000   46.877099975    7.465060718   956.1406   6  27   0.0452   0.0559   0.0703  -0.0224   0.0165  -0.0278   0.00    0.0
2026/01/15 01:03:00.000   46.877099927    7.465060589   956.1458   6  27   0.0448   0.0556   0.0698  -0.0223   0.0164  -0.0276   0.00    0.0
2026/01/15 01:03:30.000   46.877099876    7.465060450   956.1515   6  27   0.0444   0.0553   0.0692  -0.0222   0.0164  -0.0274   0.00    0.0
2026/01/15 01:04:00.000   46.877099824    7.465060298   956.1576   6  27   0.0441   0.0550   0.0685  -0.0221   0.0163  -0.0273   0.00    0.0
2026/01/15 01:04:30.000   46.877099781    7.465060175   956.1619   6  29   0.0437   0.0547   0.0679  -0.0220   0.0162  -0.0271   0.00    0.0
2026/01/15 01:05:00.000   46.877099741    7.465060071   956.1655   6  28   0.0433   0.0544   0.0673  -0.0219   0.0161  -0.0269   0.00    0.0
2026/01/15 01:05:30.000   46.877099706    7.465059976   956.1690   6  28   0.0429   0.0541   0.0667  -0.0218   0.0160  -0.0267   0.00    0.0
2026/01/15 01:06:00.000   46.877099661    7.465059846   956.1741   6  27   0.0426   0.0539   0.0661  -0.0217   0.0159  -0.0265   0.00    0.0
2026/01/15 01:06:30.000   46.877099617    7.465059714   956.1791   6  27   0.0423   0.0536   0.0655  -0.0216   0.0158  -0.0264   0.00    0.0
2026/01/15 01:07:00.000   46.877099574    7.465059581   956.1838   6  27   0.0419   0.0533   0.0650  -0.0215   0.0157  -0.0262   0.00    0.0
2026/01/15 01:07:30.000   46.877099534    7.465059454   956.1888   6  27   0.0416   0.0531   0.0645  -0.0214   0.0156  -0.0261   0.00    0.0
2026/01/15 01:08:00.000   46.877099485    7.465059322   956.1945   6  27   0.0413   0.0528   0.0640  -0.0213   0.0156  -0.0259   0.00    0.0
2026/01/15 01:08:30.000   46.877099441    7.465059178   956.2000   6  27   0.0410   0.0525   0.0635  -0.0212   0.0155  -0.0258   0.00    0.0
2026/01/15 01:09:00.000   46.877099399    7.465059031   956.2055   6  27   0.0407   0.0523   0.0629  -0.0211   0.0154  -0.0256   0.00    0.0
2026/01/15 01:09:30.000   46.877099359    7.465058877   956.2107   6  27   0.0404   0.0520   0.0624  -0.0210   0.0153  -0.0254   0.00    0.0
2026/01/15 01:10:00.000   46.877099313    7.465058726   956.2156   6  27   0.0400   0.0517   0.0618  -0.0209   0.0152  -0.0253   0.00    0.0
2026/01/15 01:10:30.000   46.877099274    7.465058576   956.2219   6  26   0.0397   0.0515   0.0613  -0.0208   0.0151  -0.0251   0.00    0.0
2026/01/15 01:11:00.000   46.877099236    7.465058432   956.2278   6  26   0.0394   0.0512   0.0608  -0.0207   0.0150  -0.0249   0.00    0.0
2026/01/15 01:11:30.000   46.877099202    7.465058297   956.2333   6  27   0.0391   0.0510   0.0604  -0.0206   0.0150  -0.0247   0.00    0.0
2026/01/15 01:12:00.000   46.877099170    7.465058176   956.2378   6  27   0.0388   0.0507   0.0599  -0.0205   0.0149  -0.0246   0.00    0.0
2026/01/15 01:12:30.000   46.877099138    7.465058068   956.2423   6  28   0.0386   0.0505   0.0595  -0.0204   0.0148  -0.0244   0.00    0.0
2026/01/15 01:13:00.000   46.877099102    7.465057949   956.2470   6  28   0.0383   0.0503   0.0591  -0.0203   0.0148  -0.0243   0.00    0.0
2026/01/15 01:13:30.000   46.877099064    7.465057824   956.2519   6  28   0.0380   0.0500   0.0587  -0.0202   0.0147  -0.0241   0.00    0.0
2026/01/15 01:14:00.000   46.877099022    7.465057683   956.2567   6  29   0.0377   0.0498   0.0582  -0.0201   0.0146  -0.0239   0.00    0.0
2026/01/15 01:14:30.000   46.877098976    7.465057553   956.2614   6  29   0.0374   0.0495   0.0577  -0.0200   0.0146  -0.0238   0.00    0.0
2026/01/15 01:15:00.000   46.877098930    7.465057425   956.2662   6  29   0.0371   0.0493   0.0573  -0.0199   0.0145  -0.0236   0.00    0.0
2026/01/15 01:15:30.000   46.877098889    7.465057283   956.2709   6  30   0.0368   0.0490   0.0568  -0.0198   0.0144  -0.0234   0.00    0.0
2026/01/15 01:16:00.000   46.877098849    7.465057139   956.2751   6  30   0.0366   0.0488   0.0564  -0.0197   0.0143  -0.0233   0.00    0.0
2026/01/15 01:16:30.000   46.877098811    7.465056996   956.2792   6  31   0.0363   0.0485   0.0560  -0.0197   0.0143  -0.0231   0.00    0.0
2026/01/15 01:17:00.000   46.877098778    7.465056869   956.2827   6  31   0.0361   0.0483   0.0556  -0.0196   0.0142  -0.0230   0.00    0.0
2026/01/15 01:17:30.000   46.877098747    7.465056762   956.2864   6  30   0.0358   0.0481   0.0552  -0.0195   0.0142  -0.0228   0.00    0.0
2026/01/15 01:18:00.000   46.877098718    7.465056652   956.2900   6  30   0.0356   0.0479   0.0549  -0.0194   0.0141  -0.0227   0.00    0.0
2026/01/15 01:18:30.000   46.877098687    7.465056536   956.2938   6  30   0.0353   0.0476   0.0545  -0.0193   0.0141  -0.0225   0.00    0.0
2026/01/15 01:19:00.000   46.877098654    7.465056407   956.2974   6  30   0.0351   0.0474   0.0541  -0.0192   0.0140  -0.0223   0.00    0.0
2026/01/15 01:19:30.000   46.877098620    7.465056273   956.3007   6  30   0.0348   0.0472   0.0537  -0.0191   0.0139  -0.0222   0.00    0.0
2026/01/15 01:20:00.000   46.877098588    7.465056140   956.3046   6  30   0.0346   0.0469   0.0533  -0.0190   0.0139  -0.0220   0.00    0.0
2026/01/15 01:20:30.000   46.877098559    7.465056008   956.3084   6  30   0.0343   0.0467   0.0529  -0.0189   0.0138  -0.0218   0.00    0.0
2026/01/15 01:21:00.000   46.877098533    7.465055875   956.3110   6  30   0.0341   0.0465   0.0525  -0.0188   0.0137  -0.0217   0.00    0.0
2026/01/15 01:21:30.000   46.877098506    7.465055754   956.3135   6  30   0.0338   0.0463   0.0521  -0.0187   0.0137  -0.0215   0.00    0.0
2026/01/15 01:22:00.000   46.877098478    7.465055645   956.3157   6  30   0.0336   0.0460   0.0518  -0.0187   0.0136  -0.0214   0.00    0.0
2026/01/15 01:22:30.000   46.877098453    7.465055547   956.3178   6  30   0.0334   0.0458   0.0515  -0.0186   0.0136  -0.0212   0.00    0.0
2026/01/15 01:23:00.000   46.877098427    7.465055442   956.3198   6  30   0.0332   0.0456   0.0511  -0.0185   0.0135  -0.0211   0.00    0.0
2026/01/15 01:23:30.000   46.877098403    7.465055316   956.3222   6  30   0.0330   0.0454   0.0508  -0.0184   0.0135  -0.0210   0.00    0.0
2026/01/15 01:24:00.000   46.877098379    7.465055184   956.3254   6  30   0.0328   0.0452   0.0504  -0.0183   0.0134  -0.0208   0.00    0.0
2026/01/15 01:24:30.000   46.877098341    7.465055078   956.3304   6  29   0.0325   0.0450   0.0501  -0.0183   0.0134  -0.0207   0.00    0.0
2026/01/15 01:25:00.000   46.877098304    7.465054973   956.3350   6  29   0.0323   0.0448   0.0497  -0.0183   0.0135  -0.0206   0.00    0.0
2026/01/15 01:25:30.000   46.877098269    7.465054858   956.3390   6  29   0.0321   0.0446   0.0494  -0.0183   0.0135  -0.0205   0.00    0.0
2026/01/15 01:26:00.000   46.877098236    7.465054749   956.3427   6  29   0.0319   0.0445   0.0491  -0.0182   0.0135  -0.0204   0.00    0.0
2026/01/15 01:26:30.000   46.877098210    7.465054649   956.3464   6  29   0.0318   0.0443   0.0488  -0.0182   0.0135  -0.0203   0.00    0.0
2026/01/15 01:27:00.000   46.877098185    7.465054560   956.3498   6  29   0.0316   0.0441   0.0485  -0.0182   0.0136  -0.0202   0.00    0.0
2026/01/15 01:27:30.000   46.877098160    7.465054474   956.3532   6  29   0.0314   0.0440   0.0482  -0.0181   0.0136  -0.0202   0.00    0.0
2026/01/15 01:28:00.000   46.877098136    7.465054376   956.3563   6  29   0.0312   0.0438   0.0479  -0.0181   0.0136  -0.0201   0.00    0.0
2026/01/15 01:28:30.000   46.877098110    7.465054275   956.3592   6  29   0.0311   0.0436   0.0476  -0.0181   0.0136  -0.0200   0.00    0.0
2026/01/15 01:29:00.000   46.877098081    7.465054181   956.3620   6  29   0.0309   0.0435   0.0473  -0.0180   0.0136  -0.0199   0.00    0.0
2026/01/15 01:29:30.000   46.877098048    7.465054094   956.3651   6  29   0.0307   0.0433   0.0470  -0.0180   0.0136  -0.0198   0.00    0.0
2026/01/15 01:30:00.000   46.877098013    7.465054008   956.3678   6  29   0.0305   0.0431   0.0467  -0.0180   0.0136  -0.0197   0.00    0.0
2026/01/15 01:30:30.000   46.877097976    7.465053932   956.3702   6  29   0.0303   0.0429   0.0464  -0.0180   0.0136  -0.0196   0.00    0.0
2026/01/15 01:31:00.000   46.877097940    7.465053865   956.3724   6  29   0.0302   0.0428   0.0461  -0.0179   0.0136  -0.0195   0.00    0.0
2026/01/15 01:31:30.000   46.877097907    7.465053799   956.3742   6  29   0.0300   0.0426   0.0458  -0.0179   0.0137  -0.0194   0.00    0.0
2026/01/15 01:32:00.000   46.877097875    7.465053721   956.3760   6  29   0.0298   0.0424   0.0455  -0.0179   0.0137  -0.0193   0.00    0.0
2026/01/15 01:32:30.000   46.877097847    7.465053647   956.3775   6  29   0.0297   0.0423   0.0453  -0.0178   0.0137  -0.0193   0.00    0.0
2026/01/15 01:33:00.000   46.877097822    7.465053573   956.3805   6  28   0.0295   0.0421   0.0451  -0.0178   0.0137  -0.0192   0.00    0.0
2026/01/15 01:33:30.000   46.877097795    7.465053492   956.3835   6  29   0.0294   0.0420   0.0448  -0.0178   0.0137  -0.0191   0.00    0.0
2026/01/15 01:34:00.000   46.877097769    7.465053398   956.3868   6  29   0.0292   0.0418   0.0445  -0.0177   0.0137  -0.0190   0.00    0.0
2026/01/15 01:34:30.000   46.877097743    7.465053298   956.3898   6  29   0.0290   0.0416   0.0443  -0.0177   0.0137  -0.0189   0.00    0.0
2026/01/15 01:35:00.000   46.877097716    7.465053197   956.3927   6  29   0.0289   0.0415   0.0440  -0.0176   0.0138  -0.0188   0.00    0.0
2026/01/15 01:35:30.000   46.877097688    7.465053099   956.3953   6  29   0.0287   0.0413   0.0437  -0.0176   0.0138  -0.0187   0.00    0.0
2026/01/15 01:36:00.000   46.877097661    7.465053007   956.3979   6  29   0.0285   0.0411   0.0435  -0.0176   0.0138  -0.0186   0.00    0.0
2026/01/15 01:36:30.000   46.877097637    7.465052915   956.4003   6  28   0.0284   0.0410   0.0432  -0.0175   0.0138  -0.0185   0.00    0.0
2026/01/15 01:37:00.000   46.877097614    7.465052830   956.4025   6  28   0.0282   0.0408   0.0430  -0.0175   0.0138  -0.0185   0.00    0.0
2026/01/15 01:37:30.000   46.877097594    7.465052756   956.4047   6  28   0.0281   0.0407   0.0428  -0.0174   0.0138  -0.0184   0.00    0.0
2026/01/15 01:38:00.000   46.877097572    7.465052684   956.4070   6  28   0.0280   0.0405   0.0426  -0.0174   0.0138  -0.0183   0.00    0.0
2026/01/15 01:38:30.000   46.877097549    7.465052600   956.4092   6  28   0.0278   0.0404   0.0424  -0.0174   0.0139  -0.0183   0.00    0.0
2026/01/15 01:39:00.000   46.877097527    7.465052512   956.4113   6  28   0.0277   0.0402   0.0422  -0.0173   0.0139  -0.0182   0.00    0.0
2026/01/15 01:39:30.000   46.877097504    7.465052431   956.4134   6  28   0.0275   0.0401   0.0420  -0.0173   0.0139  -0.0181   0.00    0.0
2026/01/15 01:40:00.000   46.877097479    7.465052350   956.4152   6  28   0.0274   0.0399   0.0417  -0.0172   0.0139  -0.0180   0.00    0.0
2026/01/15 01:40:30.000   46.877097452    7.465052275   956.4168   6  29   0.0272   0.0398   0.0415  -0.0172   0.0139  -0.0180   0.00    0.0
2026/01/15 01:41:00.000   46.877097427    7.465052196   956.4179   6  30   0.0271   0.0396   0.0413  -0.0172   0.0139  -0.0179   0.00    0.0
2026/01/15 01:41:30.000   46.877097404    7.465052124   956.4193   6  30   0.0269   0.0394   0.0411  -0.0171   0.0139  -0.0178   0.00    0.0
2026/01/15 01:42:00.000   46.877097383    7.465052052   956.4207   6  30   0.0268   0.0393   0.0409  -0.0171   0.0139  -0.0177   0.00    0.0
2026/01/15 01:42:30.000   46.877097363    7.465051988   956.4219   6  30   0.0267   0.0392   0.0407  -0.0170   0.0139  -0.0177   0.00    0.0
2026/01/15 01:43:00.000   46.877097345    7.465051924   956.4236   6  30   0.0266   0.0390   0.0405  -0.0170   0.0139  -0.0176   0.00    0.0
2026/01/15 01:43:30.000   46.877097326    7.465051860   956.4256   6  30   0.0264   0.0389   0.0403  -0.0169   0.0139  -0.0175   0.00    0.0
2026/01/15 01:44:00.000   46.877097307    7.465051780   956.4276   6  29   0.0263   0.0387   0.0401  -0.0169   0.0139  -0.0174   0.00    0.0
2026/01/15 01:44:30.000   46.877097289    7.465051690   956.4297   6  29   0.0262   0.0386   0.0399  -0.0169   0.0139  -0.0174   0.00    0.0
2026/01/15 01:45:00.000   46.877097274    7.465051593   956.4317   6  29   0.0260   0.0384   0.0397  -0.0168   0.0139  -0.0173   0.00    0.0
2026/01/15 01:45:30.000   46.877097261    7.465051497   956.4336   6  29   0.0259   0.0383   0.0395  -0.0168   0.0139  -0.0172   0.00    0.0
2026/01/15 01:46:00.000   46.877097251    7.465051396   956.4351   6  29   0.0258   0.0381   0.0393  -0.0167   0.0139  -0.0171   0.00    0.0
2026/01/15 01:46:30.000   46.877097242    7.465051301   956.4364   6  29   0.0256   0.0380   0.0391  -0.0167   0.0139  -0.0170   0.00    0.0
2026/01/15 01:47:00.000   46.877097223    7.465051237   956.4382   6  28   0.0255   0.0379   0.0389  -0.0166   0.0139  -0.0170   0.00    0.0
2026/01/15 01:47:30.000   46.877097204    7.465051179   956.4399   6  28   0.0254   0.0378   0.0388  -0.0166   0.0140  -0.0169   0.00    0.0
2026/01/15 01:48:00.000   46.877097183    7.465051121   956.4420   6  28   0.0253   0.0376   0.0386  -0.0166   0.0140  -0.0169   0.00    0.0
2026/01/15 01:48:30.000   46.877097160    7.465051055   956.4441   6  28   0.0252   0.0375   0.0384  -0.0166   0.0140  -0.0168   0.00    0.0
2026/01/15 01:49:00.000   46.877097139    7.465050982   956.4462   6  28   0.0251   0.0374   0.0382  -0.0165   0.0140  -0.0167   0.00    0.0
2026/01/15 01:49:30.000   46.877097118    7.465050908   956.4483   6  28   0.0250   0.0373   0.0380  -0.0165   0.0140  -0.0166   0.00    0.0
2026/01/15 01:50:00.000   46.877097097    7.465050833   956.4501   6  28   0.0249   0.0372   0.0378  -0.0165   0.0140  -0.0166   0.00    0.0
2026/01/15 01:50:30.000   46.877097075    7.465050761   956.4519   6  28   0.0247   0.0370   0.0376  -0.0165   0.0140  -0.0165   0.00    0.0
2026/01/15 01:51:00.000   46.877097055    7.465050687   956.4533   6  28   0.0246   0.0369   0.0375  -0.0165   0.0141  -0.0164   0.00    0.0
2026/01/15 01:51:30.000   46.877097036    7.465050615   956.4547   6  27   0.0245   0.0368   0.0373  -0.0164   0.0141  -0.0164   0.00    0.0
2026/01/15 01:52:00.000   46.877097019    7.465050544   956.4560   6  27   0.0244   0.0367   0.0372  -0.0164   0.0141  -0.0163   0.00    0.0
2026/01/15 01:52:30.000   46.877097004    7.465050476   956.4569   6  27   0.0243   0.0366   0.0370  -0.0164   0.0141  -0.0163   0.00    0.0
2026/01/15 01:53:00.000   46.877096988    7.465050413   956.4579   6  26   0.0242   0.0365   0.0369  -0.0164   0.0141  -0.0162   0.00    0.0
2026/01/15 01:53:30.000   46.877096970    7.465050348   956.4589   6  26   0.0241   0.0364   0.0367  -0.0163   0.0141  -0.0161   0.00    0.0
2026/01/15 01:54:00.000   46.877096950    7.465050281   956.4601   6  26   0.0240   0.0362   0.0366  -0.0163   0.0141  -0.0161   0.00    0.0
2026/01/15 01:54:30.000   46.877096931    7.465050210   956.4615   6  26   0.0239   0.0361   0.0364  -0.0163   0.0141  -0.0160   0.00    0.0
2026/01/15 01:55:00.000   46.877096910    7.465050149   956.4633   6  26   0.0238   0.0360   0.0363  -0.0163   0.0141  -0.0159   0.00    0.0
2026/01/15 01:55:30.000   46.877096888    7.465050094   956.4653   6  26   0.0237   0.0359   0.0361  -0.0162   0.0141  -0.0159   0.00    0.0
2026/01/15 01:56:00.000   46.877096868    7.465050040   956.4671   6  26   0.0236   0.0358   0.0359  -0.0162   0.0141  -0.0158   0.00    0.0
2026/01/15 01:56:30.000   46.877096851    7.465049986   956.4686   6  26   0.0235   0.0357   0.0358  -0.0162   0.0142  -0.0158   0.00    0.0
2026/01/15 01:57:00.000   46.877096836    7.465049934   956.4699   6  26   0.0234   0.0356   0.0357  -0.0162   0.0142  -0.0157   0.00    0.0
2026/01/15 01:57:30.000   46.877096825    7.465049879   956.4709   6  26   0.0233   0.0355   0.0355  -0.0161   0.0142  -0.0156   0.00    0.0
2026/01/15 01:58:00.000   46.877096813    7.465049819   956.4720   6  26   0.0232   0.0353   0.0354  -0.0161   0.0142  -0.0156   0.00    0.0
2026/01/15 01:58:30.000   46.877096798    7.465049746   956.4730   6  26   0.0231   0.0352   0.0352  -0.0161   0.0142  -0.0155   0.00    0.0
2026/01/15 01:59:00.000   46.877096784    7.465049666   956.4742   6  27   0.0230   0.0351   0.0351  -0.0161   0.0142  -0.0155   0.00    0.0
2026/01/15 01:59:30.000   46.877096771    7.465049589   956.4754   6  27   0.0229   0.0350   0.0349  -0.0160   0.0141  -0.0154   0.00    0.0
2026/01/15 02:00:00.000   46.877096757    7.465049518   956.4767   6  27   0.0228   0.0349   0.0348  -0.0160   0.0141  -0.0154   0.00    0.0
2026/01/15 02:00:30.000   46.877096741    7.465049450   956.4779   6  27   0.0227   0.0348   0.0346  -0.0160   0.0141  -0.0153   0.00    0.0
2026/01/15 02:01:00.000   46.877096726    7.465049379   956.4791   6  28   0.0226   0.0347   0.0345  -0.0159   0.0141  -0.0152   0.00    0.0
2026/01/15 02:01:30.000   46.877096714    7.465049310   956.4799   6  28   0.0225   0.0345   0.0343  -0.0159   0.0141  -0.0152   0.00    0.0
2026/01/15 02:02:00.000   46.877096701    7.465049251   956.4804   6  28   0.0224   0.0344   0.0342  -0.0159   0.0141  -0.0151   0.00    0.0
2026/01/15 02:02:30.000   46.877096688    7.465049201   956.4810   6  28   0.0224   0.0343   0.0341  -0.0158   0.0141  -0.0151   0.00    0.0
2026/01/15 02:03:00.000   46.877096675    7.465049141   956.4815   6  28   0.0223   0.0342   0.0339  -0.0158   0.0141  -0.0150   0.00    0.0
2026/01/15 02:03:30.000   46.877096665    7.465049072   956.4819   6  28   0.0222   0.0341   0.0338  -0.0158   0.0141  -0.0150   0.00    0.0
2026/01/15 02:04:00.000   46.877096653    7.465049000   956.4823   6  28   0.0221   0.0340   0.0336  -0.0158   0.0140  -0.0149   0.00    0.0
2026/01/15 02:04:30.000   46.877096642    7.465048916   956.4826   6  28   0.0220   0.0339   0.0335  -0.0157   0.0140  -0.0149   0.00    0.0
2026/01/15 02:05:00.000   46.877096631    7.465048833   956.4830   6  28   0.0219   0.0338   0.0333  -0.0157   0.0140  -0.0148   0.00    0.0
2026/01/15 02:05:30.000   46.877096619    7.465048760   956.4837   6  29   0.0218   0.0336   0.0332  -0.0157   0.0140  -0.0147   0.00    0.0
2026/01/15 02:06:00.000   46.877096608    7.465048691   956.4845   6  29   0.0217   0.0335   0.0331  -0.0156   0.0140  -0.0147   0.00    0.0
2026/01/15 02:06:30.000   46.877096598    7.465048624   956.4850   6  29   0.0216   0.0334   0.0329  -0.0156   0.0139  -0.0146   0.00    0.0
2026/01/15 02:07:00.000   46.877096588    7.465048563   956.4855   6  29   0.0216   0.0333   0.0328  -0.0156   0.0139  -0.0146   0.00    0.0
2026/01/15 02:07:30.000   46.877096579    7.465048502   956.4857   6  29   0.0215   0.0332   0.0327  -0.0155   0.0139  -0.0145   0.00    0.0
2026/01/15 02:08:00.000   46.877096568    7.465048434   956.4856   6  29   0.0214   0.0331   0.0325  -0.0155   0.0139  -0.0145   0.00    0.0
2026/01/15 02:08:30.000   46.877096557    7.465048369   956.4860   6  29   0.0213   0.0330   0.0324  -0.0155   0.0139  -0.0145   0.00    0.0
2026/01/15 02:09:00.000   46.877096545    7.465048298   956.4863   6  29   0.0212   0.0329   0.0323  -0.0154   0.0138  -0.0144   0.00    0.0
2026/01/15 02:09:30.000   46.877096534    7.465048227   956.4867   6  29   0.0211   0.0328   0.0321  -0.0154   0.0138  -0.0143   0.00    0.0
2026/01/15 02:10:00.000   46.877096525    7.465048146   956.4864   6  29   0.0211   0.0326   0.0320  -0.0154   0.0138  -0.0143   0.00    0.0
2026/01/15 02:10:30.000   46.877096517    7.465048071   956.4864   6  29   0.0210   0.0325   0.0318  -0.0153   0.0138  -0.0142   0.00    0.0
2026/01/15 02:11:00.000   46.877096509    7.465048003   956.4865   6  29   0.0209   0.0324   0.0317  -0.0153   0.0137  -0.0142   0.00    0.0
2026/01/15 02:11:30.000   46.877096502    7.465047941   956.4868   6  30   0.0208   0.0323   0.0316  -0.0153   0.0137  -0.0141   0.00    0.0
2026/01/15 02:12:00.000   46.877096496    7.465047881   956.4876   6  29   0.0207   0.0322   0.0315  -0.0152   0.0137  -0.0141   0.00    0.0
2026/01/15 02:12:30.000   46.877096490    7.465047825   956.4882   6  29   0.0207   0.0321   0.0314  -0.0152   0.0137  -0.0141   0.00    0.0
2026/01/15 02:13:00.000   46.877096483    7.465047767   956.4887   6  29   0.0206   0.0320   0.0313  -0.0152   0.0137  -0.0140   0.00    0.0
2026/01/15 02:13:30.000   46.877096476    7.465047706   956.4893   6  29   0.0205   0.0319   0.0312  -0.0151   0.0137  -0.0140   0.00    0.0
2026/01/15 02:14:00.000   46.877096467    7.465047643   956.4901   6  29   0.0204   0.0318   0.0311  -0.0151   0.0137  -0.0139   0.00    0.0
2026/01/15 02:14:30.000   46.877096458    7.465047577   956.4908   6  29   0.0204   0.0317   0.0310  -0.0151   0.0137  -0.0139   0.00    0.0
2026/01/15 02:15:00.000   46.877096450    7.465047508   956.4915   6  29   0.0203   0.0316   0.0309  -0.0150   0.0137  -0.0138   0.00    0.0
2026/01/15 02:15:30.000   46.877096443    7.465047437   956.4920   6  29   0.0202   0.0315   0.0307  -0.0150   0.0136  -0.0138   0.00    0.0
2026/01/15 02:16:00.000   46.877096438    7.465047370   956.4924   6  29   0.0201   0.0314   0.0306  -0.0150   0.0136  -0.0137   0.00    0.0
2026/01/15 02:16:30.000   46.877096433    7.465047303   956.4928   6  29   0.0200   0.0313   0.0305  -0.0149   0.0136  -0.0137   0.00    0.0
2026/01/15 02:17:00.000   46.877096430    7.465047235   956.4928   6  29   0.0200   0.0312   0.0304  -0.0149   0.0136  -0.0136   0.00    0.0
2026/01/15 02:17:30.000   46.877096427    7.465047173   956.4928   6  29   0.0199   0.0311   0.0304  -0.0149   0.0136  -0.0136   0.00    0.0
2026/01/15 02:18:00.000   46.877096424    7.465047106   956.4929   6  29   0.0198   0.0310   0.0303  -0.0148   0.0136  -0.0135   0.00    0.0
2026/01/15 02:18:30.000   46.877096420    7.465047039   956.4932   6  29   0.0198   0.0309   0.0302  -0.0148   0.0136  -0.0135   0.00    0.0
2026/01/15 02:19:00.000   46.877096417    7.465046967   956.4934   6  29   0.0197   0.0308   0.0301  -0.0148   0.0136  -0.0134   0.00    0.0
2026/01/15 02:19:30.000   46.877096412    7.465046898   956.4936   6  29   0.0196   0.0307   0.0299  -0.0147   0.0136  -0.0134   0.00    0.0
2026/01/15 02:20:00.000   46.877096407    7.465046828   956.4936   6  29   0.0195   0.0306   0.0298  -0.0147   0.0135  -0.0134   0.00    0.0
2026/01/15 02:20:30.000   46.877096402    7.465046758   956.4937   6  29   0.0195   0.0304   0.0297  -0.0147   0.0135  -0.0133   0.00    0.0
2026/01/15 02:21:00.000   46.877096397    7.465046689   956.4937   6  29   0.0194   0.0303   0.0296  -0.0146   0.0135  -0.0133   0.00    0.0
2026/01/15 02:21:30.000   46.877096393    7.465046626   956.4937   6  29   0.0193   0.0302   0.0295  -0.0146   0.0135  -0.0132   0.00    0.0
2026/01/15 02:22:00.000   46.877096389    7.465046565   956.4937   6  29   0.0193   0.0301   0.0294  -0.0145   0.0135  -0.0132   0.00    0.0
2026/01/15 02:22:30.000   46.877096385    7.465046512   956.4936   6  29   0.0192   0.0301   0.0294  -0.0145   0.0135  -0.0132   0.00    0.0
2026/01/15 02:23:00.000   46.877096380    7.465046460   956.4936   6  29   0.0191   0.0300   0.0293  -0.0145   0.0134  -0.0131   0.00    0.0
2026/01/15 02:23:30.000   46.877096375    7.465046403   956.4935   6  29   0.0191   0.0299   0.0292  -0.0144   0.0134  -0.0131   0.00    0.0
2026/01/15 02:24:00.000   46.877096371    7.465046341   956.4932   6  29   0.0190   0.0298   0.0291  -0.0144   0.0134  -0.0130   0.00    0.0
2026/01/15 02:24:30.000   46.877096368    7.465046275   956.4928   6  29   0.0189   0.0297   0.0290  -0.0144   0.0134  -0.0130   0.00    0.0
2026/01/15 02:25:00.000   46.877096363    7.465046214   956.4926   6  29   0.0189   0.0296   0.0289  -0.0143   0.0134  -0.0130   0.00    0.0
2026/01/15 02:25:30.000   46.877096361    7.465046147   956.4923   6  29   0.0188   0.0294   0.0288  -0.0143   0.0133  -0.0129   0.00    0.0
2026/01/15 02:26:00.000   46.877096358    7.465046082   956.4922   6  28   0.0187   0.0293   0.0287  -0.0143   0.0133  -0.0129   0.00    0.0
2026/01/15 02:26:30.000   46.877096356    7.465046020   956.4921   6  28   0.0186   0.0292   0.0286  -0.0142   0.0133  -0.0128   0.00    0.0
2026/01/15 02:27:00.000   46.877096355    7.465045963   956.4920   6  28   0.0186   0.0292   0.0285  -0.0142   0.0133  -0.0128   0.00    0.0
2026/01/15 02:27:30.000   46.877096353    7.465045913   956.4921   6  28   0.0185   0.0291   0.0284  -0.0142   0.0133  -0.0127   0.00    0.0
2026/01/15 02:28:00.000   46.877096351    7.465045859   956.4922   6  28   0.0185   0.0290   0.0284  -0.0141   0.0132  -0.0127   0.00    0.0
2026/01/15 02:28:30.000   46.877096351    7.465045800   956.4921   6  28   0.0184   0.0289   0.0283  -0.0141   0.0132  -0.0127   0.00    0.0
2026/01/15 02:29:00.000   46.877096350    7.465045742   956.4922   6  28   0.0183   0.0288   0.0282  -0.0141   0.0132  -0.0126   0.00    0.0
2026/01/15 02:29:30.000   46.877096347    7.465045685   956.4924   6  28   0.0183   0.0287   0.0281  -0.0140   0.0132  -0.0126   0.00    0.0
2026/01/15 02:30:00.000   46.877096344    7.465045629   956.4925   6  28   0.0182   0.0286   0.0280  -0.0140   0.0131  -0.0125   0.00    0.0
2026/01/15 02:30:30.000   46.877096342    7.465045571   956.4925   6  28   0.0181   0.0285   0.0279  -0.0140   0.0131  -0.0125   0.00    0.0
2026/01/15 02:31:00.000   46.877096341    7.465045515   956.4926   6  28   0.0181   0.0284   0.0278  -0.0139   0.0131  -0.0125   0.00    0.0
2026/01/15 02:31:30.000   46.877096340    7.465045461   956.4925   6  28   0.0180   0.0283   0.0278  -0.0139   0.0131  -0.0124   0.00    0.0
2026/01/15 02:32:00.000   46.877096338    7.465045412   956.4924   6  28   0.0180   0.0282   0.0277  -0.0139   0.0131  -0.0124   0.00    0.0
2026/01/15 02:32:30.000   46.877096337    7.465045363   956.4922   6  28   0.0179   0.0281   0.0276  -0.0138   0.0130  -0.0123   0.00    0.0
2026/01/15 02:33:00.000   46.877096334    7.465045317   956.4922   6  28   0.0179   0.0280   0.0275  -0.0138   0.0130  -0.0123   0.00    0.0
2026/01/15 02:33:30.000   46.877096331    7.465045267   956.4921   6  28   0.0178   0.0279   0.0275  -0.0138   0.0130  -0.0123   0.00    0.0
2026/01/15 02:34:00.000   46.877096330    7.465045212   956.4920   6  28   0.0177   0.0278   0.0274  -0.0137   0.0130  -0.0122   0.00    0.0
2026/01/15 02:34:30.000   46.877096329    7.465045153   956.4918   6  28   0.0177   0.0277   0.0273  -0.0137   0.0129  -0.0122   0.00    0.0
2026/01/15 02:35:00.000   46.877096328    7.465045095   956.4915   6  28   0.0176   0.0276   0.0272  -0.0136   0.0129  -0.0122   0.00    0.0
2026/01/15 02:35:30.000   46.877096327    7.465045039   956.4913   6  28   0.0176   0.0275   0.0271  -0.0136   0.0129  -0.0121   0.00    0.0
2026/01/15 02:36:00.000   46.877096324    7.465044989   956.4911   6  28   0.0175   0.0274   0.0270  -0.0136   0.0128  -0.0121   0.00    0.0
2026/01/15 02:36:30.000   46.877096322    7.465044940   956.4909   6  28   0.0174   0.0273   0.0269  -0.0135   0.0128  -0.0121   0.00    0.0
2026/01/15 02:37:00.000   46.877096320    7.465044897   956.4908   6  28   0.0174   0.0273   0.0269  -0.0135   0.0128  -0.0120   0.00    0.0
2026/01/15 02:37:30.000   46.877096318    7.465044861   956.4907   6  28   0.0173   0.0272   0.0268  -0.0135   0.0128  -0.0120   0.00    0.0
2026/01/15 02:38:00.000   46.877096316    7.465044823   956.4908   6  28   0.0173   0.0271   0.0267  -0.0134   0.0127  -0.0120   0.00    0.0
2026/01/15 02:38:30.000   46.877096315    7.465044775   956.4907   6  28   0.0172   0.0270   0.0266  -0.0134   0.0127  -0.0119   0.00    0.0
2026/01/15 02:39:00.000   46.877096315    7.465044718   956.4904   6  28   0.0172   0.0269   0.0266  -0.0134   0.0127  -0.0119   0.00    0.0
2026/01/15 02:39:30.000   46.877096314    7.465044661   956.4901   6  28   0.0171   0.0268   0.0265  -0.0133   0.0127  -0.0119   0.00    0.0
2026/01/15 02:40:00.000   46.877096314    7.465044604   956.4897   6  28   0.0171   0.0267   0.0264  -0.0133   0.0126  -0.0118   0.00    0.0
2026/01/15 02:40:30.000   46.877096314    7.465044551   956.4892   6  28   0.0170   0.0266   0.0263  -0.0132   0.0126  -0.0118   0.00    0.0
2026/01/15 02:41:00.000   46.877096314    7.465044498   956.4887   6  28   0.0169   0.0265   0.0262  -0.0132   0.0126  -0.0118   0.00    0.0
2026/01/15 02:41:30.000   46.877096314    7.465044444   956.4881   6  28   0.0169   0.0264   0.0262  -0.0132   0.0125  -0.0117   0.00    0.0
2026/01/15 02:42:00.000   46.877096314    7.465044394   956.4876   6  28   0.0168   0.0264   0.0261  -0.0131   0.0125  -0.0117   0.00    0.0
2026/01/15 02:42:30.000   46.877096314    7.465044350   956.4872   6  28   0.0168   0.0263   0.0260  -0.0131   0.0125  -0.0117   0.00    0.0
2026/01/15 02:43:00.000   46.877096314    7.465044302   956.4867   6  28   0.0167   0.0262   0.0259  -0.0131   0.0125  -0.0116   0.00    0.0
2026/01/15 02:43:30.000   46.877096315    7.465044247   956.4860   6  28   0.0167   0.0261   0.0259  -0.0130   0.0124  -0.0116   0.00    0.0
2026/01/15 02:44:00.000   46.877096316    7.465044194   956.4855   6  29   0.0166   0.0260   0.0258  -0.0130   0.0124  -0.0116   0.00    0.0
2026/01/15 02:44:30.000   46.877096317    7.465044141   956.4850   6  29   0.0166   0.0259   0.0257  -0.0130   0.0124  -0.0115   0.00    0.0
2026/01/15 02:45:00.000   46.877096319    7.465044085   956.4845   6  29   0.0165   0.0258   0.0256  -0.0129   0.0123  -0.0115   0.00    0.0
2026/01/15 02:45:30.000   46.877096322    7.465044023   956.4837   6  29   0.0165   0.0257   0.0255  -0.0129   0.0123  -0.0115   0.00    0.0
2026/01/15 02:46:00.000   46.877096325    7.465043968   956.4831   6  29   0.0164   0.0256   0.0254  -0.0129   0.0123  -0.0115   0.00    0.0
2026/01/15 02:46:30.000   46.877096328    7.465043914   956.4823   6  29   0.0164   0.0256   0.0254  -0.0128   0.0122  -0.0114   0.00    0.0
2026/01/15 02:47:00.000   46.877096331    7.465043861   956.4815   6  29   0.0163   0.0255   0.0253  -0.0128   0.0122  -0.0114   0.00    0.0
2026/01/15 02:47:30.000   46.877096333    7.465043814   956.4808   6  29   0.0163   0.0254   0.0252  -0.0128   0.0122  -0.0114   0.00    0.0
2026/01/15 02:48:00.000   46.877096334    7.465043767   956.4802   6  29   0.0162   0.0253   0.0252  -0.0127   0.0121  -0.0113   0.00    0.0
2026/01/15 02:48:30.000   46.877096336    7.465043714   956.4795   6  29   0.0162   0.0252   0.0251  -0.0127   0.0121  -0.0113   0.00    0.0
2026/01/15 02:49:00.000   46.877096339    7.465043660   956.4787   6  29   0.0161   0.0251   0.0250  -0.0126   0.0121  -0.0113   0.00    0.0
2026/01/15 02:49:30.000   46.877096342    7.465043605   956.4779   6  29   0.0161   0.0250   0.0249  -0.0126   0.0120  -0.0113   0.00    0.0
2026/01/15 02:50:00.000   46.877096344    7.465043550   956.4770   6  29   0.0160   0.0250   0.0248  -0.0126   0.0120  -0.0112   0.00    0.0
2026/01/15 02:50:30.000   46.877096347    7.465043500   956.4764   6  29   0.0160   0.0249   0.0248  -0.0125   0.0120  -0.0112   0.00    0.0
2026/01/15 02:51:00.000   46.877096349    7.465043450   956.4758   6  29   0.0159   0.0248   0.0247  -0.0125   0.0119  -0.0112   0.00    0.0
2026/01/15 02:51:30.000   46.877096350    7.465043408   956.4753   6  29   0.0159   0.0247   0.0246  -0.0125   0.0119  -0.0111   0.00    0.0
2026/01/15 02:52:00.000   46.877096353    7.465043373   956.4747   6  30   0.0158   0.0246   0.0245  -0.0124   0.0119  -0.0111   0.00    0.0
2026/01/15 02:52:30.000   46.877096354    7.465043340   956.4744   6  30   0.0158   0.0245   0.0245  -0.0124   0.0118  -0.0111   0.00    0.0
2026/01/15 02:53:00.000   46.877096356    7.465043299   956.4739   6  30   0.0157   0.0245   0.0244  -0.0124   0.0118  -0.0111   0.00    0.0
2026/01/15 02:53:30.000   46.877096360    7.465043251   956.4733   6  30   0.0157   0.0244   0.0243  -0.0123   0.0118  -0.0110   0.00    0.0
2026/01/15 02:54:00.000   46.877096365    7.465043199   956.4724   6  30   0.0156   0.0243   0.0242  -0.0123   0.0117  -0.0110   0.00    0.0
2026/01/15 02:54:30.000   46.877096369    7.465043145   956.4716   6  30   0.0156   0.0242   0.0242  -0.0122   0.0117  -0.0110   0.00    0.0
2026/01/15 02:55:00.000   46.877096373    7.465043092   956.4707   6  30   0.0155   0.0241   0.0241  -0.0122   0.0117  -0.0110   0.00    0.0
2026/01/15 02:55:30.000   46.877096378    7.465043041   956.4695   6  31   0.0155   0.0240   0.0240  -0.0122   0.0116  -0.0109   0.00    0.0
2026/01/15 02:56:00.000   46.877096383    7.465042995   956.4685   6  31   0.0154   0.0239   0.0239  -0.0121   0.0116  -0.0109   0.00    0.0
2026/01/15 02:56:30.000   46.877096387    7.465042951   956.4675   6  30   0.0154   0.0239   0.0239  -0.0121   0.0115  -0.0109   0.00    0.0
2026/01/15 02:57:00.000   46.877096392    7.465042910   956.4665   6  30   0.0154   0.0238   0.0238  -0.0121   0.0115  -0.0109   0.00    0.0
2026/01/15 02:57:30.000   46.877096396    7.465042872   956.4653   6  30   0.0153   0.0237   0.0237  -0.0120   0.0115  -0.0108   0.00    0.0
2026/01/15 02:58:00.000   46.877096402    7.465042828   956.4641   6  30   0.0153   0.0236   0.0237  -0.0120   0.0114  -0.0108   0.00    0.0
2026/01/15 02:58:30.000   46.877096408    7.465042778   956.4627   6  30   0.0152   0.0236   0.0236  -0.0120   0.0114  -0.0108   0.00    0.0
2026/01/15 02:59:00.000   46.877096413    7.465042725   956.4614   6  30   0.0152   0.0235   0.0235  -0.0119   0.0114  -0.0108   0.00    0.0
2026/01/15 02:59:30.000   46.877096418    7.465042672   956.4600   6  30   0.0151   0.0234   0.0235  -0.0119   0.0113  -0.0107   0.00    0.0
2026/01/15 03:00:00.000   46.877096423    7.465042619   956.4588   6  30   0.0151   0.0233   0.0234  -0.0118   0.0113  -0.0107   0.00    0.0
2026/01/15 03:00:30.000   46.877096429    7.465042570   956.4577   6  30   0.0150   0.0232   0.0233  -0.0118   0.0113  -0.0107   0.00    0.0
2026/01/15 03:01:00.000   46.877096432    7.465042525   956.4566   6  28   0.0150   0.0231   0.0233  -0.0118   0.0112  -0.0107   0.00    0.0
2026/01/15 03:01:30.000   46.877096434    7.465042481   956.4558   6  28   0.0150   0.0231   0.0232  -0.0117   0.0112  -0.0107   0.00    0.0
2026/01/15 03:02:00.000   46.877096437    7.465042440   956.4548   6  28   0.0149   0.0230   0.0232  -0.0117   0.0111  -0.0106   0.00    0.0
2026/01/15 03:02:30.000   46.877096439    7.465042401   956.4538   6  28   0.0149   0.0229   0.0231  -0.0117   0.0111  -0.0106   0.00    0.0
2026/01/15 03:03:00.000   46.877096442    7.465042360   956.4528   6  28   0.0148   0.0229   0.0231  -0.0116   0.0110  -0.0106   0.00    0.0
2026/01/15 03:03:30.000   46.877096446    7.465042319   956.4514   6  29   0.0148   0.0228   0.0230  -0.0116   0.0110  -0.0106   0.00    0.0
2026/01/15 03:04:00.000   46.877096451    7.465042275   956.4499   6  29   0.0148   0.0227   0.0229  -0.0116   0.0109  -0.0105   0.00    0.0
2026/01/15 03:04:30.000   46.877096457    7.465042227   956.4485   6  28   0.0147   0.0226   0.0229  -0.0115   0.0109  -0.0105   0.00    0.0
2026/01/15 03:05:00.000   46.877096464    7.465042177   956.4471   6  29   0.0147   0.0226   0.0228  -0.0115   0.0108  -0.0105   0.00    0.0
2026/01/15 03:05:30.000   46.877096469    7.465042128   956.4458   6  29   0.0146   0.0225   0.0228  -0.0115   0.0108  -0.0105   0.00    0.0
2026/01/15 03:06:00.000   46.877096475    7.465042079   956.4444   6  29   0.0146   0.0224   0.0227  -0.0114   0.0107  -0.0104   0.00    0.0
2026/01/15 03:06:30.000   46.877096479    7.465042032   956.4432   6  30   0.0146   0.0223   0.0226  -0.0114   0.0107  -0.0104   0.00    0.0
2026/01/15 03:07:00.000   46.877096484    7.465041986   956.4420   6  30   0.0145   0.0223   0.0226  -0.0114   0.0106  -0.0104   0.00    0.0
2026/01/15 03:07:30.000   46.877096489    7.465041947   956.4408   6  30   0.0145   0.0222   0.0225  -0.0113   0.0106  -0.0104   0.00    0.0
2026/01/15 03:08:00.000   46.877096493    7.465041905   956.4396   6  30   0.0144   0.0221   0.0225  -0.0113   0.0105  -0.0103   0.00    0.0
2026/01/15 03:08:30.000   46.877096497    7.465041862   956.4383   6  30   0.0144   0.0221   0.0224  -0.0113   0.0105  -0.0103   0.00    0.0
2026/01/15 03:09:00.000   46.877096502    7.465041818   956.4370   6  30   0.0144   0.0220   0.0224  -0.0112   0.0105  -0.0103   0.00    0.0
2026/01/15 03:09:30.000   46.877096507    7.465041773   956.4358   6  30   0.0143   0.0219   0.0223  -0.0112   0.0104  -0.0103   0.00    0.0
2026/01/15 03:10:00.000   46.877096512    7.465041732   956.4347   6  30   0.0143   0.0219   0.0222  -0.0111   0.0104  -0.0102   0.00    0.0
2026/01/15 03:10:30.000   46.877096516    7.465041694   956.4335   6  30   0.0142   0.0218   0.0222  -0.0111   0.0103  -0.0102   0.00    0.0
2026/01/15 03:11:00.000   46.877096521    7.465041655   956.4323   6  30   0.0142   0.0217   0.0221  -0.0111   0.0103  -0.0102   0.00    0.0
2026/01/15 03:11:30.000   46.877096527    7.465041614   956.4311   6  30   0.0142   0.0216   0.0221  -0.0110   0.0102  -0.0102   0.00    0.0
2026/01/15 03:12:00.000   46.877096532    7.465041578   956.4299   6  30   0.0141   0.0216   0.0220  -0.0110   0.0102  -0.0101   0.00    0.0
2026/01/15 03:12:30.000   46.877096537    7.465041541   956.4286   6  30   0.0141   0.0215   0.0220  -0.0110   0.0101  -0.0101   0.00    0.0
2026/01/15 03:13:00.000   46.877096542    7.465041500   956.4273   6  30   0.0141   0.0214   0.0219  -0.0109   0.0101  -0.0101   0.00    0.0
2026/01/15 03:13:30.000   46.877096547    7.465041458   956.4263   6  29   0.0140   0.0214   0.0219  -0.0109   0.0100  -0.0101   0.00    0.0
2026/01/15 03:14:00.000   46.877096552    7.465041417   956.4251   6  29   0.0140   0.0213   0.0218  -0.0109   0.0100  -0.0100   0.00    0.0
2026/01/15 03:14:30.000   46.877096556    7.465041378   956.4240   6  29   0.0140   0.0212   0.0217  -0.0108   0.0099  -0.0100   0.00    0.0
2026/01/15 03:15:00.000   46.877096560    7.465041341   956.4230   6  29   0.0139   0.0212   0.0217  -0.0108   0.0099  -0.0100   0.00    0.0
2026/01/15 03:15:30.000   46.877096564    7.465041303   956.4219   6  30   0.0139   0.0211   0.0216  -0.0108   0.0098  -0.0100   0.00    0.0
2026/01/15 03:16:00.000   46.877096569    7.465041265   956.4209   6  30   0.0138   0.0210   0.0216  -0.0107   0.0098  -0.0099   0.00    0.0
2026/01/15 03:16:30.000   46.877096574    7.465041228   956.4198   6  31   0.0138   0.0210   0.0215  -0.0107   0.0097  -0.0099   0.00    0.0
2026/01/15 03:17:00.000   46.877096579    7.465041192   956.4186   6  30   0.0138   0.0209   0.0214  -0.0107   0.0097  -0.0099   0.00    0.0
2026/01/15 03:17:30.000   46.877096584    7.465041158   956.4173   6  30   0.0137   0.0208   0.0214  -0.0106   0.0096  -0.0099   0.00    0.0
2026/01/15 03:18:00.000   46.877096588    7.465041124   956.4160   6  30   0.0137   0.0208   0.0214  -0.0106   0.0096  -0.0098   0.00    0.0
2026/01/15 03:18:30.000   46.877096593    7.465041089   956.4148   6  29   0.0137   0.0207   0.0213  -0.0106   0.0095  -0.0098   0.00    0.0
2026/01/15 03:19:00.000   46.877096599    7.465041049   956.4136   6  29   0.0136   0.0206   0.0213  -0.0105   0.0095  -0.0098   0.00    0.0
2026/01/15 03:19:30.000   46.877096605    7.465041010   956.4124   6  29   0.0136   0.0206   0.0212  -0.0105   0.0094  -0.0097   0.00    0.0
2026/01/15 03:20:00.000   46.877096610    7.465040970   956.4113   6  28   0.0136   0.0205   0.0212  -0.0105   0.0094  -0.0097   0.00    0.0
2026/01/15 03:20:30.000   46.877096615    7.465040930   956.4103   6  28   0.0135   0.0204   0.0211  -0.0104   0.0093  -0.0097   0.00    0.0
2026/01/15 03:21:00.000   46.877096620    7.465040894   956.4094   6  28   0.0135   0.0204   0.0211  -0.0104   0.0093  -0.0096   0.00    0.0
2026/01/15 03:21:30.000   46.877096624    7.465040861   956.4084   6  28   0.0135   0.0203   0.0210  -0.0104   0.0092  -0.0096   0.00    0.0
2026/01/15 03:22:00.000   46.877096629    7.465040830   956.4076   6  28   0.0134   0.0203   0.0210  -0.0103   0.0092  -0.0096   0.00    0.0
2026/01/15 03:22:30.000   46.877096634    7.465040800   956.4067   6  28   0.0134   0.0202   0.0209  -0.0103   0.0091  -0.0095   0.00    0.0
2026/01/15 03:23:00.000   46.877096639    7.465040768   956.4058   6  28   0.0134   0.0201   0.0209  -0.0103   0.0091  -0.0095   0.00    0.0
2026/01/15 03:23:30.000   46.877096644    7.465040733   956.4048   6  28   0.0134   0.0201   0.0208  -0.0102   0.0090  -0.0095   0.00    0.0
2026/01/15 03:24:00.000   46.877096650    7.465040696   956.4038   6  28   0.0133   0.0200   0.0208  -0.0102   0.0090  -0.0094   0.00    0.0
2026/01/15 03:24:30.000   46.877096655    7.465040657   956.4027   6  28   0.0133   0.0199   0.0207  -0.0102   0.0089  -0.0094   0.00    0.0
2026/01/15 03:25:00.000   46.877096661    7.465040618   956.4017   6  28   0.0132   0.0199   0.0207  -0.0101   0.0089  -0.0094   0.00    0.0
2026/01/15 03:25:30.000   46.877096667    7.465040579   956.4006   6  28   0.0132   0.0198   0.0206  -0.0101   0.0088  -0.0093   0.00    0.0
2026/01/15 03:26:00.000   46.877096673    7.465040539   956.3994   6  28   0.0132   0.0197   0.0206  -0.0101   0.0088  -0.0093   0.00    0.0
2026/01/15 03:26:30.000   46.877096679    7.465040505   956.3983   6  28   0.0132   0.0197   0.0205  -0.0100   0.0087  -0.0093   0.00    0.0
2026/01/15 03:27:00.000   46.877096685    7.465040472   956.3973   6  28   0.0131   0.0196   0.0205  -0.0100   0.0087  -0.0093   0.00    0.0
2026/01/15 03:27:30.000   46.877096691    7.465040440   956.3963   6  28   0.0131   0.0196   0.0205  -0.0100   0.0086  -0.0092   0.00    0.0
2026/01/15 03:28:00.000   46.877096697    7.465040403   956.3952   6  27   0.0131   0.0195   0.0204  -0.0099   0.0086  -0.0092   0.00    0.0
