% program   : RTKPOST ver.demo5 b34d
% inp file  : E:\Master courses\SNDP-PROJECT\Old_data\data\ZIM200CHE_R_20260150000_01D_30S_MO.rnx
% inp file  : E:\Master courses\SNDP-PROJECT\New_Data\nav\BRDC00IGS_R_20260150000_01D_MN.rnx
% inp file  : E:\Master courses\SNDP-PROJECT\New_Data\DATA_FINAL_ANT_EXTRA\COD0MGXFIN_20260150000_01D_05M_ORB.SP3
% inp file  : E:\Master courses\SNDP-PROJECT\New_Data\DATA_FINAL_ANT_EXTRA\COD0MGXFIN_20260150000_01D_30S_CLK.CLK
% obs start : 2026/01/15 00:00:00.0 GPST (week2401 345600.0s)
% obs end   : 2026/01/15 23:59:30.0 GPST (week2401 431970.0s)
% pos mode  : PPP Static
% solution  : Forward
% elev mask : 15.0 deg
% dynamics  : off
% tidecorr  : off
% tropo opt : Saastamoinen
% ephemeris : Precise
% navi sys  : GPS
% antenna1  : TRM59800.00     NONE  ( 0.0000  0.0000  0.0000)
%
% (lat/lon/height=WGS84/ellipsoidal,Q=1:fix,2:float,3:sbas,4:dgps,5:single,6:ppp,ns=# of satellites)
%  GPST                  latitude(deg) longitude(deg)  height(m)   Q  ns   sdn(m)   sde(m)   sdu(m)  sdne(m)  sdeu(m)  sdun(m) age(s)  ratio
2026/01/15 00:00:00.000   46.877101272    7.465048661   958.2362   6  10   1.3992   1.0636   2.9055   0.1025  -0.5174   0.7922   0.00    0.0
2026/01/15 00:00:30.000   46.877100179    7.465048087   958.2867   6  10   0.9900   0.7524   2.0573   0.0627  -0.3687   0.5614   0.00    0.0
2026/01/15 00:01:00.000   46.877098851    7.465046996   958.4273   6  10   0.8085   0.6144   1.6805   0.0421  -0.3028   0.4586   0.00    0.0
2026/01/15 00:01:30.000   46.877098442    7.465046630   958.4284   6  10   0.7002   0.5322   1.4553   0.0267  -0.2636   0.3969   0.00    0.0
2026/01/15 00:02:00.000   46.877097918    7.465046602   958.3677   6  10   0.6263   0.4761   1.3014   0.0096  -0.2368   0.3544   0.00    0.0
2026/01/15 00:02:30.000   46.877097200    7.465046519   958.3715   6  10   0.5717   0.4348   1.1875  -0.0177  -0.2170   0.3228   0.00    0.0
2026/01/15 00:03:00.000   46.877096569    7.465046644   958.3820   6  10   0.5290   0.4025   1.0978  -0.0244  -0.2017   0.2974   0.00    0.0
2026/01/15 00:03:30.000   46.877096374    7.465046796   958.3533   6  10   0.4943   0.3765   1.0247  -0.0282  -0.1894   0.2763   0.00    0.0
2026/01/15 00:04:00.000   46.877096458    7.465046863   958.3096   6  10   0.4654   0.3548   0.9635  -0.0307  -0.1792   0.2582   0.00    0.0
2026/01/15 00:04:30.000   46.877096347    7.465047082   958.2447   6   9   0.4430   0.3374   0.9201  -0.0458  -0.1789   0.2536   0.00    0.0
2026/01/15 00:05:00.000   46.877096327    7.465047227   958.1986   6   9   0.4234   0.3223   0.8815  -0.0537  -0.1774   0.2479   0.00    0.0
2026/01/15 00:05:30.000   46.877096311    7.465047453   958.1860   6   9   0.4060   0.3091   0.8468  -0.0585  -0.1752   0.2417   0.00    0.0
2026/01/15 00:06:00.000   46.877096237    7.465047618   958.1761   6   9   0.3905   0.2973   0.8155  -0.0615  -0.1726   0.2353   0.00    0.0
2026/01/15 00:06:30.000   46.877096067    7.465047614   958.1562   6   9   0.3766   0.2868   0.7871  -0.0634  -0.1697   0.2289   0.00    0.0
2026/01/15 00:07:00.000   46.877095823    7.465047504   958.1548   6   9   0.3639   0.2774   0.7612  -0.0645  -0.1667   0.2226   0.00    0.0
2026/01/15 00:07:30.000   46.877095632    7.465047460   958.1642   6   9   0.3525   0.2688   0.7374  -0.0652  -0.1637   0.2166   0.00    0.0
2026/01/15 00:08:00.000   46.877095529    7.465047503   958.1578   6   9   0.3417   0.2610   0.7148  -0.0654  -0.1606   0.2101   0.00    0.0
2026/01/15 00:08:30.000   46.877095551    7.465047505   958.1553   6   9   0.3316   0.2537   0.6932  -0.0652  -0.1574   0.2033   0.00    0.0
2026/01/15 00:09:00.000   46.877095566    7.465047479   958.1521   6   9   0.3222   0.2470   0.6725  -0.0648  -0.1541   0.1964   0.00    0.0
2026/01/15 00:09:30.000   46.877095559    7.465047419   958.1432   6   8   0.3138   0.2411   0.6551  -0.0626  -0.1528   0.1868   0.00    0.0
2026/01/15 00:10:00.000   46.877095476    7.465047558   958.1205   6   8   0.3059   0.2356   0.6385  -0.0605  -0.1511   0.1775   0.00    0.0
2026/01/15 00:10:30.000   46.877095506    7.465047641   958.0902   6   8   0.2985   0.2305   0.6227  -0.0585  -0.1493   0.1686   0.00    0.0
2026/01/15 00:11:00.000   46.877095513    7.465047699   958.0614   6   8   0.2915   0.2256   0.6077  -0.0566  -0.1474   0.1602   0.00    0.0
2026/01/15 00:11:30.000   46.877095539    7.465047670   958.0250   6   8   0.2850   0.2211   0.5936  -0.0549  -0.1455   0.1523   0.00    0.0
2026/01/15 00:12:00.000   46.877095466    7.465047711   957.9915   6   8   0.2789   0.2168   0.5803  -0.0533  -0.1435   0.1449   0.00    0.0
2026/01/15 00:12:30.000   46.877095479    7.465047737   957.9575   6   8   0.2731   0.2127   0.5679  -0.0518  -0.1416   0.1380   0.00    0.0
2026/01/15 00:13:00.000   46.877095395    7.465047830   957.9312   6   8   0.2675   0.2089   0.5554  -0.0503  -0.1395   0.1308   0.00    0.0
2026/01/15 00:13:30.000   46.877095366    7.465047900   957.9025   6   8   0.2620   0.2052   0.5429  -0.0488  -0.1372   0.1233   0.00    0.0
2026/01/15 00:14:00.000   46.877095287    7.465047939   957.8761   6   8   0.2567   0.2016   0.5307  -0.0474  -0.1349   0.1156   0.00    0.0
2026/01/15 00:14:30.000   46.877095237    7.465047950   957.8562   6   8   0.2515   0.1982   0.5186  -0.0459  -0.1325   0.1078   0.00    0.0
2026/01/15 00:15:00.000   46.877095160    7.465048043   957.8412   6   8   0.2466   0.1950   0.5070  -0.0445  -0.1301   0.1000   0.00    0.0
2026/01/15 00:15:30.000   46.877095104    7.465048114   957.8017   6   8   0.2419   0.1919   0.4958  -0.0432  -0.1278   0.0924   0.00    0.0
2026/01/15 00:16:00.000   46.877095064    7.465048117   957.7731   6   8   0.2374   0.1889   0.4852  -0.0420  -0.1255   0.0849   0.00    0.0
2026/01/15 00:16:30.000   46.877095011    7.465048041   957.7542   6   8   0.2331   0.1861   0.4752  -0.0408  -0.1233   0.0777   0.00    0.0
2026/01/15 00:17:00.000   46.877094898    7.465047981   957.7407   6   8   0.2291   0.1834   0.4658  -0.0398  -0.1212   0.0708   0.00    0.0
2026/01/15 00:17:30.000   46.877094810    7.465047944   957.7303   6   8   0.2253   0.1808   0.4571  -0.0389  -0.1193   0.0642   0.00    0.0
2026/01/15 00:18:00.000   46.877094753    7.465047933   957.7212   6   8   0.2216   0.1783   0.4481  -0.0380  -0.1172   0.0567   0.00    0.0
2026/01/15 00:18:30.000   46.877094745    7.465047919   957.7129   6   8   0.2178   0.1758   0.4391  -0.0370  -0.1151   0.0480   0.00    0.0
2026/01/15 00:19:00.000   46.877094759    7.465047877   957.7033   6   8   0.2142   0.1734   0.4301  -0.0360  -0.1129   0.0377   0.00    0.0
2026/01/15 00:19:30.000   46.877094714    7.465047850   957.6877   6   8   0.2105   0.1711   0.4212  -0.0350  -0.1107   0.0241   0.00    0.0
2026/01/15 00:20:00.000   46.877094683    7.465047759   957.6694   6   8   0.2070   0.1689   0.4126  -0.0341  -0.1086  -0.0140   0.00    0.0
2026/01/15 00:20:30.000   46.877094597    7.465047729   957.6468   6   8   0.2037   0.1668   0.4043  -0.0332  -0.1065  -0.0300   0.00    0.0
2026/01/15 00:21:00.000   46.877094577    7.465047718   957.6150   6   8   0.2005   0.1647   0.3964  -0.0324  -0.1046  -0.0389   0.00    0.0
2026/01/15 00:21:30.000   46.877094512    7.465047769   957.5876   6   8   0.1974   0.1627   0.3890  -0.0317  -0.1027  -0.0453   0.00    0.0
2026/01/15 00:22:00.000   46.877094525    7.465047792   957.5684   6   8   0.1946   0.1608   0.3821  -0.0310  -0.1009  -0.0501   0.00    0.0
2026/01/15 00:22:30.000   46.877094474    7.465047863   957.5567   6   8   0.1918   0.1589   0.3756  -0.0305  -0.0993  -0.0538   0.00    0.0
2026/01/15 00:23:00.000   46.877094455    7.465047890   957.5405   6   8   0.1891   0.1571   0.3690  -0.0299  -0.0976  -0.0574   0.00    0.0
2026/01/15 00:23:30.000   46.877094408    7.465047951   957.5257   6   8   0.1864   0.1554   0.3622  -0.0293  -0.0958  -0.0608   0.00    0.0
2026/01/15 00:24:00.000   46.877094393    7.465047997   957.5102   6   8   0.1836   0.1536   0.3555  -0.0286  -0.0940  -0.0640   0.00    0.0
2026/01/15 00:24:30.000   46.877094366    7.465048044   957.4977   6   8   0.1809   0.1519   0.3488  -0.0280  -0.0923  -0.0668   0.00    0.0
2026/01/15 00:25:00.000   46.877094378    7.465048034   957.4837   6   8   0.1783   0.1503   0.3422  -0.0274  -0.0905  -0.0693   0.00    0.0
2026/01/15 00:25:30.000   46.877094391    7.465048024   957.4672   6   8   0.1757   0.1487   0.3360  -0.0268  -0.0889  -0.0714   0.00    0.0
2026/01/15 00:26:00.000   46.877094367    7.465048011   957.4465   6   8   0.1733   0.1471   0.3300  -0.0263  -0.0873  -0.0731   0.00    0.0
2026/01/15 00:26:30.000   46.877094348    7.465048009   957.4229   6   8   0.1710   0.1456   0.3244  -0.0259  -0.0858  -0.0746   0.00    0.0
2026/01/15 00:27:00.000   46.877094319    7.465048019   957.4015   6   8   0.1688   0.1442   0.3192  -0.0255  -0.0844  -0.0757   0.00    0.0
2026/01/15 00:27:30.000   46.877094319    7.465048012   957.3884   6   8   0.1667   0.1428   0.3143  -0.0252  -0.0831  -0.0766   0.00    0.0
2026/01/15 00:28:00.000   46.877094302    7.465047992   957.3808   6   8   0.1646   0.1414   0.3093  -0.0248  -0.0817  -0.0775   0.00    0.0
2026/01/15 00:28:30.000   46.877094305    7.465047966   957.3676   6   8   0.1625   0.1401   0.3041  -0.0245  -0.0803  -0.0785   0.00    0.0
2026/01/15 00:29:00.000   46.877094331    7.465047997   957.3467   6   8   0.1603   0.1387   0.2989  -0.0241  -0.0789  -0.0793   0.00    0.0
2026/01/15 00:29:30.000   46.877094379    7.465048023   957.3274   6   8   0.1582   0.1374   0.2938  -0.0237  -0.0776  -0.0801   0.00    0.0
2026/01/15 00:30:00.000   46.877094404    7.465048016   957.3116   6   8   0.1561   0.1361   0.2888  -0.0233  -0.0762  -0.0808   0.00    0.0
2026/01/15 00:30:30.000   46.877094407    7.465047966   957.2985   6   8   0.1541   0.1349   0.2839  -0.0229  -0.0749  -0.0814   0.00    0.0
2026/01/15 00:31:00.000   46.877094410    7.465047933   957.2881   6   8   0.1522   0.1336   0.2793  -0.0226  -0.0737  -0.0818   0.00    0.0
2026/01/15 00:31:30.000   46.877094422    7.465047945   957.2792   6   8   0.1503   0.1325   0.2750  -0.0223  -0.0725  -0.0821   0.00    0.0
2026/01/15 00:32:00.000   46.877094460    7.465047981   957.2688   6   8   0.1486   0.1313   0.2709  -0.0221  -0.0714  -0.0823   0.00    0.0
2026/01/15 00:32:30.000   46.877094480    7.465048017   957.2614   6   8   0.1470   0.1302   0.2672  -0.0219  -0.0704  -0.0824   0.00    0.0
2026/01/15 00:33:00.000   46.877094479    7.465048030   957.2573   6   8   0.1453   0.1291   0.2633  -0.0217  -0.0693  -0.0825   0.00    0.0
2026/01/15 00:33:30.000   46.877094450    7.465048020   957.2492   6   8   0.1436   0.1281   0.2593  -0.0215  -0.0683  -0.0825   0.00    0.0
2026/01/15 00:34:00.000   46.877094443    7.465047991   957.2387   6   8   0.1418   0.1270   0.2553  -0.0212  -0.0672  -0.0826   0.00    0.0
2026/01/15 00:34:30.000   46.877094473    7.465047984   957.2283   6   8   0.1401   0.1259   0.2513  -0.0210  -0.0661  -0.0826   0.00    0.0
2026/01/15 00:35:00.000   46.877094521    7.465048023   957.2217   6   8   0.1384   0.1249   0.2473  -0.0207  -0.0651  -0.0826   0.00    0.0
2026/01/15 00:35:30.000   46.877094589    7.465048078   957.2135   6   8   0.1367   0.1239   0.2435  -0.0205  -0.0641  -0.0826   0.00    0.0
2026/01/15 00:36:00.000   46.877094654    7.465048112   957.2034   6   8   0.1352   0.1229   0.2399  -0.0203  -0.0631  -0.0824   0.00    0.0
2026/01/15 00:36:30.000   46.877094698    7.465048103   957.1960   6   8   0.1336   0.1219   0.2365  -0.0201  -0.0622  -0.0823   0.00    0.0
2026/01/15 00:37:00.000   46.877094717    7.465048073   957.1945   6   8   0.1322   0.1210   0.2333  -0.0199  -0.0614  -0.0821   0.00    0.0
2026/01/15 00:37:30.000   46.877094728    7.465048067   957.1939   6   8   0.1309   0.1201   0.2303  -0.0198  -0.0606  -0.0818   0.00    0.0
2026/01/15 00:38:00.000   46.877094753    7.465048084   957.1887   6   8   0.1295   0.1192   0.2273  -0.0197  -0.0598  -0.0816   0.00    0.0
2026/01/15 00:38:30.000   46.877094797    7.465048121   957.1773   6   8   0.1281   0.1183   0.2241  -0.0195  -0.0590  -0.0813   0.00    0.0
2026/01/15 00:39:00.000   46.877094844    7.465048126   957.1591   6   8   0.1266   0.1174   0.2209  -0.0193  -0.0581  -0.0810   0.00    0.0
2026/01/15 00:39:30.000   46.877094881    7.465048127   957.1456   6   8   0.1252   0.1166   0.2177  -0.0191  -0.0573  -0.0807   0.00    0.0
2026/01/15 00:40:00.000   46.877094904    7.465048123   957.1382   6   8   0.1238   0.1157   0.2145  -0.0189  -0.0565  -0.0804   0.00    0.0
2026/01/15 00:40:30.000   46.877094926    7.465048109   957.1304   6   8   0.1224   0.1149   0.2115  -0.0187  -0.0558  -0.0800   0.00    0.0
2026/01/15 00:41:00.000   46.877094962    7.465048079   957.1211   6   8   0.1210   0.1140   0.2086  -0.0186  -0.0550  -0.0796   0.00    0.0
2026/01/15 00:41:30.000   46.877094996    7.465048047   957.1097   6   8   0.1198   0.1132   0.2059  -0.0184  -0.0544  -0.0792   0.00    0.0
2026/01/15 00:42:00.000   46.877095026    7.465048008   957.0996   6   8   0.1186   0.1125   0.2033  -0.0183  -0.0537  -0.0789   0.00    0.0
2026/01/15 00:42:30.000   46.877095053    7.465047977   957.0917   6   8   0.1175   0.1117   0.2009  -0.0182  -0.0531  -0.0785   0.00    0.0
2026/01/15 00:43:00.000   46.877095078    7.465047955   957.0836   6   8   0.1163   0.1110   0.1985  -0.0181  -0.0525  -0.0780   0.00    0.0
2026/01/15 00:43:30.000   46.877095097    7.465047954   957.0750   6   8   0.1151   0.1102   0.1959  -0.0180  -0.0519  -0.0776   0.00    0.0
2026/01/15 00:44:00.000   46.877095118    7.465047960   957.0657   6   8   0.1139   0.1095   0.1933  -0.0178  -0.0513  -0.0772   0.00    0.0
2026/01/15 00:44:30.000   46.877095140    7.465047918   957.0548   6   8   0.1127   0.1087   0.1907  -0.0176  -0.0506  -0.0767   0.00    0.0
2026/01/15 00:45:00.000   46.877095166    7.465047855   957.0428   6   8   0.1114   0.1080   0.1882  -0.0175  -0.0501  -0.0762   0.00    0.0
2026/01/15 00:45:30.000   46.877095220    7.465047803   957.0314   6   8   0.1103   0.1073   0.1857  -0.0173  -0.0495  -0.0757   0.00    0.0
2026/01/15 00:46:00.000   46.877095245    7.465047767   957.0220   6   8   0.1091   0.1066   0.1833  -0.0172  -0.0489  -0.0753   0.00    0.0
2026/01/15 00:46:30.000   46.877095256    7.465047707   957.0155   6   8   0.1080   0.1059   0.1811  -0.0170  -0.0484  -0.0748   0.00    0.0
2026/01/15 00:47:00.000   46.877095266    7.465047637   957.0112   6   8   0.1070   0.1053   0.1790  -0.0169  -0.0479  -0.0743   0.00    0.0
2026/01/15 00:47:30.000   46.877095287    7.465047587   957.0072   6   8   0.1061   0.1046   0.1771  -0.0169  -0.0475  -0.0739   0.00    0.0
2026/01/15 00:48:00.000   46.877095315    7.465047554   957.0016   6   8   0.1051   0.1040   0.1751  -0.0167  -0.0470  -0.0734   0.00    0.0
2026/01/15 00:48:30.000   46.877095349    7.465047529   956.9936   6   8   0.1041   0.1034   0.1730  -0.0166  -0.0465  -0.0729   0.00    0.0
2026/01/15 00:49:00.000   46.877095395    7.465047497   956.9848   6   8   0.1030   0.1027   0.1709  -0.0165  -0.0461  -0.0724   0.00    0.0
2026/01/15 00:49:30.000   46.877095427    7.465047453   956.9774   6   8   0.1020   0.1021   0.1687  -0.0163  -0.0456  -0.0719   0.00    0.0
2026/01/15 00:50:00.000   46.877095445    7.465047419   956.9718   6   8   0.1009   0.1014   0.1666  -0.0162  -0.0451  -0.0713   0.00    0.0
2026/01/15 00:50:30.000   46.877095459    7.465047378   956.9662   6   8   0.0999   0.1008   0.1646  -0.0160  -0.0447  -0.0708   0.00    0.0
2026/01/15 00:51:00.000   46.877095487    7.465047346   956.9585   6   8   0.0989   0.1002   0.1626  -0.0159  -0.0443  -0.0703   0.00    0.0
2026/01/15 00:51:30.000   46.877095530    7.465047333   956.9492   6   8   0.0980   0.0996   0.1608  -0.0157  -0.0439  -0.0698   0.00    0.0
2026/01/15 00:52:00.000   46.877095560    7.465047337   956.9394   6   8   0.0971   0.0991   0.1591  -0.0156  -0.0435  -0.0693   0.00    0.0
2026/01/15 00:52:30.000   46.877095581    7.465047319   956.9311   6   8   0.0963   0.0985   0.1575  -0.0156  -0.0432  -0.0688   0.00    0.0
2026/01/15 00:53:00.000   46.877095603    7.465047283   956.9232   6   8   0.0954   0.0980   0.1558  -0.0155  -0.0428  -0.0684   0.00    0.0
2026/01/15 00:53:30.000   46.877095630    7.465047238   956.9152   6   8   0.0945   0.0974   0.1541  -0.0153  -0.0425  -0.0679   0.00    0.0
2026/01/15 00:54:00.000   46.877095661    7.465047191   956.9068   6   8   0.0936   0.0969   0.1523  -0.0152  -0.0421  -0.0673   0.00    0.0
2026/01/15 00:54:30.000   46.877095685    7.465047156   956.8991   6   8   0.0927   0.0963   0.1505  -0.0151  -0.0418  -0.0668   0.00    0.0
2026/01/15 00:55:00.000   46.877095702    7.465047125   956.8924   6   8   0.0918   0.0957   0.1488  -0.0149  -0.0414  -0.0663   0.00    0.0
2026/01/15 00:55:30.000   46.877095726    7.465047099   956.8864   6   8   0.0909   0.0952   0.1471  -0.0148  -0.0411  -0.0657   0.00    0.0
2026/01/15 00:56:00.000   46.877095750    7.465047077   956.8801   6   8   0.0901   0.0947   0.1454  -0.0146  -0.0408  -0.0652   0.00    0.0
2026/01/15 00:56:30.000   46.877095785    7.465047061   956.8729   6   8   0.0892   0.0942   0.1439  -0.0145  -0.0405  -0.0647   0.00    0.0
2026/01/15 00:57:00.000   46.877095815    7.465047061   956.8675   6   8   0.0885   0.0937   0.1424  -0.0144  -0.0402  -0.0642   0.00    0.0
2026/01/15 00:57:30.000   46.877095836    7.465047062   956.8638   6   8   0.0878   0.0932   0.1411  -0.0143  -0.0399  -0.0638   0.00    0.0
2026/01/15 00:58:00.000   46.877095861    7.465047049   956.8590   6   8   0.0870   0.0927   0.1397  -0.0142  -0.0397  -0.0633   0.00    0.0
2026/01/15 00:58:30.000   46.877095884    7.465047025   956.8532   6   8   0.0863   0.0922   0.1383  -0.0141  -0.0394  -0.0628   0.00    0.0
2026/01/15 00:59:00.000   46.877095920    7.465047002   956.8467   6   8   0.0855   0.0917   0.1368  -0.0140  -0.0391  -0.0623   0.00    0.0
2026/01/15 00:59:30.000   46.877095958    7.465046996   956.8384   6   8   0.0847   0.0912   0.1353  -0.0138  -0.0389  -0.0618   0.00    0.0
2026/01/15 01:00:00.000   46.877095986    7.465046973   956.8289   6   8   0.0839   0.0908   0.1338  -0.0137  -0.0386  -0.0613   0.00    0.0
2026/01/15 01:00:30.000   46.877096000    7.465046931   956.8197   6   8   0.0831   0.0903   0.1324  -0.0136  -0.0384  -0.0608   0.00    0.0
2026/01/15 01:01:00.000   46.877096010    7.465046867   956.8115   6   8   0.0824   0.0898   0.1310  -0.0134  -0.0381  -0.0603   0.00    0.0
2026/01/15 01:01:30.000   46.877096016    7.465046806   956.8044   6   8   0.0816   0.0894   0.1297  -0.0133  -0.0379  -0.0598   0.00    0.0
2026/01/15 01:02:00.000   46.877096026    7.465046770   956.7984   6   8   0.0810   0.0889   0.1285  -0.0132  -0.0377  -0.0593   0.00    0.0
2026/01/15 01:02:30.000   46.877096045    7.465046755   956.7929   6   8   0.0804   0.0885   0.1274  -0.0132  -0.0375  -0.0589   0.00    0.0
2026/01/15 01:03:00.000   46.877096071    7.465046736   956.7867   6   8   0.0797   0.0881   0.1262  -0.0131  -0.0373  -0.0585   0.00    0.0
2026/01/15 01:03:30.000   46.877096093    7.465046707   956.7815   6   8   0.0791   0.0877   0.1250  -0.0129  -0.0371  -0.0580   0.00    0.0
2026/01/15 01:04:00.000   46.877096112    7.465046675   956.7767   6   8   0.0784   0.0872   0.1237  -0.0128  -0.0368  -0.0575   0.00    0.0
2026/01/15 01:04:30.000   46.877096126    7.465046644   956.7709   6   8   0.0777   0.0868   0.1224  -0.0127  -0.0366  -0.0570   0.00    0.0
2026/01/15 01:05:00.000   46.877096142    7.465046613   956.7646   6   8   0.0770   0.0863   0.1212  -0.0126  -0.0365  -0.0565   0.00    0.0
2026/01/15 01:05:30.000   46.877096164    7.465046585   956.7580   6   8   0.0763   0.0859   0.1199  -0.0124  -0.0363  -0.0561   0.00    0.0
2026/01/15 01:06:00.000   46.877096183    7.465046552   956.7513   6   8   0.0756   0.0855   0.1188  -0.0123  -0.0361  -0.0556   0.00    0.0
2026/01/15 01:06:30.000   46.877096209    7.465046516   956.7445   6   8   0.0750   0.0851   0.1177  -0.0122  -0.0359  -0.0551   0.00    0.0
2026/01/15 01:07:00.000   46.877096232    7.465046473   956.7379   6   8   0.0744   0.0847   0.1166  -0.0121  -0.0357  -0.0547   0.00    0.0
2026/01/15 01:07:30.000   46.877096251    7.465046439   956.7324   6   8   0.0739   0.0843   0.1157  -0.0121  -0.0356  -0.0543   0.00    0.0
2026/01/15 01:08:00.000   46.877096269    7.465046411   956.7265   6   8   0.0733   0.0840   0.1147  -0.0120  -0.0354  -0.0539   0.00    0.0
2026/01/15 01:08:30.000   46.877096293    7.465046381   956.7194   6   8   0.0727   0.0836   0.1136  -0.0119  -0.0352  -0.0535   0.00    0.0
2026/01/15 01:09:00.000   46.877096317    7.465046347   956.7122   6   8   0.0721   0.0832   0.1126  -0.0118  -0.0351  -0.0530   0.00    0.0
2026/01/15 01:09:30.000   46.877096333    7.465046310   956.7047   6   8   0.0715   0.0828   0.1115  -0.0117  -0.0349  -0.0526   0.00    0.0
2026/01/15 01:10:00.000   46.877096346    7.465046267   956.6971   6   8   0.0709   0.0824   0.1104  -0.0115  -0.0348  -0.0521   0.00    0.0
2026/01/15 01:10:30.000   46.877096364    7.465046217   956.6943   6   7   0.0703   0.0820   0.1095  -0.0115  -0.0346  -0.0517   0.00    0.0
2026/01/15 01:11:00.000   46.877096381    7.465046169   956.6922   6   7   0.0697   0.0816   0.1087  -0.0114  -0.0344  -0.0512   0.00    0.0
2026/01/15 01:11:30.000   46.877096395    7.465046127   956.6895   6   7   0.0691   0.0813   0.1079  -0.0113  -0.0342  -0.0508   0.00    0.0
2026/01/15 01:12:00.000   46.877096408    7.465046090   956.6857   6   7   0.0686   0.0810   0.1072  -0.0113  -0.0340  -0.0504   0.00    0.0
2026/01/15 01:12:30.000   46.877096425    7.465046066   956.6824   6   8   0.0682   0.0806   0.1065  -0.0111  -0.0339  -0.0500   0.00    0.0
2026/01/15 01:13:00.000   46.877096446    7.465046027   956.6787   6   8   0.0677   0.0803   0.1057  -0.0110  -0.0337  -0.0496   0.00    0.0
2026/01/15 01:13:30.000   46.877096467    7.465045973   956.6757   6   8   0.0671   0.0799   0.1050  -0.0109  -0.0336  -0.0491   0.00    0.0
2026/01/15 01:14:00.000   46.877096483    7.465045904   956.6707   6   8   0.0666   0.0796   0.1042  -0.0108  -0.0334  -0.0487   0.00    0.0
2026/01/15 01:14:30.000   46.877096497    7.465045848   956.6656   6   8   0.0660   0.0792   0.1034  -0.0106  -0.0333  -0.0482   0.00    0.0
2026/01/15 01:15:00.000   46.877096511    7.465045791   956.6617   6   8   0.0655   0.0789   0.1026  -0.0105  -0.0332  -0.0478   0.00    0.0
2026/01/15 01:15:30.000   46.877096530    7.465045732   956.6571   6   8   0.0649   0.0785   0.1018  -0.0103  -0.0330  -0.0473   0.00    0.0
2026/01/15 01:16:00.000   46.877096551    7.465045676   956.6526   6   8   0.0644   0.0782   0.1010  -0.0102  -0.0329  -0.0469   0.00    0.0
2026/01/15 01:16:30.000   46.877096568    7.465045628   956.6487   6   9   0.0639   0.0778   0.1003  -0.0100  -0.0327  -0.0465   0.00    0.0
2026/01/15 01:17:00.000   46.877096581    7.465045579   956.6450   6   9   0.0634   0.0775   0.0996  -0.0099  -0.0326  -0.0462   0.00    0.0
2026/01/15 01:17:30.000   46.877096592    7.465045532   956.6429   6   8   0.0630   0.0772   0.0990  -0.0098  -0.0325  -0.0457   0.00    0.0
2026/01/15 01:18:00.000   46.877096607    7.465045478   956.6403   6   8   0.0626   0.0769   0.0985  -0.0097  -0.0323  -0.0453   0.00    0.0
2026/01/15 01:18:30.000   46.877096621    7.465045432   956.6380   6   8   0.0621   0.0766   0.0978  -0.0095  -0.0322  -0.0449   0.00    0.0
2026/01/15 01:19:00.000   46.877096638    7.465045368   956.6350   6   8   0.0617   0.0763   0.0972  -0.0094  -0.0320  -0.0444   0.00    0.0
2026/01/15 01:19:30.000   46.877096653    7.465045303   956.6317   6   8   0.0612   0.0760   0.0966  -0.0092  -0.0319  -0.0439   0.00    0.0
2026/01/15 01:20:00.000   46.877096667    7.465045245   956.6284   6   8   0.0607   0.0757   0.0959  -0.0090  -0.0317  -0.0435   0.00    0.0
2026/01/15 01:20:30.000   46.877096684    7.465045186   956.6253   6   8   0.0602   0.0753   0.0953  -0.0089  -0.0316  -0.0430   0.00    0.0
2026/01/15 01:21:00.000   46.877096709    7.465045118   956.6215   6   8   0.0598   0.0750   0.0947  -0.0088  -0.0315  -0.0426   0.00    0.0
2026/01/15 01:21:30.000   46.877096735    7.465045053   956.6179   6   8   0.0593   0.0747   0.0941  -0.0086  -0.0313  -0.0422   0.00    0.0
2026/01/15 01:22:00.000   46.877096760    7.465045004   956.6141   6   8   0.0590   0.0745   0.0935  -0.0085  -0.0312  -0.0418   0.00    0.0
2026/01/15 01:22:30.000   46.877096782    7.465044965   956.6101   6   8   0.0586   0.0742   0.0930  -0.0084  -0.0311  -0.0415   0.00    0.0
2026/01/15 01:23:00.000   46.877096802    7.465044923   956.6061   6   8   0.0582   0.0739   0.0925  -0.0083  -0.0310  -0.0411   0.00    0.0
2026/01/15 01:23:30.000   46.877096823    7.465044871   956.6028   6   8   0.0578   0.0736   0.0919  -0.0082  -0.0308  -0.0407   0.00    0.0
2026/01/15 01:24:00.000   46.877096842    7.465044818   956.6003   6   8   0.0574   0.0733   0.0913  -0.0081  -0.0307  -0.0403   0.00    0.0
2026/01/15 01:24:30.000   46.877096835    7.465044796   956.6013   6   7   0.0570   0.0731   0.0908  -0.0086  -0.0304  -0.0401   0.00    0.0
2026/01/15 01:25:00.000   46.877096824    7.465044790   956.6019   6   7   0.0567   0.0729   0.0903  -0.0091  -0.0300  -0.0398   0.00    0.0
2026/01/15 01:25:30.000   46.877096813    7.465044767   956.6018   6   7   0.0564   0.0727   0.0899  -0.0095  -0.0297  -0.0396   0.00    0.0
2026/01/15 01:26:00.000   46.877096807    7.465044744   956.6022   6   7   0.0561   0.0725   0.0894  -0.0099  -0.0293  -0.0394   0.00    0.0
2026/01/15 01:26:30.000   46.877096804    7.465044721   956.6028   6   7   0.0558   0.0723   0.0889  -0.0103  -0.0290  -0.0392   0.00    0.0
2026/01/15 01:27:00.000   46.877096798    7.465044708   956.6036   6   7   0.0555   0.0721   0.0885  -0.0106  -0.0287  -0.0390   0.00    0.0
2026/01/15 01:27:30.000   46.877096795    7.465044685   956.6046   6   7   0.0552   0.0720   0.0881  -0.0109  -0.0284  -0.0388   0.00    0.0
2026/01/15 01:28:00.000   46.877096790    7.465044668   956.6057   6   7   0.0549   0.0718   0.0877  -0.0112  -0.0281  -0.0386   0.00    0.0
2026/01/15 01:28:30.000   46.877096782    7.465044662   956.6062   6   7   0.0546   0.0716   0.0873  -0.0116  -0.0278  -0.0384   0.00    0.0
2026/01/15 01:29:00.000   46.877096775    7.465044652   956.6065   6   7   0.0543   0.0714   0.0868  -0.0119  -0.0275  -0.0382   0.00    0.0
2026/01/15 01:29:30.000   46.877096763    7.465044648   956.6064   6   7   0.0540   0.0712   0.0863  -0.0122  -0.0272  -0.0379   0.00    0.0
2026/01/15 01:30:00.000   46.877096752    7.465044651   956.6056   6   7   0.0537   0.0710   0.0858  -0.0125  -0.0268  -0.0377   0.00    0.0
2026/01/15 01:30:30.000   46.877096747    7.465044654   956.6046   6   7   0.0534   0.0709   0.0854  -0.0128  -0.0265  -0.0375   0.00    0.0
2026/01/15 01:31:00.000   46.877096739    7.465044651   956.6037   6   7   0.0531   0.0707   0.0849  -0.0131  -0.0262  -0.0373   0.00    0.0
2026/01/15 01:31:30.000   46.877096725    7.465044655   956.6032   6   7   0.0528   0.0705   0.0845  -0.0133  -0.0259  -0.0371   0.00    0.0
2026/01/15 01:32:00.000   46.877096715    7.465044644   956.6024   6   7   0.0526   0.0703   0.0841  -0.0136  -0.0256  -0.0369   0.00    0.0
2026/01/15 01:32:30.000   46.877096711    7.465044631   956.6015   6   7   0.0523   0.0702   0.0837  -0.0138  -0.0253  -0.0367   0.00    0.0
2026/01/15 01:33:00.000   46.877096707    7.465044611   956.6010   6   7   0.0521   0.0700   0.0833  -0.0140  -0.0250  -0.0366   0.00    0.0
2026/01/15 01:33:30.000   46.877096702    7.465044588   956.6007   6   7   0.0518   0.0698   0.0829  -0.0142  -0.0247  -0.0364   0.00    0.0
2026/01/15 01:34:00.000   46.877096694    7.465044564   956.6006   6   7   0.0515   0.0697   0.0824  -0.0144  -0.0244  -0.0361   0.00    0.0
2026/01/15 01:34:30.000   46.877096685    7.465044538   956.6004   6   7   0.0512   0.0695   0.0820  -0.0147  -0.0241  -0.0359   0.00    0.0
2026/01/15 01:35:00.000   46.877096678    7.465044502   956.6001   6   7   0.0509   0.0693   0.0815  -0.0149  -0.0237  -0.0357   0.00    0.0
2026/01/15 01:35:30.000   46.877096670    7.465044468   956.5999   6   7   0.0506   0.0692   0.0811  -0.0151  -0.0234  -0.0355   0.00    0.0
2026/01/15 01:36:00.000   46.877096657    7.465044453   956.6002   6   7   0.0504   0.0690   0.0807  -0.0153  -0.0231  -0.0353   0.00    0.0
2026/01/15 01:36:30.000   46.877096649    7.465044430   956.6001   6   7   0.0501   0.0688   0.0802  -0.0155  -0.0228  -0.0351   0.00    0.0
2026/01/15 01:37:00.000   46.877096645    7.465044401   956.6000   6   7   0.0499   0.0687   0.0799  -0.0157  -0.0225  -0.0349   0.00    0.0
2026/01/15 01:37:30.000   46.877096638    7.465044383   956.6003   6   7   0.0496   0.0685   0.0795  -0.0158  -0.0222  -0.0348   0.00    0.0
2026/01/15 01:38:00.000   46.877096625    7.465044378   956.6008   6   7   0.0494   0.0684   0.0791  -0.0160  -0.0220  -0.0346   0.00    0.0
2026/01/15 01:38:30.000   46.877096617    7.465044359   956.6004   6   7   0.0491   0.0682   0.0787  -0.0161  -0.0217  -0.0344   0.00    0.0
2026/01/15 01:39:00.000   46.877096610    7.465044344   956.5994   6   7   0.0489   0.0681   0.0783  -0.0163  -0.0213  -0.0342   0.00    0.0
2026/01/15 01:39:30.000   46.877096600    7.465044334   956.5986   6   7   0.0486   0.0679   0.0779  -0.0165  -0.0210  -0.0340   0.00    0.0
2026/01/15 01:40:00.000   46.877096589    7.465044315   956.5973   6   7   0.0483   0.0678   0.0774  -0.0167  -0.0207  -0.0338   0.00    0.0
2026/01/15 01:40:30.000   46.877096576    7.465044292   956.5964   6   7   0.0481   0.0676   0.0770  -0.0169  -0.0204  -0.0336   0.00    0.0
2026/01/15 01:41:00.000   46.877096567    7.465044256   956.5951   6   7   0.0478   0.0675   0.0766  -0.0170  -0.0201  -0.0334   0.00    0.0
2026/01/15 01:41:30.000   46.877096556    7.465044227   956.5943   6   7   0.0476   0.0673   0.0762  -0.0172  -0.0198  -0.0332   0.00    0.0
2026/01/15 01:42:00.000   46.877096549    7.465044196   956.5943   6   7   0.0474   0.0672   0.0758  -0.0173  -0.0195  -0.0331   0.00    0.0
2026/01/15 01:42:30.000   46.877096541    7.465044174   956.5940   6   7   0.0471   0.0670   0.0755  -0.0174  -0.0192  -0.0329   0.00    0.0
2026/01/15 01:43:00.000   46.877096541    7.465044152   956.5944   6   7   0.0469   0.0669   0.0752  -0.0175  -0.0188  -0.0327   0.00    0.0
2026/01/15 01:43:30.000   46.877096539    7.465044141   956.5949   6   7   0.0467   0.0668   0.0748  -0.0176  -0.0184  -0.0325   0.00    0.0
2026/01/15 01:44:00.000   46.877096535    7.465044120   956.5954   6   6   0.0465   0.0667   0.0745  -0.0177  -0.0180  -0.0322   0.00    0.0
2026/01/15 01:44:30.000   46.877096532    7.465044101   956.5961   6   6   0.0463   0.0665   0.0742  -0.0177  -0.0175  -0.0320   0.00    0.0
2026/01/15 01:45:00.000   46.877096530    7.465044077   956.5968   6   6   0.0460   0.0664   0.0738  -0.0178  -0.0170  -0.0317   0.00    0.0
2026/01/15 01:45:30.000   46.877096528    7.465044058   956.5975   6   6   0.0458   0.0663   0.0735  -0.0179  -0.0165  -0.0315   0.00    0.0
2026/01/15 01:46:00.000   46.877096525    7.465044031   956.5982   6   6   0.0456   0.0662   0.0731  -0.0180  -0.0161  -0.0312   0.00    0.0
2026/01/15 01:46:30.000   46.877096522    7.465043997   956.5990   6   6   0.0454   0.0661   0.0728  -0.0181  -0.0156  -0.0310   0.00    0.0
2026/01/15 01:47:00.000   46.877096519    7.465043969   956.5997   6   6   0.0452   0.0660   0.0725  -0.0182  -0.0152  -0.0308   0.00    0.0
2026/01/15 01:47:30.000   46.877096518    7.465043941   956.6005   6   6   0.0450   0.0659   0.0722  -0.0182  -0.0148  -0.0306   0.00    0.0
2026/01/15 01:48:00.000   46.877096516    7.465043912   956.6015   6   6   0.0448   0.0657   0.0719  -0.0183  -0.0143  -0.0304   0.00    0.0
2026/01/15 01:48:30.000   46.877096513    7.465043881   956.6025   6   6   0.0446   0.0656   0.0716  -0.0184  -0.0138  -0.0302   0.00    0.0
2026/01/15 01:49:00.000   46.877096511    7.465043857   956.6030   6   6   0.0444   0.0655   0.0713  -0.0184  -0.0133  -0.0300   0.00    0.0
2026/01/15 01:49:30.000   46.877096508    7.465043836   956.6036   6   6   0.0442   0.0654   0.0710  -0.0185  -0.0127  -0.0297   0.00    0.0
2026/01/15 01:50:00.000   46.877096506    7.465043807   956.6041   6   6   0.0440   0.0653   0.0707  -0.0186  -0.0122  -0.0295   0.00    0.0
2026/01/15 01:50:30.000   46.877096503    7.465043783   956.6048   6   6   0.0438   0.0652   0.0703  -0.0187  -0.0116  -0.0293   0.00    0.0
2026/01/15 01:51:00.000   46.877096500    7.465043757   956.6051   6   6   0.0436   0.0651   0.0700  -0.0188  -0.0110  -0.0291   0.00    0.0
2026/01/15 01:51:30.000   46.877096498    7.465043728   956.6054   6   6   0.0434   0.0650   0.0697  -0.0188  -0.0104  -0.0289   0.00    0.0
2026/01/15 01:52:00.000   46.877096497    7.465043693   956.6059   6   6   0.0432   0.0649   0.0694  -0.0189  -0.0098  -0.0287   0.00    0.0
2026/01/15 01:52:30.000   46.877096497    7.465043659   956.6065   6   6   0.0430   0.0648   0.0692  -0.0190  -0.0093  -0.0285   0.00    0.0
2026/01/15 01:53:00.000   46.877096495    7.465043633   956.6070   6   6   0.0428   0.0647   0.0689  -0.0190  -0.0086  -0.0283   0.00    0.0
2026/01/15 01:53:30.000   46.877096494    7.465043604   956.6076   6   6   0.0427   0.0646   0.0686  -0.0191  -0.0079  -0.0281   0.00    0.0
2026/01/15 01:54:00.000   46.877096491    7.465043576   956.6082   6   6   0.0425   0.0645   0.0683  -0.0192  -0.0071  -0.0279   0.00    0.0
2026/01/15 01:54:30.000   46.877096489    7.465043550   956.6086   6   6   0.0423   0.0644   0.0680  -0.0192  -0.0061  -0.0277   0.00    0.0
2026/01/15 01:55:00.000   46.877096486    7.465043529   956.6085   6   6   0.0421   0.0642   0.0677  -0.0193  -0.0051  -0.0275   0.00    0.0
2026/01/15 01:55:30.000   46.877096482    7.465043508   956.6085   6   6   0.0419   0.0641   0.0674  -0.0194  -0.0037  -0.0273   0.00    0.0
2026/01/15 01:56:00.000   46.877096481    7.465043483   956.6081   6   6   0.0417   0.0640   0.0671  -0.0195  -0.0015  -0.0272   0.00    0.0
2026/01/15 01:56:30.000   46.877096480    7.465043456   956.6075   6   6   0.0415   0.0639   0.0668  -0.0195   0.0029  -0.0270   0.00    0.0
2026/01/15 01:57:00.000   46.877096478    7.465043435   956.6073   6   6   0.0413   0.0638   0.0665  -0.0196   0.0043  -0.0268   0.00    0.0
2026/01/15 01:57:30.000   46.877096477    7.465043406   956.6071   6   6   0.0412   0.0637   0.0663  -0.0197   0.0052  -0.0267   0.00    0.0
2026/01/15 01:58:00.000   46.877096473    7.465043386   956.6071   6   6   0.0410   0.0636   0.0660  -0.0197   0.0061  -0.0265   0.00    0.0
2026/01/15 01:58:30.000   46.877096470    7.465043363   956.6070   6   6   0.0408   0.0636   0.0658  -0.0198   0.0069  -0.0263   0.00    0.0
2026/01/15 01:59:00.000   46.877096469    7.465043338   956.6067   6   6   0.0407   0.0635   0.0655  -0.0198   0.0076  -0.0261   0.00    0.0
2026/01/15 01:59:30.000   46.877096467    7.465043309   956.6067   6   6   0.0405   0.0634   0.0652  -0.0199   0.0083  -0.0260   0.00    0.0
2026/01/15 02:00:00.000   46.877096465    7.465043279   956.6069   6   6   0.0403   0.0633   0.0649  -0.0200   0.0089  -0.0258   0.00    0.0
2026/01/15 02:00:30.000   46.877096462    7.465043253   956.6070   6   6   0.0401   0.0632   0.0646  -0.0201   0.0094  -0.0256   0.00    0.0
2026/01/15 02:01:00.000   46.877096461    7.465043220   956.6065   6   7   0.0399   0.0630   0.0643  -0.0201   0.0099  -0.0254   0.00    0.0
2026/01/15 02:01:30.000   46.877096464    7.465043175   956.6055   6   7   0.0398   0.0629   0.0641  -0.0202   0.0103  -0.0253   0.00    0.0
2026/01/15 02:02:00.000   46.877096466    7.465043137   956.6046   6   7   0.0396   0.0628   0.0638  -0.0202   0.0106  -0.0251   0.00    0.0
2026/01/15 02:02:30.000   46.877096466    7.465043106   956.6042   6   7   0.0395   0.0627   0.0636  -0.0203   0.0110  -0.0250   0.00    0.0
2026/01/15 02:03:00.000   46.877096464    7.465043073   956.6041   6   7   0.0393   0.0626   0.0633  -0.0203   0.0113  -0.0248   0.00    0.0
2026/01/15 02:03:30.000   46.877096462    7.465043042   956.6039   6   7   0.0391   0.0625   0.0631  -0.0204   0.0116  -0.0247   0.00    0.0
2026/01/15 02:04:00.000   46.877096459    7.465043016   956.6038   6   7   0.0390   0.0624   0.0628  -0.0204   0.0120  -0.0245   0.00    0.0
2026/01/15 02:04:30.000   46.877096458    7.465042979   956.6037   6   7   0.0388   0.0623   0.0625  -0.0205   0.0123  -0.0243   0.00    0.0
2026/01/15 02:05:00.000   46.877096456    7.465042945   956.6034   6   7   0.0386   0.0622   0.0622  -0.0205   0.0126  -0.0242   0.00    0.0
2026/01/15 02:05:30.000   46.877096452    7.465042916   956.6033   6   7   0.0385   0.0621   0.0620  -0.0206   0.0129  -0.0240   0.00    0.0
2026/01/15 02:06:00.000   46.877096451    7.465042886   956.6030   6   7   0.0383   0.0620   0.0617  -0.0206   0.0132  -0.0239   0.00    0.0
2026/01/15 02:06:30.000   46.877096450    7.465042859   956.6026   6   7   0.0381   0.0619   0.0614  -0.0207   0.0134  -0.0237   0.00    0.0
2026/01/15 02:07:00.000   46.877096449    7.465042827   956.6021   6   7   0.0380   0.0618   0.0612  -0.0207   0.0137  -0.0236   0.00    0.0
2026/01/15 02:07:30.000   46.877096449    7.465042789   956.6015   6   7   0.0379   0.0617   0.0610  -0.0207   0.0139  -0.0235   0.00    0.0
2026/01/15 02:08:00.000   46.877096448    7.465042751   956.6008   6   7   0.0377   0.0616   0.0607  -0.0208   0.0141  -0.0233   0.00    0.0
2026/01/15 02:08:30.000   46.877096445    7.465042718   956.6003   6   7   0.0376   0.0614   0.0605  -0.0208   0.0143  -0.0232   0.00    0.0
2026/01/15 02:09:00.000   46.877096445    7.465042680   956.5997   6   7   0.0374   0.0613   0.0602  -0.0209   0.0145  -0.0230   0.00    0.0
2026/01/15 02:09:30.000   46.877096443    7.465042647   956.5992   6   7   0.0373   0.0612   0.0600  -0.0209   0.0148  -0.0229   0.00    0.0
2026/01/15 02:10:00.000   46.877096441    7.465042612   956.5986   6   7   0.0371   0.0611   0.0597  -0.0210   0.0150  -0.0228   0.00    0.0
2026/01/15 02:10:30.000   46.877096440    7.465042572   956.5981   6   7   0.0370   0.0610   0.0594  -0.0210   0.0152  -0.0226   0.00    0.0
2026/01/15 02:11:00.000   46.877096440    7.465042531   956.5973   6   7   0.0368   0.0609   0.0592  -0.0211   0.0154  -0.0225   0.00    0.0
2026/01/15 02:11:30.000   46.877096441    7.465042501   956.5969   6   8   0.0367   0.0608   0.0590  -0.0211   0.0156  -0.0224   0.00    0.0
2026/01/15 02:12:00.000   46.877096442    7.465042470   956.5965   6   8   0.0365   0.0607   0.0587  -0.0212   0.0157  -0.0223   0.00    0.0
2026/01/15 02:12:30.000   46.877096443    7.465042436   956.5957   6   8   0.0364   0.0606   0.0585  -0.0212   0.0158  -0.0221   0.00    0.0
2026/01/15 02:13:00.000   46.877096443    7.465042400   956.5949   6   8   0.0363   0.0605   0.0583  -0.0212   0.0160  -0.0220   0.00    0.0
2026/01/15 02:13:30.000   46.877096441    7.465042365   956.5941   6   8   0.0361   0.0604   0.0581  -0.0213   0.0161  -0.0219   0.00    0.0
2026/01/15 02:14:00.000   46.877096439    7.465042331   956.5934   6   8   0.0360   0.0603   0.0578  -0.0213   0.0163  -0.0218   0.00    0.0
2026/01/15 02:14:30.000   46.877096437    7.465042297   956.5926   6   8   0.0358   0.0602   0.0576  -0.0214   0.0165  -0.0217   0.00    0.0
2026/01/15 02:15:00.000   46.877096434    7.465042261   956.5918   6   8   0.0357   0.0601   0.0573  -0.0214   0.0166  -0.0216   0.00    0.0
2026/01/15 02:15:30.000   46.877096432    7.465042228   956.5912   6   8   0.0356   0.0600   0.0571  -0.0215   0.0168  -0.0214   0.00    0.0
2026/01/15 02:16:00.000   46.877096431    7.465042193   956.5907   6   8   0.0354   0.0599   0.0568  -0.0215   0.0169  -0.0213   0.00    0.0
2026/01/15 02:16:30.000   46.877096429    7.465042156   956.5902   6   8   0.0353   0.0597   0.0566  -0.0216   0.0170  -0.0212   0.00    0.0
2026/01/15 02:17:00.000   46.877096428    7.465042123   956.5894   6   8   0.0352   0.0596   0.0564  -0.0216   0.0171  -0.0211   0.00    0.0
2026/01/15 02:17:30.000   46.877096427    7.465042089   956.5884   6   8   0.0351   0.0595   0.0562  -0.0216   0.0172  -0.0210   0.00    0.0
2026/01/15 02:18:00.000   46.877096427    7.465042054   956.5875   6   8   0.0349   0.0594   0.0560  -0.0217   0.0173  -0.0209   0.00    0.0
2026/01/15 02:18:30.000   46.877096427    7.465042016   956.5867   6   8   0.0348   0.0593   0.0558  -0.0217   0.0174  -0.0208   0.00    0.0
2026/01/15 02:19:00.000   46.877096424    7.465041980   956.5860   6   8   0.0347   0.0592   0.0555  -0.0218   0.0176  -0.0207   0.00    0.0
2026/01/15 02:19:30.000   46.877096421    7.465041944   956.5848   6   8   0.0345   0.0591   0.0553  -0.0218   0.0177  -0.0206   0.00    0.0
2026/01/15 02:20:00.000   46.877096417    7.465041907   956.5834   6   8   0.0344   0.0590   0.0550  -0.0218   0.0178  -0.0205   0.00    0.0
2026/01/15 02:20:30.000   46.877096412    7.465041875   956.5821   6   8   0.0343   0.0589   0.0548  -0.0219   0.0179  -0.0204   0.00    0.0
2026/01/15 02:21:00.000   46.877096408    7.465041844   956.5810   6   8   0.0342   0.0588   0.0546  -0.0219   0.0180  -0.0203   0.00    0.0
2026/01/15 02:21:30.000   46.877096405    7.465041809   956.5799   6   8   0.0340   0.0587   0.0544  -0.0220   0.0181  -0.0202   0.00    0.0
2026/01/15 02:22:00.000   46.877096403    7.465041772   956.5789   6   8   0.0339   0.0586   0.0542  -0.0220   0.0182  -0.0201   0.00    0.0
2026/01/15 02:22:30.000   46.877096400    7.465041737   956.5778   6   8   0.0338   0.0585   0.0540  -0.0220   0.0182  -0.0201   0.00    0.0
2026/01/15 02:23:00.000   46.877096396    7.465041708   956.5765   6   8   0.0337   0.0584   0.0538  -0.0220   0.0183  -0.0200   0.00    0.0
2026/01/15 02:23:30.000   46.877096392    7.465041679   956.5753   6   8   0.0336   0.0583   0.0536  -0.0221   0.0184  -0.0199   0.00    0.0
2026/01/15 02:24:00.000   46.877096388    7.465041643   956.5738   6   8   0.0335   0.0582   0.0533  -0.0221   0.0185  -0.0198   0.00    0.0
2026/01/15 02:24:30.000   46.877096383    7.465041610   956.5723   6   8   0.0333   0.0581   0.0531  -0.0222   0.0185  -0.0197   0.00    0.0
2026/01/15 02:25:00.000   46.877096380    7.465041581   956.5708   6   8   0.0332   0.0579   0.0529  -0.0222   0.0186  -0.0196   0.00    0.0
2026/01/15 02:25:30.000   46.877096377    7.465041543   956.5693   6   8   0.0331   0.0578   0.0527  -0.0222   0.0187  -0.0196   0.00    0.0
2026/01/15 02:26:00.000   46.877096377    7.465041507   956.5690   6   7   0.0330   0.0577   0.0526  -0.0223   0.0188  -0.0194   0.00    0.0
2026/01/15 02:26:30.000   46.877096377    7.465041469   956.5686   6   7   0.0329   0.0576   0.0524  -0.0223   0.0188  -0.0193   0.00    0.0
2026/01/15 02:27:00.000   46.877096379    7.465041431   956.5684   6   7   0.0328   0.0575   0.0523  -0.0223   0.0189  -0.0192   0.00    0.0
2026/01/15 02:27:30.000   46.877096379    7.465041398   956.5684   6   7   0.0327   0.0574   0.0522  -0.0224   0.0190  -0.0190   0.00    0.0
2026/01/15 02:28:00.000   46.877096380    7.465041362   956.5683   6   7   0.0326   0.0573   0.0521  -0.0224   0.0190  -0.0189   0.00    0.0
2026/01/15 02:28:30.000   46.877096381    7.465041326   956.5683   6   7   0.0325   0.0572   0.0520  -0.0224   0.0191  -0.0188   0.00    0.0
2026/01/15 02:29:00.000   46.877096382    7.465041290   956.5682   6   7   0.0324   0.0571   0.0519  -0.0224   0.0192  -0.0187   0.00    0.0
2026/01/15 02:29:30.000   46.877096382    7.465041257   956.5681   6   7   0.0323   0.0570   0.0518  -0.0225   0.0192  -0.0185   0.00    0.0
2026/01/15 02:30:00.000   46.877096382    7.465041227   956.5681   6   7   0.0322   0.0569   0.0516  -0.0225   0.0193  -0.0184   0.00    0.0
2026/01/15 02:30:30.000   46.877096384    7.465041192   956.5682   6   7   0.0321   0.0568   0.0515  -0.0225   0.0194  -0.0183   0.00    0.0
2026/01/15 02:31:00.000   46.877096385    7.465041159   956.5682   6   7   0.0320   0.0567   0.0514  -0.0226   0.0195  -0.0182   0.00    0.0
2026/01/15 02:31:30.000   46.877096384    7.465041135   956.5683   6   7   0.0319   0.0566   0.0513  -0.0226   0.0195  -0.0181   0.00    0.0
2026/01/15 02:32:00.000   46.877096383    7.465041114   956.5684   6   7   0.0318   0.0565   0.0512  -0.0226   0.0196  -0.0179   0.00    0.0
2026/01/15 02:32:30.000   46.877096385    7.465041085   956.5680   6   7   0.0318   0.0564   0.0511  -0.0226   0.0196  -0.0178   0.00    0.0
2026/01/15 02:33:00.000   46.877096386    7.465041058   956.5677   6   7   0.0317   0.0563   0.0510  -0.0226   0.0197  -0.0177   0.00    0.0
2026/01/15 02:33:30.000   46.877096385    7.465041035   956.5676   6   7   0.0316   0.0562   0.0509  -0.0227   0.0197  -0.0176   0.00    0.0
2026/01/15 02:34:00.000   46.877096385    7.465041016   956.5679   6   7   0.0315   0.0561   0.0507  -0.0227   0.0198  -0.0175   0.00    0.0
2026/01/15 02:34:30.000   46.877096386    7.465040993   956.5679   6   7   0.0314   0.0560   0.0506  -0.0227   0.0199  -0.0174   0.00    0.0
2026/01/15 02:35:00.000   46.877096388    7.465040965   956.5678   6   7   0.0313   0.0559   0.0505  -0.0227   0.0199  -0.0173   0.00    0.0
2026/01/15 02:35:30.000   46.877096389    7.465040938   956.5675   6   7   0.0312   0.0558   0.0504  -0.0228   0.0200  -0.0172   0.00    0.0
2026/01/15 02:36:00.000   46.877096390    7.465040912   956.5674   6   7   0.0311   0.0557   0.0503  -0.0228   0.0201  -0.0171   0.00    0.0
2026/01/15 02:36:30.000   46.877096391    7.465040889   956.5673   6   7   0.0310   0.0556   0.0502  -0.0228   0.0201  -0.0170   0.00    0.0
2026/01/15 02:37:00.000   46.877096393    7.465040860   956.5670   6   7   0.0309   0.0555   0.0500  -0.0228   0.0202  -0.0169   0.00    0.0
2026/01/15 02:37:30.000   46.877096395    7.465040833   956.5669   6   7   0.0309   0.0554   0.0499  -0.0228   0.0202  -0.0168   0.00    0.0
2026/01/15 02:38:00.000   46.877096397    7.465040804   956.5669   6   7   0.0308   0.0553   0.0498  -0.0228   0.0202  -0.0167   0.00    0.0
2026/01/15 02:38:30.000   46.877096399    7.465040774   956.5669   6   7   0.0307   0.0552   0.0497  -0.0228   0.0203  -0.0167   0.00    0.0
2026/01/15 02:39:00.000   46.877096401    7.465040748   956.5669   6   7   0.0306   0.0551   0.0496  -0.0229   0.0204  -0.0166   0.00    0.0
2026/01/15 02:39:30.000   46.877096402    7.465040714   956.5667   6   7   0.0305   0.0550   0.0495  -0.0229   0.0204  -0.0165   0.00    0.0
2026/01/15 02:40:00.000   46.877096403    7.465040677   956.5664   6   7   0.0304   0.0548   0.0494  -0.0229   0.0205  -0.0164   0.00    0.0
2026/01/15 02:40:30.000   46.877096404    7.465040647   956.5661   6   7   0.0304   0.0547   0.0492  -0.0229   0.0205  -0.0163   0.00    0.0
2026/01/15 02:41:00.000   46.877096405    7.465040618   956.5659   6   7   0.0303   0.0546   0.0491  -0.0229   0.0206  -0.0162   0.00    0.0
2026/01/15 02:41:30.000   46.877096406    7.465040593   956.5657   6   7   0.0302   0.0545   0.0490  -0.0229   0.0206  -0.0161   0.00    0.0
2026/01/15 02:42:00.000   46.877096407    7.465040567   956.5652   6   7   0.0301   0.0544   0.0489  -0.0229   0.0207  -0.0161   0.00    0.0
2026/01/15 02:42:30.000   46.877096408    7.465040539   956.5646   6   7   0.0300   0.0543   0.0488  -0.0230   0.0207  -0.0160   0.00    0.0
2026/01/15 02:43:00.000   46.877096409    7.465040511   956.5641   6   7   0.0300   0.0542   0.0487  -0.0230   0.0208  -0.0159   0.00    0.0
2026/01/15 02:43:30.000   46.877096411    7.465040478   956.5635   6   7   0.0299   0.0541   0.0486  -0.0230   0.0208  -0.0158   0.00    0.0
2026/01/15 02:44:00.000   46.877096413    7.465040449   956.5630   6   7   0.0298   0.0540   0.0485  -0.0230   0.0209  -0.0158   0.00    0.0
2026/01/15 02:44:30.000   46.877096415    7.465040420   956.5626   6   7   0.0297   0.0539   0.0483  -0.0230   0.0209  -0.0157   0.00    0.0
2026/01/15 02:45:00.000   46.877096417    7.465040386   956.5621   6   7   0.0296   0.0538   0.0482  -0.0230   0.0210  -0.0156   0.00    0.0
2026/01/15 02:45:30.000   46.877096419    7.465040351   956.5617   6   7   0.0296   0.0537   0.0481  -0.0230   0.0210  -0.0156   0.00    0.0
2026/01/15 02:46:00.000   46.877096421    7.465040321   956.5616   6   7   0.0295   0.0536   0.0480  -0.0230   0.0211  -0.0155   0.00    0.0
2026/01/15 02:46:30.000   46.877096423    7.465040290   956.5612   6   7   0.0294   0.0535   0.0479  -0.0230   0.0211  -0.0154   0.00    0.0
2026/01/15 02:47:00.000   46.877096427    7.465040257   956.5606   6   7   0.0293   0.0534   0.0477  -0.0230   0.0211  -0.0154   0.00    0.0
2026/01/15 02:47:30.000   46.877096429    7.465040234   956.5601   6   7   0.0293   0.0533   0.0476  -0.0230   0.0212  -0.0153   0.00    0.0
2026/01/15 02:48:00.000   46.877096429    7.465040213   956.5596   6   7   0.0292   0.0532   0.0475  -0.0230   0.0212  -0.0153   0.00    0.0
2026/01/15 02:48:30.000   46.877096431    7.465040182   956.5592   6   7   0.0291   0.0531   0.0474  -0.0230   0.0212  -0.0152   0.00    0.0
2026/01/15 02:49:00.000   46.877096433    7.465040146   956.5587   6   7   0.0291   0.0530   0.0473  -0.0230   0.0213  -0.0152   0.00    0.0
2026/01/15 02:49:30.000   46.877096436    7.465040110   956.5581   6   7   0.0290   0.0529   0.0472  -0.0230   0.0213  -0.0151   0.00    0.0
2026/01/15 02:50:00.000   46.877096439    7.465040080   956.5576   6   7   0.0289   0.0528   0.0470  -0.0230   0.0214  -0.0151   0.00    0.0
2026/01/15 02:50:30.000   46.877096441    7.465040052   956.5572   6   7   0.0288   0.0527   0.0469  -0.0231   0.0214  -0.0150   0.00    0.0
2026/01/15 02:51:00.000   46.877096443    7.465040016   956.5568   6   7   0.0288   0.0526   0.0468  -0.0231   0.0215  -0.0150   0.00    0.0
2026/01/15 02:51:30.000   46.877096447    7.465039977   956.5562   6   7   0.0287   0.0525   0.0467  -0.0231   0.0215  -0.0149   0.00    0.0
2026/01/15 02:52:00.000   46.877096451    7.465039940   956.5557   6   7   0.0286   0.0524   0.0466  -0.0231   0.0215  -0.0149   0.00    0.0
2026/01/15 02:52:30.000   46.877096454    7.465039909   956.5552   6   7   0.0286   0.0523   0.0465  -0.0230   0.0216  -0.0148   0.00    0.0
2026/01/15 02:53:00.000   46.877096457    7.465039876   956.5548   6   7   0.0285   0.0522   0.0464  -0.0230   0.0216  -0.0148   0.00    0.0
2026/01/15 02:53:30.000   46.877096459    7.465039845   956.5544   6   7   0.0284   0.0521   0.0463  -0.0230   0.0216  -0.0147   0.00    0.0
2026/01/15 02:54:00.000   46.877096461    7.465039816   956.5539   6   7   0.0284   0.0520   0.0461  -0.0230   0.0217  -0.0147   0.00    0.0
2026/01/15 02:54:30.000   46.877096464    7.465039784   956.5533   6   7   0.0283   0.0519   0.0460  -0.0230   0.0217  -0.0147   0.00    0.0
2026/01/15 02:55:00.000   46.877096466    7.465039756   956.5527   6   7   0.0282   0.0518   0.0459  -0.0230   0.0217  -0.0146   0.00    0.0
2026/01/15 02:55:30.000   46.877096467    7.465039733   956.5523   6   7   0.0281   0.0517   0.0458  -0.0230   0.0218  -0.0146   0.00    0.0
2026/01/15 02:56:00.000   46.877096468    7.465039707   956.5518   6   7   0.0281   0.0516   0.0456  -0.0230   0.0218  -0.0146   0.00    0.0
2026/01/15 02:56:30.000   46.877096471    7.465039677   956.5511   6   7   0.0280   0.0515   0.0455  -0.0230   0.0218  -0.0145   0.00    0.0
2026/01/15 02:57:00.000   46.877096474    7.465039644   956.5503   6   7   0.0279   0.0514   0.0454  -0.0230   0.0218  -0.0145   0.00    0.0
2026/01/15 02:57:30.000   46.877096477    7.465039614   956.5494   6   7   0.0279   0.0513   0.0453  -0.0230   0.0219  -0.0145   0.00    0.0
2026/01/15 02:58:00.000   46.877096479    7.465039581   956.5484   6   7   0.0278   0.0512   0.0452  -0.0230   0.0219  -0.0144   0.00    0.0
2026/01/15 02:58:30.000   46.877096481    7.465039548   956.5472   6   7   0.0278   0.0511   0.0451  -0.0230   0.0219  -0.0144   0.00    0.0
2026/01/15 02:59:00.000   46.877096482    7.465039513   956.5461   6   7   0.0277   0.0510   0.0450  -0.0230   0.0219  -0.0144   0.00    0.0
2026/01/15 02:59:30.000   46.877096482    7.465039481   956.5450   6   7   0.0276   0.0509   0.0448  -0.0230   0.0220  -0.0144   0.00    0.0
2026/01/15 03:00:00.000   46.877096484    7.465039447   956.5443   6   7   0.0276   0.0508   0.0447  -0.0230   0.0220  -0.0143   0.00    0.0
2026/01/15 03:00:30.000   46.877096486    7.465039420   956.5436   6   7   0.0275   0.0507   0.0446  -0.0230   0.0220  -0.0143   0.00    0.0
2026/01/15 03:01:00.000   46.877096487    7.465039397   956.5428   6   7   0.0274   0.0506   0.0445  -0.0230   0.0221  -0.0143   0.00    0.0
2026/01/15 03:01:30.000   46.877096487    7.465039374   956.5421   6   7   0.0274   0.0505   0.0443  -0.0230   0.0221  -0.0143   0.00    0.0
2026/01/15 03:02:00.000   46.877096488    7.465039352   956.5413   6   7   0.0273   0.0504   0.0442  -0.0230   0.0221  -0.0143   0.00    0.0
2026/01/15 03:02:30.000   46.877096489    7.465039326   956.5404   6   7   0.0273   0.0503   0.0441  -0.0230   0.0221  -0.0142   0.00    0.0
2026/01/15 03:03:00.000   46.877096489    7.465039304   956.5395   6   7   0.0272   0.0502   0.0440  -0.0230   0.0221  -0.0142   0.00    0.0
2026/01/15 03:03:30.000   46.877096490    7.465039281   956.5386   6   7   0.0271   0.0501   0.0439  -0.0229   0.0222  -0.0142   0.00    0.0
2026/01/15 03:04:00.000   46.877096490    7.465039260   956.5377   6   7   0.0271   0.0500   0.0438  -0.0229   0.0222  -0.0142   0.00    0.0
2026/01/15 03:04:30.000   46.877096491    7.465039241   956.5369   6   7   0.0270   0.0499   0.0437  -0.0229   0.0222  -0.0142   0.00    0.0
2026/01/15 03:05:00.000   46.877096493    7.465039217   956.5362   6   7   0.0269   0.0498   0.0435  -0.0229   0.0222  -0.0142   0.00    0.0
2026/01/15 03:05:30.000   46.877096494    7.465039192   956.5353   6   7   0.0269   0.0497   0.0434  -0.0229   0.0222  -0.0142   0.00    0.0
2026/01/15 03:06:00.000   46.877096496    7.465039168   956.5347   6   7   0.0268   0.0496   0.0433  -0.0229   0.0223  -0.0142   0.00    0.0
2026/01/15 03:06:30.000   46.877096498    7.465039143   956.5339   6   7   0.0268   0.0495   0.0432  -0.0229   0.0223  -0.0141   0.00    0.0
2026/01/15 03:07:00.000   46.877096499    7.465039118   956.5332   6   7   0.0267   0.0494   0.0431  -0.0229   0.0223  -0.0141   0.00    0.0
2026/01/15 03:07:30.000   46.877096500    7.465039096   956.5324   6   7   0.0266   0.0493   0.0430  -0.0229   0.0223  -0.0141   0.00    0.0
2026/01/15 03:08:00.000   46.877096501    7.465039076   956.5316   6   7   0.0266   0.0492   0.0429  -0.0228   0.0223  -0.0141   0.00    0.0
2026/01/15 03:08:30.000   46.877096501    7.465039057   956.5306   6   7   0.0265   0.0491   0.0427  -0.0228   0.0223  -0.0141   0.00    0.0
2026/01/15 03:09:00.000   46.877096500    7.465039040   956.5297   6   7   0.0265   0.0490   0.0426  -0.0228   0.0223  -0.0141   0.00    0.0
2026/01/15 03:09:30.000   46.877096501    7.465039020   956.5289   6   7   0.0264   0.0489   0.0425  -0.0228   0.0223  -0.0141   0.00    0.0
2026/01/15 03:10:00.000   46.877096502    7.465039005   956.5283   6   7   0.0263   0.0488   0.0424  -0.0228   0.0224  -0.0141   0.00    0.0
2026/01/15 03:10:30.000   46.877096502    7.465038992   956.5276   6   7   0.0263   0.0487   0.0423  -0.0228   0.0224  -0.0141   0.00    0.0
2026/01/15 03:11:00.000   46.877096504    7.465038976   956.5270   6   7   0.0262   0.0486   0.0421  -0.0228   0.0224  -0.0141   0.00    0.0
2026/01/15 03:11:30.000   46.877096505    7.465038954   956.5262   6   7   0.0262   0.0485   0.0420  -0.0228   0.0224  -0.0141   0.00    0.0
2026/01/15 03:12:00.000   46.877096507    7.465038933   956.5254   6   7   0.0261   0.0484   0.0419  -0.0227   0.0224  -0.0141   0.00    0.0
2026/01/15 03:12:30.000   46.877096508    7.465038914   956.5246   6   7   0.0261   0.0483   0.0418  -0.0227   0.0224  -0.0141   0.00    0.0
2026/01/15 03:13:00.000   46.877096511    7.465038889   956.5237   6   7   0.0260   0.0482   0.0417  -0.0227   0.0224  -0.0141   0.00    0.0
2026/01/15 03:13:30.000   46.877096514    7.465038863   956.5229   6   7   0.0260   0.0481   0.0416  -0.0227   0.0224  -0.0141   0.00    0.0
2026/01/15 03:14:00.000   46.877096516    7.465038840   956.5218   6   7   0.0259   0.0480   0.0415  -0.0227   0.0224  -0.0141   0.00    0.0
2026/01/15 03:14:30.000   46.877096517    7.465038820   956.5207   6   7   0.0258   0.0479   0.0413  -0.0227   0.0224  -0.0141   0.00    0.0
2026/01/15 03:15:00.000   46.877096519    7.465038801   956.5199   6   7   0.0258   0.0478   0.0412  -0.0227   0.0224  -0.0141   0.00    0.0
2026/01/15 03:15:30.000   46.877096520    7.465038782   956.5191   6   8   0.0257   0.0477   0.0411  -0.0226   0.0224  -0.0141   0.00    0.0
2026/01/15 03:16:00.000   46.877096522    7.465038763   956.5183   6   8   0.0257   0.0476   0.0410  -0.0226   0.0224  -0.0141   0.00    0.0
2026/01/15 03:16:30.000   46.877096523    7.465038744   956.5175   6   8   0.0256   0.0475   0.0409  -0.0226   0.0224  -0.0141   0.00    0.0
2026/01/15 03:17:00.000   46.877096525    7.465038725   956.5167   6   8   0.0256   0.0474   0.0408  -0.0226   0.0224  -0.0141   0.00    0.0
2026/01/15 03:17:30.000   46.877096527    7.465038708   956.5156   6   8   0.0255   0.0473   0.0407  -0.0225   0.0224  -0.0141   0.00    0.0
2026/01/15 03:18:00.000   46.877096528    7.465038691   956.5145   6   8   0.0255   0.0472   0.0405  -0.0225   0.0224  -0.0141   0.00    0.0
2026/01/15 03:18:30.000   46.877096529    7.465038669   956.5134   6   8   0.0254   0.0471   0.0404  -0.0225   0.0224  -0.0141   0.00    0.0
2026/01/15 03:19:00.000   46.877096532    7.465038647   956.5123   6   8   0.0253   0.0470   0.0403  -0.0225   0.0224  -0.0141   0.00    0.0
2026/01/15 03:19:30.000   46.877096534    7.465038624   956.5113   6   8   0.0253   0.0469   0.0402  -0.0224   0.0224  -0.0141   0.00    0.0
2026/01/15 03:20:00.000   46.877096536    7.465038605   956.5102   6   8   0.0252   0.0468   0.0401  -0.0224   0.0224  -0.0141   0.00    0.0
2026/01/15 03:20:30.000   46.877096537    7.465038583   956.5091   6   8   0.0252   0.0467   0.0399  -0.0224   0.0224  -0.0141   0.00    0.0
2026/01/15 03:21:00.000   46.877096538    7.465038565   956.5078   6   8   0.0251   0.0466   0.0398  -0.0224   0.0224  -0.0141   0.00    0.0
2026/01/15 03:21:30.000   46.877096539    7.465038544   956.5065   6   8   0.0251   0.0465   0.0397  -0.0224   0.0224  -0.0141   0.00    0.0
2026/01/15 03:22:00.000   46.877096540    7.465038525   956.5052   6   8   0.0250   0.0464   0.0396  -0.0223   0.0223  -0.0141   0.00    0.0
2026/01/15 03:22:30.000   46.877096542    7.465038506   956.5042   6   8   0.0250   0.0463   0.0395  -0.0223   0.0223  -0.0141   0.00    0.0
2026/01/15 03:23:00.000   46.877096544    7.465038486   956.5030   6   8   0.0249   0.0462   0.0394  -0.0223   0.0223  -0.0140   0.00    0.0
2026/01/15 03:23:30.000   46.877096546    7.465038463   956.5018   6   8   0.0249   0.0461   0.0393  -0.0222   0.0223  -0.0141   0.00    0.0
2026/01/15 03:24:00.000   46.877096550    7.465038438   956.5007   6   8   0.0248   0.0460   0.0392  -0.0222   0.0223  -0.0141   0.00    0.0
2026/01/15 03:24:30.000   46.877096553    7.465038413   956.4995   6   8   0.0247   0.0459   0.0390  -0.0222   0.0223  -0.0141   0.00    0.0
2026/01/15 03:25:00.000   46.877096556    7.465038387   956.4983   6   8   0.0247   0.0458   0.0389  -0.0222   0.0223  -0.0141   0.00    0.0
2026/01/15 03:25:30.000   46.877096559    7.465038361   956.4970   6   8   0.0246   0.0457   0.0388  -0.0221   0.0222  -0.0141   0.00    0.0
2026/01/15 03:26:00.000   46.877096561    7.465038336   956.4956   6   8   0.0246   0.0456   0.0387  -0.0221   0.0222  -0.0141   0.00    0.0
2026/01/15 03:26:30.000   46.877096565    7.465038311   956.4943   6   8   0.0245   0.0455   0.0386  -0.0221   0.0222  -0.0141   0.00    0.0
2026/01/15 03:27:00.000   46.877096568    7.465038288   956.4930   6   8   0.0245   0.0455   0.0385  -0.0221   0.0222  -0.0141   0.00    0.0
2026/01/15 03:27:30.000   46.877096572    7.465038263   956.4918   6   8   0.0244   0.0454   0.0384  -0.0220   0.0222  -0.0141   0.00    0.0
2026/01/15 03:28:00.000   46.877096575    7.465038236   956.4910   6   7   0.0244   0.0453   0.0383  -0.0220   0.0221  -0.0141   0.00    0.0
2026/01/15 03:28:30.000   46.877096578    7.465038209   956.4903   6   7   0.0243   0.0452   0.0383  -0.0220   0.0221  -0.0141   0.00    0.0
