% program   : RTKPOST ver.demo5 b34d
% inp file  : E:\Master courses\SNDP-PROJECT\Old_data\data\ZIM200CHE_R_20260150000_01D_30S_MO.rnx
% inp file  : E:\Master courses\SNDP-PROJECT\New_Data\nav\BRDC00IGS_R_20260150000_01D_MN.rnx
% inp file  : E:\Master courses\SNDP-PROJECT\New_Data\DATA_FINAL_ANT_EXTRA\COD0MGXFIN_20260150000_01D_05M_ORB.SP3
% inp file  : E:\Master courses\SNDP-PROJECT\New_Data\DATA_FINAL_ANT_EXTRA\COD0MGXFIN_20260150000_01D_30S_CLK.CLK
% obs start : 2026/01/15 00:00:00.0 GPST (week2401 345600.0s)
% obs end   : 2026/01/15 01:00:00.0 GPST (week2401 349200.0s)
% pos mode  : PPP Static
% solution  : Forward
% elev mask : 15.0 deg
% dynamics  : off
% tidecorr  : off
% tropo opt : Saastamoinen
% ephemeris : Precise
% navi sys  : GPS Galileo BDS
% antenna1  : TRM59800.00     NONE  ( 0.0000  0.0000  0.0000)
%
% (lat/lon/height=WGS84/ellipsoidal,Q=1:fix,2:float,3:sbas,4:dgps,5:single,6:ppp,ns=# of satellites)
%  GPST                  latitude(deg) longitude(deg)  height(m)   Q  ns   sdn(m)   sde(m)   sdu(m)  sdne(m)  sdeu(m)  sdun(m) age(s)  ratio
2026/01/15 00:00:00.000   46.877109555    7.465071699   956.6387   6  25   0.8879   0.7580   1.8576  -0.3009   0.5637   0.4180   0.00    0.0
2026/01/15 00:00:30.000   46.877110260    7.465070342   956.4452   6  26   0.6187   0.5160   1.2772  -0.1735   0.3379   0.3454   0.00    0.0
2026/01/15 00:01:00.000   46.877110461    7.465070609   956.4238   6  26   0.5030   0.4170   1.0341  -0.1324   0.2609   0.2909   0.00    0.0
2026/01/15 00:01:30.000   46.877111101    7.465071369   956.3429   6  26   0.4346   0.3594   0.8915  -0.1112   0.2195   0.2546   0.00    0.0
2026/01/15 00:02:00.000   46.877111885    7.465072294   956.2351   6  26   0.3881   0.3206   0.7949  -0.0980   0.1928   0.2285   0.00    0.0
2026/01/15 00:02:30.000   46.877111592    7.465071725   956.2929   6  25   0.3543   0.2931   0.7248  -0.0865   0.1713   0.2069   0.00    0.0
2026/01/15 00:03:00.000   46.877110947    7.465071274   956.3194   6  25   0.3279   0.2717   0.6698  -0.0782   0.1551   0.1897   0.00    0.0
2026/01/15 00:03:30.000   46.877110382    7.465071005   956.3048   6  25   0.3064   0.2543   0.6249  -0.0719   0.1424   0.1755   0.00    0.0
2026/01/15 00:04:00.000   46.877110090    7.465070893   956.2873   6  25   0.2885   0.2399   0.5873  -0.0669   0.1320   0.1635   0.00    0.0
2026/01/15 00:04:30.000   46.877110124    7.465071494   956.1617   6  25   0.2735   0.2274   0.5561  -0.0653   0.1237   0.1559   0.00    0.0
2026/01/15 00:05:00.000   46.877110164    7.465071749   956.0882   6  25   0.2605   0.2167   0.5290  -0.0638   0.1165   0.1489   0.00    0.0
2026/01/15 00:05:30.000   46.877110210    7.465071961   956.0460   6  25   0.2491   0.2073   0.5051  -0.0623   0.1104   0.1424   0.00    0.0
2026/01/15 00:06:00.000   46.877110215    7.465072048   956.0241   6  25   0.2390   0.1991   0.4839  -0.0609   0.1051   0.1363   0.00    0.0
2026/01/15 00:06:30.000   46.877110201    7.465072235   956.0143   6  25   0.2300   0.1918   0.4649  -0.0595   0.1004   0.1308   0.00    0.0
2026/01/15 00:07:00.000   46.877109868    7.465071950   956.0696   6  24   0.2221   0.1855   0.4481  -0.0577   0.0955   0.1252   0.00    0.0
2026/01/15 00:07:30.000   46.877109562    7.465071732   956.1277   6  24   0.2148   0.1797   0.4329  -0.0561   0.0911   0.1201   0.00    0.0
2026/01/15 00:08:00.000   46.877109266    7.465071520   956.1584   6  24   0.2081   0.1745   0.4186  -0.0546   0.0871   0.1151   0.00    0.0
2026/01/15 00:08:30.000   46.877109222    7.465071640   956.1206   6  25   0.2018   0.1695   0.4049  -0.0537   0.0841   0.1106   0.00    0.0
2026/01/15 00:09:00.000   46.877109136    7.465071636   956.0844   6  25   0.1959   0.1649   0.3920  -0.0528   0.0813   0.1062   0.00    0.0
2026/01/15 00:09:30.000   46.877109150    7.465071669   956.0355   6  24   0.1906   0.1607   0.3803  -0.0518   0.0785   0.1014   0.00    0.0
2026/01/15 00:10:00.000   46.877109184    7.465071843   955.9800   6  24   0.1856   0.1568   0.3692  -0.0508   0.0759   0.0967   0.00    0.0
2026/01/15 00:10:30.000   46.877109135    7.465071615   955.9584   6  23   0.1810   0.1533   0.3590  -0.0495   0.0730   0.0921   0.00    0.0
2026/01/15 00:11:00.000   46.877109088    7.465071374   955.9443   6  23   0.1767   0.1500   0.3495  -0.0484   0.0704   0.0878   0.00    0.0
2026/01/15 00:11:30.000   46.877109020    7.465071114   955.9238   6  23   0.1726   0.1470   0.3406  -0.0474   0.0680   0.0837   0.00    0.0
2026/01/15 00:12:00.000   46.877108874    7.465070846   955.9128   6  23   0.1689   0.1441   0.3323  -0.0464   0.0658   0.0800   0.00    0.0
2026/01/15 00:12:30.000   46.877108727    7.465070546   955.9122   6  23   0.1653   0.1414   0.3245  -0.0455   0.0637   0.0765   0.00    0.0
2026/01/15 00:13:00.000   46.877108693    7.465070618   955.8824   6  24   0.1618   0.1387   0.3168  -0.0450   0.0621   0.0731   0.00    0.0
2026/01/15 00:13:30.000   46.877108675    7.465070686   955.8553   6  24   0.1585   0.1362   0.3093  -0.0444   0.0606   0.0697   0.00    0.0
2026/01/15 00:14:00.000   46.877108638    7.465070746   955.8300   6  24   0.1552   0.1338   0.3019  -0.0439   0.0591   0.0662   0.00    0.0
2026/01/15 00:14:30.000   46.877108590    7.465070879   955.8111   6  24   0.1521   0.1315   0.2947  -0.0435   0.0577   0.0628   0.00    0.0
2026/01/15 00:15:00.000   46.877108523    7.465071066   955.7903   6  24   0.1491   0.1293   0.2879  -0.0430   0.0563   0.0594   0.00    0.0
2026/01/15 00:15:30.000   46.877108442    7.465071263   955.7632   6  23   0.1464   0.1272   0.2818  -0.0426   0.0549   0.0568   0.00    0.0
2026/01/15 00:16:00.000   46.877108310    7.465071420   955.7423   6  23   0.1437   0.1253   0.2761  -0.0423   0.0536   0.0544   0.00    0.0
2026/01/15 00:16:30.000   46.877108200    7.465071480   955.7224   6  23   0.1412   0.1234   0.2706  -0.0419   0.0524   0.0521   0.00    0.0
2026/01/15 00:17:00.000   46.877108120    7.465071504   955.7051   6  23   0.1389   0.1216   0.2655  -0.0415   0.0513   0.0499   0.00    0.0
2026/01/15 00:17:30.000   46.877108070    7.465071520   955.6919   6  23   0.1366   0.1199   0.2607  -0.0412   0.0502   0.0479   0.00    0.0
2026/01/15 00:18:00.000   46.877107876    7.465071304   955.7017   6  22   0.1345   0.1183   0.2559  -0.0407   0.0490   0.0454   0.00    0.0
2026/01/15 00:18:30.000   46.877107637    7.465071063   955.7076   6  22   0.1323   0.1168   0.2511  -0.0403   0.0477   0.0428   0.00    0.0
2026/01/15 00:19:00.000   46.877107393    7.465070865   955.7105   6  22   0.1302   0.1153   0.2462  -0.0398   0.0466   0.0401   0.00    0.0
2026/01/15 00:19:30.000   46.877107178    7.465070700   955.7047   6  22   0.1281   0.1139   0.2415  -0.0394   0.0454   0.0373   0.00    0.0
2026/01/15 00:20:00.000   46.877107146    7.465070663   955.6770   6  23   0.1261   0.1125   0.2368  -0.0391   0.0446   0.0346   0.00    0.0
2026/01/15 00:20:30.000   46.877107078    7.465070660   955.6557   6  23   0.1241   0.1111   0.2323  -0.0388   0.0437   0.0319   0.00    0.0
2026/01/15 00:21:00.000   46.877107009    7.465070637   955.6356   6  23   0.1222   0.1098   0.2280  -0.0385   0.0430   0.0292   0.00    0.0
2026/01/15 00:21:30.000   46.877106900    7.465070618   955.6183   6  23   0.1204   0.1085   0.2240  -0.0382   0.0422   0.0266   0.00    0.0
2026/01/15 00:22:00.000   46.877106792    7.465070636   955.6081   6  23   0.1187   0.1073   0.2202  -0.0379   0.0415   0.0240   0.00    0.0
2026/01/15 00:22:30.000   46.877106588    7.465070557   955.6177   6  22   0.1171   0.1061   0.2166  -0.0376   0.0407   0.0214   0.00    0.0
2026/01/15 00:23:00.000   46.877106451    7.465070435   955.6280   6  22   0.1155   0.1050   0.2130  -0.0372   0.0399   0.0182   0.00    0.0
2026/01/15 00:23:30.000   46.877106314    7.465070368   955.6403   6  22   0.1139   0.1039   0.2094  -0.0369   0.0392   0.0142   0.00    0.0
2026/01/15 00:24:00.000   46.877106191    7.465070308   955.6522   6  22   0.1123   0.1029   0.2057  -0.0365   0.0384   0.0087   0.00    0.0
2026/01/15 00:24:30.000   46.877106044    7.465070211   955.6619   6  22   0.1107   0.1018   0.2021  -0.0362   0.0376  -0.0069   0.00    0.0
2026/01/15 00:25:00.000   46.877105947    7.465070272   955.6611   6  23   0.1092   0.1008   0.1985  -0.0359   0.0370  -0.0124   0.00    0.0
2026/01/15 00:25:30.000   46.877105853    7.465070271   955.6569   6  23   0.1077   0.0998   0.1950  -0.0357   0.0365  -0.0159   0.00    0.0
2026/01/15 00:26:00.000   46.877105755    7.465070243   955.6524   6  23   0.1062   0.0988   0.1917  -0.0355   0.0359  -0.0184   0.00    0.0
2026/01/15 00:26:30.000   46.877105673    7.465070244   955.6471   6  23   0.1048   0.0978   0.1886  -0.0352   0.0354  -0.0204   0.00    0.0
2026/01/15 00:27:00.000   46.877105559    7.465070125   955.6509   6  22   0.1036   0.0969   0.1857  -0.0350   0.0348  -0.0221   0.00    0.0
2026/01/15 00:27:30.000   46.877105460    7.465070003   955.6585   6  22   0.1023   0.0961   0.1830  -0.0347   0.0343  -0.0234   0.00    0.0
2026/01/15 00:28:00.000   46.877105321    7.465069906   955.6700   6  22   0.1011   0.0952   0.1802  -0.0344   0.0337  -0.0248   0.00    0.0
2026/01/15 00:28:30.000   46.877105208    7.465069775   955.6777   6  22   0.0999   0.0944   0.1774  -0.0341   0.0331  -0.0260   0.00    0.0
2026/01/15 00:29:00.000   46.877105089    7.465069686   955.6838   6  22   0.0986   0.0936   0.1745  -0.0338   0.0326  -0.0273   0.00    0.0
2026/01/15 00:29:30.000   46.877104979    7.465069606   955.6926   6  22   0.0974   0.0928   0.1717  -0.0336   0.0320  -0.0284   0.00    0.0
2026/01/15 00:30:00.000   46.877104895    7.465069470   955.7009   6  22   0.0961   0.0920   0.1689  -0.0333   0.0315  -0.0294   0.00    0.0
2026/01/15 00:30:30.000   46.877104850    7.465069514   955.7023   6  23   0.0949   0.0912   0.1662  -0.0331   0.0311  -0.0301   0.00    0.0
2026/01/15 00:31:00.000   46.877104815    7.465069595   955.6993   6  23   0.0938   0.0905   0.1636  -0.0329   0.0307  -0.0308   0.00    0.0
2026/01/15 00:31:30.000   46.877104729    7.465069566   955.7015   6  22   0.0927   0.0897   0.1612  -0.0327   0.0302  -0.0314   0.00    0.0
2026/01/15 00:32:00.000   46.877104633    7.465069535   955.7042   6  22   0.0917   0.0890   0.1589  -0.0324   0.0297  -0.0319   0.00    0.0
2026/01/15 00:32:30.000   46.877104531    7.465069481   955.7056   6  22   0.0907   0.0884   0.1568  -0.0322   0.0293  -0.0323   0.00    0.0
2026/01/15 00:33:00.000   46.877104418    7.465069391   955.7100   6  22   0.0897   0.0877   0.1546  -0.0320   0.0289  -0.0328   0.00    0.0
2026/01/15 00:33:30.000   46.877104250    7.465069319   955.7194   6  22   0.0887   0.0870   0.1524  -0.0318   0.0285  -0.0332   0.00    0.0
2026/01/15 00:34:00.000   46.877104143    7.465069300   955.7181   6  22   0.0877   0.0864   0.1502  -0.0316   0.0282  -0.0334   0.00    0.0
2026/01/15 00:34:30.000   46.877103982    7.465069192   955.7253   6  21   0.0867   0.0857   0.1482  -0.0314   0.0278  -0.0337   0.00    0.0
2026/01/15 00:35:00.000   46.877103829    7.465069111   955.7323   6  21   0.0857   0.0851   0.1461  -0.0312   0.0274  -0.0340   0.00    0.0
2026/01/15 00:35:30.000   46.877103704    7.465068996   955.7375   6  21   0.0848   0.0845   0.1441  -0.0310   0.0271  -0.0342   0.00    0.0
2026/01/15 00:36:00.000   46.877103595    7.465068897   955.7425   6  21   0.0839   0.0839   0.1422  -0.0308   0.0267  -0.0344   0.00    0.0
2026/01/15 00:36:30.000   46.877103525    7.465068772   955.7442   6  21   0.0830   0.0832   0.1404  -0.0306   0.0264  -0.0345   0.00    0.0
2026/01/15 00:37:00.000   46.877103461    7.465068656   955.7469   6  21   0.0823   0.0826   0.1388  -0.0304   0.0261  -0.0346   0.00    0.0
2026/01/15 00:37:30.000   46.877103385    7.465068585   955.7519   6  21   0.0815   0.0820   0.1373  -0.0302   0.0259  -0.0347   0.00    0.0
2026/01/15 00:38:00.000   46.877103314    7.465068521   955.7559   6  21   0.0808   0.0814   0.1357  -0.0301   0.0256  -0.0347   0.00    0.0
2026/01/15 00:38:30.000   46.877103290    7.465068554   955.7524   6  22   0.0800   0.0808   0.1340  -0.0299   0.0254  -0.0348   0.00    0.0
2026/01/15 00:39:00.000   46.877103247    7.465068547   955.7502   6  22   0.0792   0.0802   0.1323  -0.0298   0.0252  -0.0348   0.00    0.0
2026/01/15 00:39:30.000   46.877103191    7.465068490   955.7515   6  22   0.0784   0.0796   0.1306  -0.0296   0.0249  -0.0348   0.00    0.0
2026/01/15 00:40:00.000   46.877103109    7.465068425   955.7562   6  22   0.0776   0.0791   0.1289  -0.0295   0.0247  -0.0349   0.00    0.0
2026/01/15 00:40:30.000   46.877103040    7.465068357   955.7592   6  22   0.0768   0.0785   0.1273  -0.0293   0.0245  -0.0349   0.00    0.0
2026/01/15 00:41:00.000   46.877102954    7.465068201   955.7664   6  21   0.0761   0.0780   0.1257  -0.0291   0.0242  -0.0349   0.00    0.0
2026/01/15 00:41:30.000   46.877102868    7.465068062   955.7717   6  21   0.0754   0.0774   0.1243  -0.0289   0.0240  -0.0349   0.00    0.0
2026/01/15 00:42:00.000   46.877102792    7.465067920   955.7763   6  21   0.0747   0.0769   0.1229  -0.0288   0.0237  -0.0349   0.00    0.0
2026/01/15 00:42:30.000   46.877102724    7.465067797   955.7813   6  21   0.0741   0.0764   0.1216  -0.0286   0.0235  -0.0348   0.00    0.0
2026/01/15 00:43:00.000   46.877102661    7.465067697   955.7863   6  21   0.0734   0.0760   0.1203  -0.0284   0.0233  -0.0348   0.00    0.0
2026/01/15 00:43:30.000   46.877102592    7.465067610   955.7906   6  21   0.0728   0.0755   0.1189  -0.0282   0.0231  -0.0348   0.00    0.0
2026/01/15 00:44:00.000   46.877102551    7.465067600   955.7905   6  22   0.0721   0.0750   0.1174  -0.0281   0.0229  -0.0347   0.00    0.0
2026/01/15 00:44:30.000   46.877102506    7.465067551   955.7912   6  22   0.0714   0.0745   0.1160  -0.0279   0.0226  -0.0346   0.00    0.0
2026/01/15 00:45:00.000   46.877102466    7.465067493   955.7916   6  22   0.0707   0.0740   0.1145  -0.0278   0.0224  -0.0346   0.00    0.0
2026/01/15 00:45:30.000   46.877102414    7.465067337   955.7994   6  22   0.0701   0.0735   0.1132  -0.0276   0.0222  -0.0345   0.00    0.0
2026/01/15 00:46:00.000   46.877102364    7.465067187   955.8056   6  22   0.0694   0.0730   0.1118  -0.0274   0.0220  -0.0345   0.00    0.0
2026/01/15 00:46:30.000   46.877102312    7.465067031   955.8114   6  22   0.0688   0.0726   0.1106  -0.0272   0.0218  -0.0344   0.00    0.0
2026/01/15 00:47:00.000   46.877102258    7.465066874   955.8172   6  22   0.0682   0.0721   0.1094  -0.0270   0.0217  -0.0343   0.00    0.0
2026/01/15 00:47:30.000   46.877102206    7.465066742   955.8235   6  22   0.0677   0.0717   0.1083  -0.0269   0.0215  -0.0342   0.00    0.0
2026/01/15 00:48:00.000   46.877102153    7.465066611   955.8315   6  22   0.0671   0.0713   0.1072  -0.0267   0.0213  -0.0341   0.00    0.0
2026/01/15 00:48:30.000   46.877102102    7.465066470   955.8404   6  22   0.0666   0.0708   0.1060  -0.0265   0.0211  -0.0340   0.00    0.0
2026/01/15 00:49:00.000   46.877102051    7.465066311   955.8509   6  22   0.0660   0.0704   0.1048  -0.0263   0.0209  -0.0339   0.00    0.0
2026/01/15 00:49:30.000   46.877101990    7.465066149   955.8616   6  22   0.0654   0.0700   0.1035  -0.0261   0.0207  -0.0338   0.00    0.0
2026/01/15 00:50:00.000   46.877101924    7.465066017   955.8717   6  22   0.0648   0.0696   0.1023  -0.0259   0.0205  -0.0337   0.00    0.0
2026/01/15 00:50:30.000   46.877101859    7.465065883   955.8816   6  22   0.0642   0.0691   0.1012  -0.0258   0.0203  -0.0336   0.00    0.0
2026/01/15 00:51:00.000   46.877101802    7.465065750   955.8906   6  22   0.0636   0.0687   0.1000  -0.0256   0.0201  -0.0335   0.00    0.0
2026/01/15 00:51:30.000   46.877101756    7.465065634   955.8988   6  22   0.0631   0.0683   0.0990  -0.0254   0.0200  -0.0334   0.00    0.0
2026/01/15 00:52:00.000   46.877101706    7.465065514   955.9061   6  21   0.0626   0.0680   0.0980  -0.0253   0.0197  -0.0332   0.00    0.0
2026/01/15 00:52:30.000   46.877101657    7.465065394   955.9122   6  21   0.0621   0.0676   0.0972  -0.0251   0.0195  -0.0331   0.00    0.0
2026/01/15 00:53:00.000   46.877101609    7.465065258   955.9182   6  21   0.0617   0.0672   0.0963  -0.0250   0.0192  -0.0330   0.00    0.0
2026/01/15 00:53:30.000   46.877101562    7.465065099   955.9245   6  21   0.0612   0.0669   0.0953  -0.0248   0.0190  -0.0328   0.00    0.0
2026/01/15 00:54:00.000   46.877101511    7.465064924   955.9311   6  21   0.0606   0.0665   0.0944  -0.0246   0.0187  -0.0327   0.00    0.0
2026/01/15 00:54:30.000   46.877101453    7.465064747   955.9379   6  21   0.0601   0.0661   0.0934  -0.0244   0.0184  -0.0326   0.00    0.0
2026/01/15 00:55:00.000   46.877101391    7.465064575   955.9453   6  21   0.0596   0.0658   0.0924  -0.0243   0.0181  -0.0324   0.00    0.0
2026/01/15 00:55:30.000   46.877101335    7.465064418   955.9523   6  21   0.0591   0.0654   0.0915  -0.0241   0.0178  -0.0323   0.00    0.0
2026/01/15 00:56:00.000   46.877101286    7.465064272   955.9588   6  21   0.0586   0.0651   0.0906  -0.0239   0.0176  -0.0321   0.00    0.0
2026/01/15 00:56:30.000   46.877101247    7.465064134   955.9647   6  21   0.0581   0.0647   0.0897  -0.0238   0.0173  -0.0320   0.00    0.0
2026/01/15 00:57:00.000   46.877101212    7.465064011   955.9704   6  21   0.0577   0.0644   0.0889  -0.0236   0.0171  -0.0318   0.00    0.0
2026/01/15 00:57:30.000   46.877101175    7.465063887   955.9760   6  21   0.0573   0.0641   0.0882  -0.0235   0.0169  -0.0317   0.00    0.0
2026/01/15 00:58:00.000   46.877101131    7.465063751   955.9819   6  21   0.0569   0.0637   0.0874  -0.0234   0.0167  -0.0315   0.00    0.0
2026/01/15 00:58:30.000   46.877101087    7.465063610   955.9882   6  21   0.0564   0.0634   0.0865  -0.0232   0.0164  -0.0314   0.00    0.0
2026/01/15 00:59:00.000   46.877101048    7.465063474   955.9947   6  21   0.0560   0.0631   0.0857  -0.0231   0.0162  -0.0312   0.00    0.0
2026/01/15 00:59:30.000   46.877101008    7.465063339   956.0008   6  21   0.0555   0.0628   0.0848  -0.0229   0.0159  -0.0310   0.00    0.0
2026/01/15 01:00:00.000   46.877100962    7.465063188   956.0063   6  21   0.0550   0.0624   0.0840  -0.0227   0.0157  -0.0309   0.00    0.0
