% program   : RTKLIB ver.EX 2.5.0
% inp file  : C:\PPP_PROJECT\RTKLIB_work\runs\HKWS_1B_20260508_102907\HKWS00HKG_R_20260150000_01D_30S_MO.rnx
% inp file  : C:\PPP_PROJECT\RTKLIB_work\runs\HKWS_1B_20260508_102907\BRDC00IGS_R_20260150000_01D_MN.rnx
% inp file  : C:\PPP_PROJECT\RTKLIB_work\runs\HKWS_1B_20260508_102907\COD0MGXFIN_20260150000_01D_05M_ORB.SP3
% inp file  : C:\PPP_PROJECT\RTKLIB_work\runs\HKWS_1B_20260508_102907\COD0MGXFIN_20260150000_01D_30S_CLK.CLK
% inp file  : C:\PPP_PROJECT\RTKLIB_work\runs\HKWS_1B_20260508_102907
% inp file  : C:\PPP_PROJECT\RTKLIB_work\runs\HKWS_1B_20260508_102907
% obs start : 2026/01/15 00:00:00.0 GPST (week2401 345600.0s)
% obs end   : 2026/01/15 23:59:30.0 GPST (week2401 431970.0s)
% pos mode  : PPP Static
% freqs     : L1+L2/E5b
% solution  : Forward
% elev mask : 15.0 deg
% dynamics  : on
% tidecorr  :
% ionos opt : Iono-Free LC
% tropo opt : Saastamoinen
% ephemeris : Precise
% navi sys  : GPS
% antenna1  : LEIAR25.R4      LEIT  ( 0.0000  0.0000  0.0083)
%
% (lat/lon/height=WGS84/ellipsoidal,Q=1:fix,2:float,3:sbas,4:dgps,5:single,6:ppp,ns=# of satellites)
%  GPST                  latitude(deg) longitude(deg)  height(m)   Q  ns   sdn(m)   sde(m)   sdu(m)  sdne(m)  sdeu(m)  sdun(m) age(s)  ratio
2026/01/15 00:00:00.000   22.434285097  114.335384482    65.9337   6   8   3.5952   4.3752  10.6165  -1.9547   3.0999  -2.6136   0.00    0.0
2026/01/15 00:00:30.000   22.434284278  114.335386852    66.3060   6   8   2.5485   3.1046   7.5323  -1.3856   2.2015  -1.8645   0.00    0.0
2026/01/15 00:01:00.000   22.434283462  114.335388484    66.3830   6   8   2.0804   2.5361   6.1047  -1.1299   1.7906  -1.5258   0.00    0.0
2026/01/15 00:01:30.000   22.434283076  114.335389459    66.3030   6   8   1.7994   2.1951   5.2207  -0.9757   1.5389  -1.3222   0.00    0.0
2026/01/15 00:02:00.000   22.434283125  114.335390064    66.0223   6   8   1.6061   1.9610   4.5937  -0.8690   1.3623  -1.1824   0.00    0.0
2026/01/15 00:02:30.000   22.434283221  114.335390202    65.7695   6   8   1.4622   1.7872   4.1126  -0.7891   1.2282  -1.0787   0.00    0.0
2026/01/15 00:03:00.000   22.434283311  114.335389811    65.5840   6   8   1.3493   1.6512   3.7247  -0.7260   1.1210  -0.9977   0.00    0.0
2026/01/15 00:03:30.000   22.434283540  114.335389471    65.3903   6   8   1.2572   1.5407   3.4012  -0.6741   1.0324  -0.9320   0.00    0.0
2026/01/15 00:04:00.000   22.434283748  114.335389316    65.2581   6   8   1.1801   1.4486   3.1252  -0.6302   0.9572  -0.8772   0.00    0.0
2026/01/15 00:04:30.000   22.434283799  114.335389185    65.1422   6   8   1.1141   1.3700   2.8856  -0.5923   0.8923  -0.8305   0.00    0.0
2026/01/15 00:05:00.000   22.434283688  114.335388985    65.0288   6   8   1.0565   1.3018   2.6751  -0.5590   0.8353  -0.7898   0.00    0.0
2026/01/15 00:05:30.000   22.434283533  114.335388928    64.9167   6   8   1.0056   1.2417   2.4885  -0.5292   0.7849  -0.7539   0.00    0.0
2026/01/15 00:06:00.000   22.434283410  114.335388783    64.8213   6   8   0.9601   1.1883   2.3219  -0.5023   0.7399  -0.7219   0.00    0.0
2026/01/15 00:06:30.000   22.434283415  114.335388587    64.7209   6   8   0.9189   1.1402   2.1723  -0.4777   0.6993  -0.6930   0.00    0.0
2026/01/15 00:07:00.000   22.434283406  114.335388500    64.6326   6   8   0.8815   1.0966   2.0374  -0.4550   0.6625  -0.6666   0.00    0.0
2026/01/15 00:07:30.000   22.434283242  114.335388556    64.5829   6   8   0.8471   1.0567   1.9152  -0.4341   0.6291  -0.6423   0.00    0.0
2026/01/15 00:08:00.000   22.434282981  114.335388601    64.5479   6   8   0.8154   1.0201   1.8041  -0.4145   0.5985  -0.6199   0.00    0.0
2026/01/15 00:08:30.000   22.434282721  114.335388534    64.5139   6   8   0.7860   0.9862   1.7029  -0.3962   0.5703  -0.5991   0.00    0.0
2026/01/15 00:09:00.000   22.434282497  114.335388421    64.4791   6   8   0.7585   0.9547   1.6104  -0.3789   0.5444  -0.5796   0.00    0.0
2026/01/15 00:09:30.000   22.434282354  114.335388303    64.4304   6   8   0.7329   0.9253   1.5256  -0.3626   0.5203  -0.5613   0.00    0.0
2026/01/15 00:10:00.000   22.434282239  114.335388127    64.3689   6   8   0.7088   0.8978   1.4477  -0.3472   0.4980  -0.5441   0.00    0.0
2026/01/15 00:10:30.000   22.434282205  114.335387893    64.2986   6   8   0.6861   0.8719   1.3760  -0.3325   0.4773  -0.5279   0.00    0.0
2026/01/15 00:11:00.000   22.434282248  114.335387496    64.2252   6   8   0.6646   0.8475   1.3099  -0.3185   0.4578  -0.5124   0.00    0.0
2026/01/15 00:11:30.000   22.434282313  114.335387137    64.1460   6   8   0.6444   0.8244   1.2487  -0.3051   0.4397  -0.4978   0.00    0.0
2026/01/15 00:12:00.000   22.434282394  114.335386981    64.0785   6   8   0.6251   0.8024   1.1921  -0.2924   0.4226  -0.4839   0.00    0.0
2026/01/15 00:12:30.000   22.434282426  114.335386941    64.0289   6   8   0.6068   0.7816   1.1395  -0.2801   0.4066  -0.4706   0.00    0.0
2026/01/15 00:13:00.000   22.434282464  114.335386950    63.9799   6   8   0.5894   0.7618   1.0906  -0.2684   0.3914  -0.4579   0.00    0.0
2026/01/15 00:13:30.000   22.434282525  114.335386932    63.9249   6   8   0.5728   0.7428   1.0450  -0.2571   0.3771  -0.4458   0.00    0.0
2026/01/15 00:14:00.000   22.434282526  114.335386911    63.8816   6   8   0.5570   0.7247   1.0025  -0.2463   0.3636  -0.4342   0.00    0.0
2026/01/15 00:14:30.000   22.434282487  114.335386891    63.8404   6   8   0.5419   0.7074   0.9628  -0.2359   0.3508  -0.4231   0.00    0.0
2026/01/15 00:15:00.000   22.434282405  114.335386844    63.8120   6   8   0.5274   0.6908   0.9256  -0.2258   0.3387  -0.4125   0.00    0.0
2026/01/15 00:15:30.000   22.434282336  114.335386764    63.7850   6   8   0.5135   0.6748   0.8908  -0.2162   0.3271  -0.4022   0.00    0.0
2026/01/15 00:16:00.000   22.434282255  114.335386710    63.7580   6   8   0.5003   0.6595   0.8581  -0.2068   0.3161  -0.3924   0.00    0.0
2026/01/15 00:16:30.000   22.434282204  114.335386712    63.7330   6   8   0.4875   0.6448   0.8273  -0.1978   0.3056  -0.3829   0.00    0.0
2026/01/15 00:17:00.000   22.434282150  114.335386788    63.7098   6   8   0.4753   0.6305   0.7983  -0.1891   0.2956  -0.3738   0.00    0.0
2026/01/15 00:17:30.000   22.434282118  114.335386857    63.6886   6   8   0.4635   0.6168   0.7710  -0.1807   0.2861  -0.3651   0.00    0.0
2026/01/15 00:18:00.000   22.434282113  114.335386901    63.6698   6   8   0.4522   0.6036   0.7453  -0.1725   0.2770  -0.3567   0.00    0.0
2026/01/15 00:18:30.000   22.434282121  114.335386981    63.6464   6   8   0.4413   0.5908   0.7209  -0.1647   0.2683  -0.3485   0.00    0.0
2026/01/15 00:19:00.000   22.434282118  114.335387137    63.6297   6   8   0.4309   0.5785   0.6979  -0.1570   0.2599  -0.3407   0.00    0.0
2026/01/15 00:19:30.000   22.434282068  114.335387285    63.6187   6   8   0.4208   0.5666   0.6760  -0.1496   0.2519  -0.3331   0.00    0.0
2026/01/15 00:20:00.000   22.434282041  114.335387358    63.6066   6   8   0.4111   0.5550   0.6554  -0.1424   0.2442  -0.3258   0.00    0.0
2026/01/15 00:20:30.000   22.434282010  114.335387386    63.5955   6   8   0.4017   0.5438   0.6357  -0.1354   0.2368  -0.3188   0.00    0.0
2026/01/15 00:21:00.000   22.434282008  114.335387414    63.5810   6   8   0.3927   0.5330   0.6171  -0.1286   0.2297  -0.3120   0.00    0.0
2026/01/15 00:21:30.000   22.434281989  114.335387487    63.5659   6   8   0.3840   0.5224   0.5993  -0.1220   0.2229  -0.3054   0.00    0.0
2026/01/15 00:22:00.000   22.434281961  114.335387545    63.5511   6   8   0.3756   0.5122   0.5824  -0.1155   0.2164  -0.2990   0.00    0.0
2026/01/15 00:22:30.000   22.434281951  114.335387553    63.5349   6   8   0.3675   0.5023   0.5663  -0.1092   0.2101  -0.2929   0.00    0.0
2026/01/15 00:23:00.000   22.434281959  114.335387547    63.5185   6   8   0.3596   0.4927   0.5509  -0.1030   0.2040  -0.2870   0.00    0.0
2026/01/15 00:23:30.000   22.434281975  114.335387557    63.5034   6   8   0.3520   0.4834   0.5363  -0.0969   0.1981  -0.2812   0.00    0.0
2026/01/15 00:24:00.000   22.434281973  114.335387553    63.4864   6   8   0.3447   0.4743   0.5223  -0.0910   0.1925  -0.2756   0.00    0.0
2026/01/15 00:24:30.000   22.434281919  114.335387603    63.4872   6   7   0.3382   0.4660   0.5138  -0.0867   0.1904  -0.2728   0.00    0.0
2026/01/15 00:25:00.000   22.434281848  114.335387627    63.4902   6   7   0.3319   0.4580   0.5054  -0.0825   0.1882  -0.2699   0.00    0.0
2026/01/15 00:25:30.000   22.434281788  114.335387625    63.4923   6   8   0.3257   0.4498   0.4968  -0.0774   0.1852  -0.2667   0.00    0.0
2026/01/15 00:26:00.000   22.434281755  114.335387605    63.4913   6   8   0.3196   0.4419   0.4885  -0.0725   0.1823  -0.2634   0.00    0.0
2026/01/15 00:26:30.000   22.434281723  114.335387561    63.4899   6   8   0.3137   0.4341   0.4802  -0.0676   0.1793  -0.2602   0.00    0.0
2026/01/15 00:27:00.000   22.434281700  114.335387516    63.4861   6   8   0.3080   0.4266   0.4722  -0.0629   0.1765  -0.2569   0.00    0.0
2026/01/15 00:27:30.000   22.434281669  114.335387497    63.4855   6   8   0.3024   0.4192   0.4643  -0.0581   0.1736  -0.2536   0.00    0.0
2026/01/15 00:28:00.000   22.434281651  114.335387503    63.4834   6   8   0.2970   0.4121   0.4565  -0.0535   0.1708  -0.2504   0.00    0.0
2026/01/15 00:28:30.000   22.434281647  114.335387506    63.4791   6   8   0.2917   0.4051   0.4489  -0.0488   0.1680  -0.2471   0.00    0.0
2026/01/15 00:29:00.000   22.434281668  114.335387508    63.4733   6   8   0.2866   0.3982   0.4414  -0.0442   0.1652  -0.2439   0.00    0.0
2026/01/15 00:29:30.000   22.434281685  114.335387511    63.4659   6   8   0.2815   0.3915   0.4341  -0.0394   0.1625  -0.2406   0.00    0.0
2026/01/15 00:30:00.000   22.434281687  114.335387514    63.4608   6   8   0.2766   0.3850   0.4269  -0.0346   0.1598  -0.2374   0.00    0.0
2026/01/15 00:30:30.000   22.434281684  114.335387497    63.4550   6   8   0.2719   0.3786   0.4199  -0.0294   0.1572  -0.2342   0.00    0.0
2026/01/15 00:31:00.000   22.434281677  114.335387468    63.4479   6   8   0.2672   0.3723   0.4130  -0.0239   0.1546  -0.2310   0.00    0.0
2026/01/15 00:31:30.000   22.434281681  114.335387452    63.4411   6   8   0.2626   0.3662   0.4063  -0.0174   0.1521  -0.2278   0.00    0.0
2026/01/15 00:32:00.000   22.434281671  114.335387431    63.4340   6   8   0.2582   0.3603   0.3996  -0.0077   0.1496  -0.2247   0.00    0.0
2026/01/15 00:32:30.000   22.434281659  114.335387421    63.4284   6   8   0.2539   0.3544   0.3932   0.0126   0.1472  -0.2215   0.00    0.0
2026/01/15 00:33:00.000   22.434281621  114.335387433    63.4269   6   8   0.2496   0.3487   0.3868   0.0188   0.1448  -0.2185   0.00    0.0
2026/01/15 00:33:30.000   22.434281574  114.335387467    63.4284   6   8   0.2455   0.3431   0.3806   0.0230   0.1425  -0.2154   0.00    0.0
2026/01/15 00:34:00.000   22.434281527  114.335387488    63.4302   6   8   0.2414   0.3376   0.3745   0.0262   0.1402  -0.2124   0.00    0.0
2026/01/15 00:34:30.000   22.434281478  114.335387510    63.4325   6   8   0.2375   0.3323   0.3685   0.0288   0.1380  -0.2093   0.00    0.0
2026/01/15 00:35:00.000   22.434281437  114.335387527    63.4348   6   8   0.2336   0.3270   0.3626   0.0308   0.1358  -0.2064   0.00    0.0
2026/01/15 00:35:30.000   22.434281402  114.335387532    63.4365   6   8   0.2298   0.3219   0.3569   0.0326   0.1337  -0.2034   0.00    0.0
2026/01/15 00:36:00.000   22.434281381  114.335387539    63.4406   6   8   0.2261   0.3172   0.3542   0.0336   0.1338  -0.2007   0.00    0.0
2026/01/15 00:36:30.000   22.434281363  114.335387530    63.4439   6   8   0.2225   0.3125   0.3515   0.0345   0.1339  -0.1981   0.00    0.0
2026/01/15 00:37:00.000   22.434281356  114.335387524    63.4449   6   8   0.2189   0.3079   0.3489   0.0352   0.1340  -0.1955   0.00    0.0
2026/01/15 00:37:30.000   22.434281350  114.335387534    63.4458   6   8   0.2155   0.3035   0.3462   0.0357   0.1340  -0.1929   0.00    0.0
2026/01/15 00:38:00.000   22.434281341  114.335387524    63.4470   6   8   0.2121   0.2991   0.3436   0.0361   0.1339  -0.1904   0.00    0.0
2026/01/15 00:38:30.000   22.434281328  114.335387516    63.4485   6   8   0.2088   0.2948   0.3409   0.0364   0.1338  -0.1880   0.00    0.0
2026/01/15 00:39:00.000   22.434281320  114.335387495    63.4490   6   8   0.2055   0.2906   0.3382   0.0365   0.1337  -0.1855   0.00    0.0
2026/01/15 00:39:30.000   22.434281318  114.335387481    63.4482   6   8   0.2024   0.2865   0.3356   0.0366   0.1335  -0.1832   0.00    0.0
2026/01/15 00:40:00.000   22.434281318  114.335387474    63.4464   6   8   0.1993   0.2824   0.3330   0.0365   0.1333  -0.1808   0.00    0.0
2026/01/15 00:40:30.000   22.434281311  114.335387464    63.4455   6   8   0.1962   0.2785   0.3303   0.0365   0.1330  -0.1785   0.00    0.0
2026/01/15 00:41:00.000   22.434281296  114.335387451    63.4459   6   8   0.1932   0.2746   0.3277   0.0363   0.1327  -0.1763   0.00    0.0
2026/01/15 00:41:30.000   22.434281270  114.335387451    63.4482   6   8   0.1903   0.2708   0.3251   0.0361   0.1324  -0.1741   0.00    0.0
2026/01/15 00:42:00.000   22.434281231  114.335387444    63.4521   6   8   0.1875   0.2670   0.3225   0.0358   0.1320  -0.1719   0.00    0.0
2026/01/15 00:42:30.000   22.434281194  114.335387448    63.4571   6   8   0.1847   0.2634   0.3198   0.0355   0.1315  -0.1697   0.00    0.0
2026/01/15 00:43:00.000   22.434281157  114.335387459    63.4620   6   8   0.1820   0.2598   0.3172   0.0352   0.1311  -0.1676   0.00    0.0
2026/01/15 00:43:30.000   22.434281123  114.335387472    63.4671   6   8   0.1793   0.2562   0.3146   0.0348   0.1306  -0.1656   0.00    0.0
2026/01/15 00:44:00.000   22.434281093  114.335387472    63.4714   6   8   0.1767   0.2527   0.3120   0.0345   0.1301  -0.1635   0.00    0.0
2026/01/15 00:44:30.000   22.434281067  114.335387471    63.4755   6   8   0.1741   0.2493   0.3095   0.0340   0.1295  -0.1615   0.00    0.0
2026/01/15 00:45:00.000   22.434281050  114.335387478    63.4789   6   8   0.1716   0.2460   0.3069   0.0336   0.1289  -0.1595   0.00    0.0
2026/01/15 00:45:30.000   22.434281034  114.335387481    63.4808   6   8   0.1691   0.2427   0.3043   0.0331   0.1283  -0.1576   0.00    0.0
2026/01/15 00:46:00.000   22.434281022  114.335387474    63.4829   6   8   0.1667   0.2395   0.3017   0.0327   0.1276  -0.1557   0.00    0.0
2026/01/15 00:46:30.000   22.434281009  114.335387465    63.4846   6   8   0.1643   0.2363   0.2992   0.0322   0.1270  -0.1538   0.00    0.0
2026/01/15 00:47:00.000   22.434280997  114.335387458    63.4858   6   8   0.1620   0.2332   0.2967   0.0317   0.1263  -0.1520   0.00    0.0
2026/01/15 00:47:30.000   22.434280991  114.335387456    63.4863   6   8   0.1598   0.2301   0.2941   0.0312   0.1255  -0.1501   0.00    0.0
2026/01/15 00:48:00.000   22.434280981  114.335387446    63.4869   6   8   0.1575   0.2271   0.2916   0.0307   0.1248  -0.1483   0.00    0.0
2026/01/15 00:48:30.000   22.434280967  114.335387437    63.4876   6   7   0.1554   0.2242   0.2891   0.0302   0.1240  -0.1466   0.00    0.0
2026/01/15 00:49:00.000   22.434280949  114.335387432    63.4893   6   7   0.1532   0.2212   0.2866   0.0297   0.1232  -0.1448   0.00    0.0
2026/01/15 00:49:30.000   22.434280929  114.335387435    63.4920   6   7   0.1511   0.2184   0.2841   0.0292   0.1224  -0.1431   0.00    0.0
2026/01/15 00:50:00.000   22.434280911  114.335387441    63.4950   6   7   0.1491   0.2156   0.2816   0.0287   0.1216  -0.1414   0.00    0.0
2026/01/15 00:50:30.000   22.434280894  114.335387454    63.4977   6   7   0.1471   0.2128   0.2792   0.0282   0.1207  -0.1398   0.00    0.0
2026/01/15 00:51:00.000   22.434280876  114.335387466    63.5004   6   7   0.1451   0.2101   0.2767   0.0276   0.1198  -0.1381   0.00    0.0
2026/01/15 00:51:30.000   22.434280856  114.335387474    63.5036   6   7   0.1432   0.2074   0.2743   0.0271   0.1190  -0.1365   0.00    0.0
2026/01/15 00:52:00.000   22.434280842  114.335387483    63.5052   6   7   0.1413   0.2048   0.2719   0.0266   0.1181  -0.1350   0.00    0.0
2026/01/15 00:52:30.000   22.434280830  114.335387493    63.5062   6   7   0.1394   0.2022   0.2695   0.0261   0.1171  -0.1334   0.00    0.0
2026/01/15 00:53:00.000   22.434280819  114.335387499    63.5067   6   7   0.1376   0.1997   0.2671   0.0257   0.1162  -0.1319   0.00    0.0
2026/01/15 00:53:30.000   22.434280812  114.335387498    63.5068   6   7   0.1358   0.1972   0.2647   0.0252   0.1153  -0.1304   0.00    0.0
2026/01/15 00:54:00.000   22.434280803  114.335387485    63.5062   6   7   0.1341   0.1947   0.2623   0.0247   0.1143  -0.1289   0.00    0.0
2026/01/15 00:54:30.000   22.434280792  114.335387460    63.5064   6   7   0.1323   0.1923   0.2600   0.0242   0.1134  -0.1274   0.00    0.0
2026/01/15 00:55:00.000   22.434280780  114.335387437    63.5065   6   7   0.1307   0.1900   0.2577   0.0237   0.1124  -0.1260   0.00    0.0
2026/01/15 00:55:30.000   22.434280764  114.335387410    63.5075   6   7   0.1290   0.1876   0.2553   0.0233   0.1114  -0.1246   0.00    0.0
2026/01/15 00:56:00.000   22.434280750  114.335387387    63.5087   6   7   0.1274   0.1853   0.2530   0.0228   0.1104  -0.1232   0.00    0.0
2026/01/15 00:56:30.000   22.434280740  114.335387358    63.5085   6   7   0.1258   0.1831   0.2508   0.0224   0.1095  -0.1218   0.00    0.0
2026/01/15 00:57:00.000   22.434280731  114.335387327    63.5073   6   7   0.1242   0.1808   0.2485   0.0220   0.1085  -0.1204   0.00    0.0
2026/01/15 00:57:30.000   22.434280725  114.335387306    63.5064   6   7   0.1227   0.1786   0.2463   0.0215   0.1075  -0.1191   0.00    0.0
2026/01/15 00:58:00.000   22.434280715  114.335387290    63.5064   6   7   0.1212   0.1765   0.2440   0.0211   0.1065  -0.1178   0.00    0.0
2026/01/15 00:58:30.000   22.434280705  114.335387274    63.5066   6   7   0.1197   0.1744   0.2418   0.0207   0.1054  -0.1165   0.00    0.0
2026/01/15 00:59:00.000   22.434280692  114.335387260    63.5070   6   7   0.1182   0.1723   0.2396   0.0203   0.1044  -0.1152   0.00    0.0
2026/01/15 00:59:30.000   22.434280679  114.335387252    63.5080   6   7   0.1168   0.1702   0.2374   0.0199   0.1034  -0.1140   0.00    0.0
2026/01/15 01:00:00.000   22.434280667  114.335387238    63.5083   6   7   0.1154   0.1682   0.2353   0.0195   0.1024  -0.1127   0.00    0.0
2026/01/15 01:00:30.000   22.434280654  114.335387232    63.5098   6   7   0.1140   0.1662   0.2331   0.0192   0.1014  -0.1115   0.00    0.0
2026/01/15 01:01:00.000   22.434280641  114.335387224    63.5109   6   7   0.1127   0.1643   0.2310   0.0188   0.1004  -0.1103   0.00    0.0
2026/01/15 01:01:30.000   22.434280632  114.335387215    63.5112   6   7   0.1113   0.1623   0.2289   0.0185   0.0994  -0.1091   0.00    0.0
2026/01/15 01:02:00.000   22.434280625  114.335387200    63.5108   6   7   0.1100   0.1604   0.2268   0.0181   0.0983  -0.1080   0.00    0.0
2026/01/15 01:02:30.000   22.434280614  114.335387177    63.5105   6   7   0.1088   0.1586   0.2248   0.0178   0.0973  -0.1068   0.00    0.0
2026/01/15 01:03:00.000   22.434280603  114.335387150    63.5100   6   7   0.1075   0.1567   0.2227   0.0175   0.0963  -0.1057   0.00    0.0
2026/01/15 01:03:30.000   22.434280593  114.335387127    63.5101   6   7   0.1063   0.1549   0.2207   0.0172   0.0953  -0.1046   0.00    0.0
2026/01/15 01:04:00.000   22.434280582  114.335387102    63.5101   6   7   0.1051   0.1532   0.2187   0.0169   0.0943  -0.1035   0.00    0.0
2026/01/15 01:04:30.000   22.434280570  114.335387079    63.5102   6   7   0.1039   0.1514   0.2167   0.0166   0.0933  -0.1024   0.00    0.0
2026/01/15 01:05:00.000   22.434280557  114.335387062    63.5106   6   7   0.1027   0.1497   0.2147   0.0163   0.0923  -0.1013   0.00    0.0
2026/01/15 01:05:30.000   22.434280542  114.335387052    63.5117   6   7   0.1015   0.1480   0.2127   0.0160   0.0913  -0.1003   0.00    0.0
2026/01/15 01:06:00.000   22.434280527  114.335387037    63.5127   6   7   0.1004   0.1463   0.2108   0.0158   0.0903  -0.0992   0.00    0.0
2026/01/15 01:06:30.000   22.434280512  114.335387025    63.5145   6   7   0.0993   0.1447   0.2089   0.0155   0.0893  -0.0982   0.00    0.0
2026/01/15 01:07:00.000   22.434280498  114.335387008    63.5158   6   7   0.0982   0.1431   0.2070   0.0153   0.0883  -0.0972   0.00    0.0
2026/01/15 01:07:30.000   22.434280489  114.335386992    63.5167   6   7   0.0971   0.1415   0.2051   0.0150   0.0873  -0.0962   0.00    0.0
2026/01/15 01:08:00.000   22.434280477  114.335386985    63.5179   6   7   0.0961   0.1399   0.2033   0.0148   0.0863  -0.0953   0.00    0.0
2026/01/15 01:08:30.000   22.434280465  114.335386977    63.5193   6   7   0.0950   0.1384   0.2014   0.0146   0.0853  -0.0943   0.00    0.0
2026/01/15 01:09:00.000   22.434280451  114.335386973    63.5209   6   7   0.0940   0.1368   0.1996   0.0144   0.0843  -0.0933   0.00    0.0
2026/01/15 01:09:30.000   22.434280441  114.335386966    63.5217   6   7   0.0930   0.1353   0.1978   0.0142   0.0834  -0.0924   0.00    0.0
2026/01/15 01:10:00.000   22.434280428  114.335386962    63.5226   6   7   0.0920   0.1339   0.1960   0.0140   0.0824  -0.0915   0.00    0.0
2026/01/15 01:10:30.000   22.434280421  114.335386953    63.5229   6   7   0.0910   0.1324   0.1943   0.0138   0.0815  -0.0906   0.00    0.0
2026/01/15 01:11:00.000   22.434280414  114.335386946    63.5235   6   7   0.0901   0.1310   0.1925   0.0137   0.0805  -0.0897   0.00    0.0
2026/01/15 01:11:30.000   22.434280405  114.335386941    63.5247   6   7   0.0891   0.1296   0.1908   0.0135   0.0796  -0.0888   0.00    0.0
2026/01/15 01:12:00.000   22.434280396  114.335386931    63.5255   6   7   0.0882   0.1282   0.1891   0.0134   0.0786  -0.0879   0.00    0.0
2026/01/15 01:12:30.000   22.434280386  114.335386915    63.5259   6   7   0.0873   0.1268   0.1874   0.0132   0.0777  -0.0871   0.00    0.0
2026/01/15 01:13:00.000   22.434280378  114.335386902    63.5260   6   7   0.0864   0.1255   0.1857   0.0131   0.0768  -0.0862   0.00    0.0
2026/01/15 01:13:30.000   22.434280374  114.335386886    63.5260   6   8   0.0855   0.1242   0.1841   0.0129   0.0759  -0.0854   0.00    0.0
2026/01/15 01:14:00.000   22.434280369  114.335386869    63.5260   6   8   0.0846   0.1229   0.1825   0.0128   0.0749  -0.0846   0.00    0.0
2026/01/15 01:14:30.000   22.434280367  114.335386850    63.5253   6   8   0.0838   0.1216   0.1808   0.0127   0.0740  -0.0838   0.00    0.0
2026/01/15 01:15:00.000   22.434280363  114.335386832    63.5248   6   8   0.0829   0.1203   0.1792   0.0125   0.0731  -0.0830   0.00    0.0
2026/01/15 01:15:30.000   22.434280359  114.335386815    63.5244   6   8   0.0821   0.1191   0.1777   0.0124   0.0722  -0.0822   0.00    0.0
2026/01/15 01:16:00.000   22.434280356  114.335386796    63.5238   6   8   0.0813   0.1178   0.1761   0.0123   0.0713  -0.0814   0.00    0.0
2026/01/15 01:16:30.000   22.434280352  114.335386770    63.5231   6   8   0.0805   0.1166   0.1746   0.0122   0.0705  -0.0806   0.00    0.0
2026/01/15 01:17:00.000   22.434280348  114.335386744    63.5223   6   8   0.0797   0.1154   0.1730   0.0121   0.0696  -0.0799   0.00    0.0
2026/01/15 01:17:30.000   22.434280342  114.335386722    63.5219   6   8   0.0789   0.1143   0.1715   0.0120   0.0687  -0.0791   0.00    0.0
2026/01/15 01:18:00.000   22.434280337  114.335386704    63.5217   6   8   0.0782   0.1131   0.1700   0.0120   0.0679  -0.0784   0.00    0.0
2026/01/15 01:18:30.000   22.434280333  114.335386686    63.5212   6   8   0.0774   0.1120   0.1685   0.0119   0.0670  -0.0776   0.00    0.0
2026/01/15 01:19:00.000   22.434280330  114.335386675    63.5208   6   8   0.0767   0.1109   0.1671   0.0118   0.0662  -0.0769   0.00    0.0
2026/01/15 01:19:30.000   22.434280329  114.335386659    63.5196   6   8   0.0759   0.1098   0.1656   0.0118   0.0653  -0.0762   0.00    0.0
2026/01/15 01:20:00.000   22.434280329  114.335386646    63.5188   6   8   0.0752   0.1087   0.1642   0.0117   0.0645  -0.0755   0.00    0.0
2026/01/15 01:20:30.000   22.434280328  114.335386634    63.5178   6   8   0.0745   0.1076   0.1628   0.0116   0.0637  -0.0748   0.00    0.0
2026/01/15 01:21:00.000   22.434280326  114.335386619    63.5168   6   8   0.0738   0.1066   0.1614   0.0116   0.0628  -0.0741   0.00    0.0
2026/01/15 01:21:30.000   22.434280320  114.335386607    63.5167   6   7   0.0733   0.1059   0.1606   0.0093   0.0630  -0.0740   0.00    0.0
2026/01/15 01:22:00.000   22.434280315  114.335386596    63.5166   6   7   0.0728   0.1052   0.1598   0.0063   0.0631  -0.0738   0.00    0.0
2026/01/15 01:22:30.000   22.434280309  114.335386584    63.5167   6   7   0.0724   0.1046   0.1590  -0.0021   0.0632  -0.0736   0.00    0.0
2026/01/15 01:23:00.000   22.434280302  114.335386570    63.5171   6   7   0.0719   0.1039   0.1582  -0.0069   0.0633  -0.0734   0.00    0.0
2026/01/15 01:23:30.000   22.434280296  114.335386560    63.5174   6   7   0.0714   0.1033   0.1574  -0.0094   0.0634  -0.0732   0.00    0.0
2026/01/15 01:24:00.000   22.434280291  114.335386545    63.5181   6   7   0.0710   0.1026   0.1566  -0.0113   0.0634  -0.0730   0.00    0.0
2026/01/15 01:24:30.000   22.434280287  114.335386532    63.5186   6   7   0.0705   0.1020   0.1558  -0.0129   0.0635  -0.0729   0.00    0.0
2026/01/15 01:25:00.000   22.434280283  114.335386519    63.5190   6   7   0.0701   0.1014   0.1550  -0.0143   0.0635  -0.0727   0.00    0.0
2026/01/15 01:25:30.000   22.434280279  114.335386507    63.5194   6   7   0.0696   0.1008   0.1543  -0.0154   0.0635  -0.0725   0.00    0.0
2026/01/15 01:26:00.000   22.434280275  114.335386497    63.5196   6   7   0.0692   0.1001   0.1535  -0.0165   0.0635  -0.0723   0.00    0.0
2026/01/15 01:26:30.000   22.434280272  114.335386490    63.5198   6   7   0.0687   0.0995   0.1527  -0.0174   0.0635  -0.0721   0.00    0.0
2026/01/15 01:27:00.000   22.434280269  114.335386484    63.5200   6   7   0.0683   0.0989   0.1519  -0.0183   0.0635  -0.0718   0.00    0.0
2026/01/15 01:27:30.000   22.434280265  114.335386476    63.5207   6   7   0.0679   0.0983   0.1512  -0.0191   0.0635  -0.0716   0.00    0.0
2026/01/15 01:28:00.000   22.434280261  114.335386470    63.5212   6   7   0.0675   0.0978   0.1504  -0.0198   0.0634  -0.0714   0.00    0.0
2026/01/15 01:28:30.000   22.434280255  114.335386467    63.5218   6   7   0.0671   0.0972   0.1496  -0.0205   0.0634  -0.0712   0.00    0.0
2026/01/15 01:29:00.000   22.434280250  114.335386460    63.5225   6   7   0.0666   0.0966   0.1488  -0.0211   0.0633  -0.0710   0.00    0.0
2026/01/15 01:29:30.000   22.434280244  114.335386453    63.5231   6   7   0.0662   0.0960   0.1481  -0.0217   0.0632  -0.0708   0.00    0.0
2026/01/15 01:30:00.000   22.434280240  114.335386445    63.5237   6   7   0.0658   0.0954   0.1473  -0.0222   0.0631  -0.0705   0.00    0.0
2026/01/15 01:30:30.000   22.434280235  114.335386439    63.5244   6   7   0.0654   0.0949   0.1465  -0.0227   0.0630  -0.0703   0.00    0.0
2026/01/15 01:31:00.000   22.434280231  114.335386436    63.5252   6   7   0.0650   0.0943   0.1458  -0.0232   0.0629  -0.0701   0.00    0.0
2026/01/15 01:31:30.000   22.434280227  114.335386433    63.5259   6   7   0.0647   0.0938   0.1450  -0.0236   0.0628  -0.0698   0.00    0.0
2026/01/15 01:32:00.000   22.434280222  114.335386429    63.5270   6   7   0.0643   0.0932   0.1442  -0.0240   0.0627  -0.0696   0.00    0.0
2026/01/15 01:32:30.000   22.434280217  114.335386422    63.5279   6   7   0.0639   0.0927   0.1435  -0.0244   0.0625  -0.0693   0.00    0.0
2026/01/15 01:33:00.000   22.434280212  114.335386414    63.5287   6   7   0.0635   0.0921   0.1427  -0.0248   0.0624  -0.0691   0.00    0.0
2026/01/15 01:33:30.000   22.434280206  114.335386407    63.5293   6   7   0.0631   0.0916   0.1420  -0.0251   0.0622  -0.0689   0.00    0.0
2026/01/15 01:34:00.000   22.434280202  114.335386401    63.5302   6   7   0.0628   0.0910   0.1412  -0.0254   0.0621  -0.0686   0.00    0.0
2026/01/15 01:34:30.000   22.434280196  114.335386397    63.5315   6   7   0.0624   0.0905   0.1404  -0.0257   0.0619  -0.0683   0.00    0.0
2026/01/15 01:35:00.000   22.434280189  114.335386393    63.5326   6   7   0.0620   0.0900   0.1397  -0.0259   0.0617  -0.0681   0.00    0.0
2026/01/15 01:35:30.000   22.434280182  114.335386392    63.5338   6   7   0.0617   0.0895   0.1389  -0.0262   0.0615  -0.0678   0.00    0.0
2026/01/15 01:36:00.000   22.434280175  114.335386389    63.5351   6   7   0.0613   0.0889   0.1382  -0.0264   0.0613  -0.0676   0.00    0.0
2026/01/15 01:36:30.000   22.434280170  114.335386388    63.5363   6   7   0.0609   0.0884   0.1374  -0.0266   0.0611  -0.0673   0.00    0.0
2026/01/15 01:37:00.000   22.434280166  114.335386387    63.5372   6   8   0.0606   0.0879   0.1366  -0.0268   0.0609  -0.0670   0.00    0.0
2026/01/15 01:37:30.000   22.434280162  114.335386384    63.5376   6   8   0.0602   0.0874   0.1359  -0.0270   0.0607  -0.0668   0.00    0.0
2026/01/15 01:38:00.000   22.434280158  114.335386381    63.5381   6   8   0.0599   0.0869   0.1351  -0.0272   0.0604  -0.0665   0.00    0.0
2026/01/15 01:38:30.000   22.434280153  114.335386377    63.5386   6   8   0.0595   0.0864   0.1344  -0.0273   0.0602  -0.0662   0.00    0.0
2026/01/15 01:39:00.000   22.434280147  114.335386373    63.5394   6   8   0.0592   0.0859   0.1336  -0.0274   0.0599  -0.0659   0.00    0.0
2026/01/15 01:39:30.000   22.434280141  114.335386369    63.5403   6   8   0.0588   0.0854   0.1328  -0.0276   0.0597  -0.0656   0.00    0.0
2026/01/15 01:40:00.000   22.434280133  114.335386365    63.5413   6   8   0.0585   0.0849   0.1321  -0.0277   0.0594  -0.0654   0.00    0.0
2026/01/15 01:40:30.000   22.434280127  114.335386362    63.5420   6   8   0.0581   0.0844   0.1313  -0.0278   0.0592  -0.0651   0.00    0.0
2026/01/15 01:41:00.000   22.434280122  114.335386360    63.5426   6   8   0.0578   0.0839   0.1306  -0.0279   0.0589  -0.0648   0.00    0.0
2026/01/15 01:41:30.000   22.434280116  114.335386357    63.5432   6   8   0.0575   0.0834   0.1298  -0.0279   0.0586  -0.0645   0.00    0.0
2026/01/15 01:42:00.000   22.434280110  114.335386353    63.5441   6   8   0.0571   0.0829   0.1291  -0.0280   0.0583  -0.0642   0.00    0.0
2026/01/15 01:42:30.000   22.434280105  114.335386350    63.5447   6   8   0.0568   0.0825   0.1283  -0.0281   0.0580  -0.0639   0.00    0.0
2026/01/15 01:43:00.000   22.434280100  114.335386347    63.5454   6   8   0.0565   0.0820   0.1276  -0.0281   0.0577  -0.0636   0.00    0.0
2026/01/15 01:43:30.000   22.434280094  114.335386346    63.5465   6   8   0.0562   0.0815   0.1268  -0.0282   0.0575  -0.0633   0.00    0.0
2026/01/15 01:44:00.000   22.434280088  114.335386342    63.5472   6   8   0.0558   0.0811   0.1261  -0.0282   0.0572  -0.0630   0.00    0.0
2026/01/15 01:44:30.000   22.434280083  114.335386337    63.5479   6   8   0.0555   0.0806   0.1253  -0.0282   0.0569  -0.0627   0.00    0.0
2026/01/15 01:45:00.000   22.434280079  114.335386331    63.5480   6   8   0.0552   0.0801   0.1246  -0.0282   0.0565  -0.0624   0.00    0.0
2026/01/15 01:45:30.000   22.434280075  114.335386326    63.5480   6   8   0.0549   0.0797   0.1238  -0.0283   0.0562  -0.0621   0.00    0.0
2026/01/15 01:46:00.000   22.434280071  114.335386321    63.5481   6   8   0.0546   0.0792   0.1231  -0.0283   0.0559  -0.0618   0.00    0.0
2026/01/15 01:46:30.000   22.434280066  114.335386316    63.5485   6   8   0.0543   0.0788   0.1223  -0.0283   0.0556  -0.0615   0.00    0.0
2026/01/15 01:47:00.000   22.434280061  114.335386310    63.5491   6   8   0.0539   0.0783   0.1216  -0.0283   0.0553  -0.0612   0.00    0.0
2026/01/15 01:47:30.000   22.434280056  114.335386303    63.5497   6   8   0.0536   0.0779   0.1209  -0.0282   0.0550  -0.0609   0.00    0.0
2026/01/15 01:48:00.000   22.434280051  114.335386296    63.5503   6   8   0.0533   0.0774   0.1201  -0.0282   0.0546  -0.0605   0.00    0.0
2026/01/15 01:48:30.000   22.434280046  114.335386288    63.5511   6   8   0.0530   0.0770   0.1194  -0.0282   0.0543  -0.0602   0.00    0.0
2026/01/15 01:49:00.000   22.434280040  114.335386282    63.5519   6   8   0.0527   0.0766   0.1187  -0.0282   0.0540  -0.0599   0.00    0.0
2026/01/15 01:49:30.000   22.434280034  114.335386277    63.5529   6   8   0.0524   0.0761   0.1179  -0.0281   0.0536  -0.0596   0.00    0.0
2026/01/15 01:50:00.000   22.434280028  114.335386277    63.5541   6   8   0.0521   0.0757   0.1172  -0.0281   0.0533  -0.0593   0.00    0.0
2026/01/15 01:50:30.000   22.434280022  114.335386275    63.5553   6   8   0.0518   0.0753   0.1165  -0.0280   0.0530  -0.0590   0.00    0.0
2026/01/15 01:51:00.000   22.434280017  114.335386274    63.5565   6   8   0.0515   0.0748   0.1158  -0.0280   0.0526  -0.0587   0.00    0.0
2026/01/15 01:51:30.000   22.434280012  114.335386274    63.5576   6   8   0.0512   0.0744   0.1150  -0.0279   0.0523  -0.0583   0.00    0.0
2026/01/15 01:52:00.000   22.434280007  114.335386274    63.5586   6   8   0.0509   0.0740   0.1143  -0.0279   0.0519  -0.0580   0.00    0.0
2026/01/15 01:52:30.000   22.434280002  114.335386275    63.5595   6   8   0.0506   0.0736   0.1136  -0.0278   0.0516  -0.0577   0.00    0.0
2026/01/15 01:53:00.000   22.434279996  114.335386274    63.5605   6   8   0.0504   0.0732   0.1129  -0.0278   0.0512  -0.0574   0.00    0.0
2026/01/15 01:53:30.000   22.434279992  114.335386274    63.5614   6   8   0.0501   0.0728   0.1122  -0.0277   0.0509  -0.0571   0.00    0.0
2026/01/15 01:54:00.000   22.434279986  114.335386273    63.5623   6   8   0.0498   0.0724   0.1114  -0.0276   0.0505  -0.0567   0.00    0.0
2026/01/15 01:54:30.000   22.434279981  114.335386272    63.5632   6   8   0.0495   0.0720   0.1107  -0.0275   0.0502  -0.0564   0.00    0.0
2026/01/15 01:55:00.000   22.434279974  114.335386270    63.5644   6   8   0.0492   0.0716   0.1100  -0.0275   0.0498  -0.0561   0.00    0.0
2026/01/15 01:55:30.000   22.434279968  114.335386268    63.5657   6   8   0.0489   0.0712   0.1093  -0.0274   0.0495  -0.0558   0.00    0.0
2026/01/15 01:56:00.000   22.434279961  114.335386265    63.5669   6   8   0.0486   0.0708   0.1086  -0.0273   0.0491  -0.0555   0.00    0.0
2026/01/15 01:56:30.000   22.434279956  114.335386265    63.5681   6   8   0.0484   0.0704   0.1079  -0.0272   0.0488  -0.0551   0.00    0.0
2026/01/15 01:57:00.000   22.434279952  114.335386263    63.5690   6   8   0.0481   0.0700   0.1072  -0.0271   0.0484  -0.0548   0.00    0.0
2026/01/15 01:57:30.000   22.434279947  114.335386261    63.5698   6   8   0.0478   0.0696   0.1065  -0.0270   0.0481  -0.0545   0.00    0.0
2026/01/15 01:58:00.000   22.434279943  114.335386260    63.5706   6   8   0.0476   0.0692   0.1058  -0.0269   0.0477  -0.0542   0.00    0.0
2026/01/15 01:58:30.000   22.434279937  114.335386257    63.5716   6   8   0.0473   0.0689   0.1052  -0.0268   0.0474  -0.0539   0.00    0.0
2026/01/15 01:59:00.000   22.434279932  114.335386254    63.5725   6   8   0.0470   0.0685   0.1045  -0.0267   0.0470  -0.0535   0.00    0.0
2026/01/15 01:59:30.000   22.434279927  114.335386250    63.5732   6   8   0.0467   0.0681   0.1038  -0.0266   0.0466  -0.0532   0.00    0.0
2026/01/15 02:00:00.000   22.434279922  114.335386245    63.5739   6   8   0.0465   0.0678   0.1031  -0.0265   0.0463  -0.0529   0.00    0.0
2026/01/15 02:00:30.000   22.434279915  114.335386240    63.5747   6   8   0.0462   0.0674   0.1024  -0.0264   0.0459  -0.0526   0.00    0.0
2026/01/15 02:01:00.000   22.434279910  114.335386236    63.5756   6   8   0.0460   0.0670   0.1018  -0.0263   0.0456  -0.0523   0.00    0.0
2026/01/15 02:01:30.000   22.434279904  114.335386233    63.5765   6   8   0.0457   0.0667   0.1011  -0.0262   0.0452  -0.0520   0.00    0.0
2026/01/15 02:02:00.000   22.434279899  114.335386230    63.5773   6   8   0.0454   0.0663   0.1004  -0.0261   0.0449  -0.0516   0.00    0.0
2026/01/15 02:02:30.000   22.434279894  114.335386226    63.5780   6   8   0.0452   0.0660   0.0998  -0.0260   0.0445  -0.0513   0.00    0.0
2026/01/15 02:03:00.000   22.434279889  114.335386223    63.5787   6   8   0.0449   0.0656   0.0991  -0.0259   0.0442  -0.0510   0.00    0.0
2026/01/15 02:03:30.000   22.434279885  114.335386221    63.5793   6   8   0.0447   0.0653   0.0985  -0.0258   0.0438  -0.0507   0.00    0.0
2026/01/15 02:04:00.000   22.434279879  114.335386219    63.5799   6   8   0.0444   0.0649   0.0978  -0.0257   0.0435  -0.0504   0.00    0.0
2026/01/15 02:04:30.000   22.434279875  114.335386217    63.5803   6   8   0.0442   0.0646   0.0972  -0.0256   0.0431  -0.0501   0.00    0.0
2026/01/15 02:05:00.000   22.434279870  114.335386216    63.5808   6   8   0.0439   0.0642   0.0965  -0.0254   0.0428  -0.0498   0.00    0.0
2026/01/15 02:05:30.000   22.434279864  114.335386214    63.5812   6   8   0.0437   0.0639   0.0959  -0.0253   0.0424  -0.0494   0.00    0.0
2026/01/15 02:06:00.000   22.434279860  114.335386211    63.5816   6   8   0.0434   0.0636   0.0953  -0.0252   0.0421  -0.0491   0.00    0.0
2026/01/15 02:06:30.000   22.434279855  114.335386208    63.5819   6   8   0.0432   0.0633   0.0946  -0.0251   0.0417  -0.0488   0.00    0.0
2026/01/15 02:07:00.000   22.434279850  114.335386205    63.5824   6   8   0.0429   0.0629   0.0940  -0.0250   0.0414  -0.0485   0.00    0.0
2026/01/15 02:07:30.000   22.434279845  114.335386202    63.5829   6   8   0.0427   0.0626   0.0934  -0.0249   0.0410  -0.0482   0.00    0.0
2026/01/15 02:08:00.000   22.434279841  114.335386201    63.5835   6   8   0.0424   0.0623   0.0928  -0.0248   0.0407  -0.0479   0.00    0.0
2026/01/15 02:08:30.000   22.434279837  114.335386200    63.5839   6   8   0.0422   0.0620   0.0921  -0.0246   0.0403  -0.0476   0.00    0.0
2026/01/15 02:09:00.000   22.434279833  114.335386199    63.5844   6   8   0.0420   0.0616   0.0915  -0.0245   0.0400  -0.0473   0.00    0.0
2026/01/15 02:09:30.000   22.434279829  114.335386197    63.5848   6   8   0.0417   0.0613   0.0909  -0.0244   0.0397  -0.0470   0.00    0.0
2026/01/15 02:10:00.000   22.434279826  114.335386194    63.5849   6   8   0.0415   0.0610   0.0903  -0.0243   0.0393  -0.0467   0.00    0.0
2026/01/15 02:10:30.000   22.434279822  114.335386193    63.5858   6   8   0.0413   0.0608   0.0900  -0.0242   0.0393  -0.0464   0.00    0.0
2026/01/15 02:11:00.000   22.434279817  114.335386193    63.5868   6   8   0.0410   0.0606   0.0896  -0.0241   0.0393  -0.0462   0.00    0.0
2026/01/15 02:11:30.000   22.434279812  114.335386196    63.5879   6   8   0.0408   0.0604   0.0893  -0.0240   0.0392  -0.0459   0.00    0.0
2026/01/15 02:12:00.000   22.434279808  114.335386200    63.5888   6   9   0.0406   0.0602   0.0890  -0.0239   0.0392  -0.0456   0.00    0.0
2026/01/15 02:12:30.000   22.434279804  114.335386202    63.5897   6   9   0.0404   0.0600   0.0887  -0.0238   0.0391  -0.0453   0.00    0.0
2026/01/15 02:13:00.000   22.434279800  114.335386205    63.5905   6   9   0.0402   0.0598   0.0883  -0.0237   0.0391  -0.0451   0.00    0.0
2026/01/15 02:13:30.000   22.434279796  114.335386205    63.5912   6   9   0.0399   0.0596   0.0880  -0.0236   0.0391  -0.0448   0.00    0.0
2026/01/15 02:14:00.000   22.434279792  114.335386206    63.5920   6   9   0.0397   0.0594   0.0877  -0.0235   0.0390  -0.0446   0.00    0.0
2026/01/15 02:14:30.000   22.434279788  114.335386206    63.5930   6   9   0.0395   0.0592   0.0873  -0.0234   0.0390  -0.0443   0.00    0.0
2026/01/15 02:15:00.000   22.434279784  114.335386205    63.5938   6   9   0.0393   0.0590   0.0870  -0.0233   0.0389  -0.0440   0.00    0.0
2026/01/15 02:15:30.000   22.434279781  114.335386205    63.5946   6   9   0.0391   0.0588   0.0867  -0.0232   0.0389  -0.0438   0.00    0.0
2026/01/15 02:16:00.000   22.434279777  114.335386205    63.5954   6   9   0.0389   0.0586   0.0864  -0.0231   0.0388  -0.0435   0.00    0.0
2026/01/15 02:16:30.000   22.434279774  114.335386205    63.5962   6   9   0.0386   0.0584   0.0860  -0.0230   0.0388  -0.0433   0.00    0.0
2026/01/15 02:17:00.000   22.434279772  114.335386206    63.5969   6   9   0.0384   0.0582   0.0857  -0.0229   0.0387  -0.0430   0.00    0.0
2026/01/15 02:17:30.000   22.434279769  114.335386207    63.5977   6   9   0.0382   0.0580   0.0854  -0.0228   0.0386  -0.0427   0.00    0.0
2026/01/15 02:18:00.000   22.434279765  114.335386207    63.5984   6   9   0.0380   0.0579   0.0851  -0.0227   0.0386  -0.0425   0.00    0.0
2026/01/15 02:18:30.000   22.434279762  114.335386208    63.5992   6   9   0.0378   0.0577   0.0847  -0.0226   0.0385  -0.0422   0.00    0.0
2026/01/15 02:19:00.000   22.434279758  114.335386208    63.6001   6   9   0.0376   0.0575   0.0844  -0.0226   0.0385  -0.0420   0.00    0.0
2026/01/15 02:19:30.000   22.434279754  114.335386207    63.6010   6   9   0.0374   0.0573   0.0841  -0.0225   0.0384  -0.0418   0.00    0.0
2026/01/15 02:20:00.000   22.434279749  114.335386208    63.6019   6   9   0.0372   0.0571   0.0838  -0.0224   0.0383  -0.0415   0.00    0.0
2026/01/15 02:20:30.000   22.434279745  114.335386208    63.6026   6   9   0.0370   0.0569   0.0834  -0.0223   0.0383  -0.0413   0.00    0.0
2026/01/15 02:21:00.000   22.434279741  114.335386208    63.6033   6   9   0.0368   0.0568   0.0831  -0.0222   0.0382  -0.0410   0.00    0.0
2026/01/15 02:21:30.000   22.434279737  114.335386207    63.6041   6   9   0.0366   0.0566   0.0828  -0.0221   0.0381  -0.0408   0.00    0.0
2026/01/15 02:22:00.000   22.434279732  114.335386207    63.6049   6   9   0.0364   0.0564   0.0825  -0.0220   0.0381  -0.0405   0.00    0.0
2026/01/15 02:22:30.000   22.434279727  114.335386207    63.6059   6   9   0.0362   0.0562   0.0821  -0.0219   0.0380  -0.0403   0.00    0.0
2026/01/15 02:23:00.000   22.434279722  114.335386208    63.6069   6   9   0.0360   0.0561   0.0818  -0.0218   0.0379  -0.0401   0.00    0.0
2026/01/15 02:23:30.000   22.434279718  114.335386208    63.6077   6   9   0.0359   0.0559   0.0815  -0.0217   0.0378  -0.0398   0.00    0.0
2026/01/15 02:24:00.000   22.434279714  114.335386209    63.6085   6   9   0.0357   0.0557   0.0812  -0.0216   0.0378  -0.0396   0.00    0.0
2026/01/15 02:24:30.000   22.434279710  114.335386209    63.6093   6   9   0.0355   0.0556   0.0809  -0.0216   0.0377  -0.0394   0.00    0.0
2026/01/15 02:25:00.000   22.434279706  114.335386208    63.6100   6   9   0.0353   0.0554   0.0806  -0.0215   0.0376  -0.0392   0.00    0.0
2026/01/15 02:25:30.000   22.434279702  114.335386207    63.6107   6   9   0.0351   0.0552   0.0802  -0.0214   0.0375  -0.0389   0.00    0.0
2026/01/15 02:26:00.000   22.434279699  114.335386206    63.6113   6   9   0.0349   0.0551   0.0799  -0.0213   0.0375  -0.0387   0.00    0.0
2026/01/15 02:26:30.000   22.434279695  114.335386205    63.6118   6   9   0.0347   0.0549   0.0796  -0.0212   0.0374  -0.0385   0.00    0.0
2026/01/15 02:27:00.000   22.434279692  114.335386203    63.6122   6   9   0.0346   0.0547   0.0793  -0.0211   0.0373  -0.0383   0.00    0.0
2026/01/15 02:27:30.000   22.434279688  114.335386200    63.6127   6   9   0.0344   0.0546   0.0790  -0.0210   0.0372  -0.0380   0.00    0.0
2026/01/15 02:28:00.000   22.434279685  114.335386198    63.6131   6   8   0.0342   0.0544   0.0787  -0.0209   0.0371  -0.0378   0.00    0.0
2026/01/15 02:28:30.000   22.434279682  114.335386195    63.6136   6   8   0.0340   0.0542   0.0783  -0.0209   0.0371  -0.0376   0.00    0.0
2026/01/15 02:29:00.000   22.434279678  114.335386195    63.6141   6   8   0.0339   0.0541   0.0780  -0.0208   0.0370  -0.0374   0.00    0.0
2026/01/15 02:29:30.000   22.434279675  114.335386195    63.6147   6   8   0.0337   0.0539   0.0777  -0.0207   0.0369  -0.0372   0.00    0.0
2026/01/15 02:30:00.000   22.434279670  114.335386196    63.6153   6   8   0.0335   0.0538   0.0774  -0.0206   0.0368  -0.0370   0.00    0.0
2026/01/15 02:30:30.000   22.434279666  114.335386197    63.6158   6   8   0.0334   0.0536   0.0771  -0.0205   0.0367  -0.0367   0.00    0.0
2026/01/15 02:31:00.000   22.434279662  114.335386199    63.6165   6   8   0.0332   0.0535   0.0768  -0.0205   0.0367  -0.0365   0.00    0.0
2026/01/15 02:31:30.000   22.434279658  114.335386202    63.6171   6   8   0.0330   0.0533   0.0765  -0.0204   0.0366  -0.0363   0.00    0.0
2026/01/15 02:32:00.000   22.434279653  114.335386205    63.6180   6   8   0.0329   0.0532   0.0762  -0.0203   0.0365  -0.0361   0.00    0.0
2026/01/15 02:32:30.000   22.434279649  114.335386207    63.6188   6   8   0.0327   0.0530   0.0759  -0.0202   0.0364  -0.0359   0.00    0.0
2026/01/15 02:33:00.000   22.434279644  114.335386209    63.6198   6   8   0.0325   0.0529   0.0756  -0.0201   0.0363  -0.0357   0.00    0.0
2026/01/15 02:33:30.000   22.434279639  114.335386210    63.6207   6   8   0.0324   0.0527   0.0753  -0.0201   0.0362  -0.0355   0.00    0.0
2026/01/15 02:34:00.000   22.434279634  114.335386211    63.6217   6   8   0.0322   0.0526   0.0750  -0.0200   0.0361  -0.0353   0.00    0.0
2026/01/15 02:34:30.000   22.434279629  114.335386211    63.6226   6   8   0.0320   0.0524   0.0747  -0.0199   0.0361  -0.0351   0.00    0.0
2026/01/15 02:35:00.000   22.434279625  114.335386211    63.6234   6   8   0.0319   0.0523   0.0744  -0.0198   0.0360  -0.0349   0.00    0.0
2026/01/15 02:35:30.000   22.434279621  114.335386208    63.6240   6   8   0.0317   0.0521   0.0741  -0.0198   0.0359  -0.0347   0.00    0.0
2026/01/15 02:36:00.000   22.434279618  114.335386204    63.6246   6   8   0.0316   0.0520   0.0738  -0.0197   0.0358  -0.0345   0.00    0.0
2026/01/15 02:36:30.000   22.434279615  114.335386201    63.6250   6   8   0.0314   0.0518   0.0735  -0.0196   0.0357  -0.0343   0.00    0.0
2026/01/15 02:37:00.000   22.434279611  114.335386197    63.6256   6   8   0.0313   0.0517   0.0732  -0.0195   0.0356  -0.0341   0.00    0.0
2026/01/15 02:37:30.000   22.434279608  114.335386193    63.6262   6   8   0.0311   0.0516   0.0729  -0.0195   0.0355  -0.0339   0.00    0.0
2026/01/15 02:38:00.000   22.434279605  114.335386188    63.6266   6   8   0.0310   0.0514   0.0726  -0.0194   0.0354  -0.0338   0.00    0.0
2026/01/15 02:38:30.000   22.434279601  114.335386185    63.6272   6   8   0.0308   0.0513   0.0723  -0.0193   0.0353  -0.0336   0.00    0.0
2026/01/15 02:39:00.000   22.434279597  114.335386182    63.6277   6   8   0.0307   0.0511   0.0720  -0.0192   0.0353  -0.0334   0.00    0.0
2026/01/15 02:39:30.000   22.434279593  114.335386179    63.6285   6   8   0.0305   0.0510   0.0717  -0.0192   0.0352  -0.0332   0.00    0.0
2026/01/15 02:40:00.000   22.434279590  114.335386177    63.6291   6   8   0.0304   0.0509   0.0714  -0.0191   0.0351  -0.0330   0.00    0.0
2026/01/15 02:40:30.000   22.434279586  114.335386174    63.6298   6   8   0.0302   0.0507   0.0711  -0.0190   0.0350  -0.0328   0.00    0.0
2026/01/15 02:41:00.000   22.434279582  114.335386171    63.6303   6   8   0.0301   0.0506   0.0708  -0.0190   0.0349  -0.0327   0.00    0.0
2026/01/15 02:41:30.000   22.434279578  114.335386171    63.6310   6   8   0.0299   0.0505   0.0705  -0.0189   0.0348  -0.0325   0.00    0.0
2026/01/15 02:42:00.000   22.434279574  114.335386170    63.6315   6   8   0.0298   0.0504   0.0702  -0.0188   0.0347  -0.0323   0.00    0.0
2026/01/15 02:42:30.000   22.434279571  114.335386168    63.6320   6   8   0.0297   0.0502   0.0699  -0.0188   0.0346  -0.0321   0.00    0.0
2026/01/15 02:43:00.000   22.434279566  114.335386166    63.6325   6   8   0.0295   0.0501   0.0696  -0.0187   0.0346  -0.0319   0.00    0.0
2026/01/15 02:43:30.000   22.434279562  114.335386164    63.6331   6   8   0.0294   0.0500   0.0694  -0.0186   0.0345  -0.0318   0.00    0.0
2026/01/15 02:44:00.000   22.434279558  114.335386163    63.6337   6   8   0.0293   0.0498   0.0691  -0.0186   0.0344  -0.0316   0.00    0.0
2026/01/15 02:44:30.000   22.434279554  114.335386161    63.6343   6   8   0.0291   0.0497   0.0688  -0.0185   0.0343  -0.0314   0.00    0.0
2026/01/15 02:45:00.000   22.434279550  114.335386160    63.6348   6   8   0.0290   0.0496   0.0685  -0.0185   0.0342  -0.0313   0.00    0.0
2026/01/15 02:45:30.000   22.434279546  114.335386157    63.6353   6   8   0.0288   0.0495   0.0682  -0.0184   0.0341  -0.0311   0.00    0.0
2026/01/15 02:46:00.000   22.434279543  114.335386154    63.6359   6   8   0.0287   0.0493   0.0679  -0.0183   0.0340  -0.0309   0.00    0.0
2026/01/15 02:46:30.000   22.434279538  114.335386153    63.6365   6   8   0.0286   0.0492   0.0677  -0.0183   0.0339  -0.0308   0.00    0.0
2026/01/15 02:47:00.000   22.434279533  114.335386151    63.6372   6   8   0.0285   0.0491   0.0674  -0.0182   0.0338  -0.0306   0.00    0.0
2026/01/15 02:47:30.000   22.434279529  114.335386149    63.6378   6   8   0.0283   0.0490   0.0671  -0.0182   0.0338  -0.0304   0.00    0.0
2026/01/15 02:48:00.000   22.434279524  114.335386147    63.6385   6   8   0.0282   0.0489   0.0668  -0.0181   0.0337  -0.0303   0.00    0.0
2026/01/15 02:48:30.000   22.434279520  114.335386146    63.6392   6   8   0.0281   0.0487   0.0665  -0.0180   0.0336  -0.0301   0.00    0.0
2026/01/15 02:49:00.000   22.434279515  114.335386144    63.6397   6   8   0.0279   0.0486   0.0663  -0.0180   0.0335  -0.0300   0.00    0.0
2026/01/15 02:49:30.000   22.434279511  114.335386141    63.6403   6   8   0.0278   0.0485   0.0660  -0.0179   0.0334  -0.0298   0.00    0.0
2026/01/15 02:50:00.000   22.434279506  114.335386139    63.6407   6   8   0.0277   0.0484   0.0657  -0.0179   0.0333  -0.0297   0.00    0.0
2026/01/15 02:50:30.000   22.434279502  114.335386136    63.6412   6   8   0.0276   0.0483   0.0655  -0.0178   0.0332  -0.0295   0.00    0.0
2026/01/15 02:51:00.000   22.434279498  114.335386132    63.6416   6   8   0.0275   0.0482   0.0652  -0.0178   0.0332  -0.0294   0.00    0.0
2026/01/15 02:51:30.000   22.434279494  114.335386129    63.6421   6   8   0.0273   0.0481   0.0649  -0.0177   0.0331  -0.0292   0.00    0.0
2026/01/15 02:52:00.000   22.434279490  114.335386125    63.6425   6   8   0.0272   0.0479   0.0647  -0.0177   0.0330  -0.0291   0.00    0.0
2026/01/15 02:52:30.000   22.434279485  114.335386122    63.6431   6   8   0.0271   0.0478   0.0644  -0.0176   0.0329  -0.0289   0.00    0.0
2026/01/15 02:53:00.000   22.434279481  114.335386118    63.6436   6   8   0.0270   0.0477   0.0641  -0.0175   0.0328  -0.0288   0.00    0.0
2026/01/15 02:53:30.000   22.434279477  114.335386114    63.6442   6   8   0.0269   0.0476   0.0639  -0.0175   0.0327  -0.0286   0.00    0.0
2026/01/15 02:54:00.000   22.434279473  114.335386110    63.6446   6   8   0.0267   0.0475   0.0636  -0.0174   0.0327  -0.0285   0.00    0.0
2026/01/15 02:54:30.000   22.434279469  114.335386107    63.6450   6   8   0.0266   0.0474   0.0633  -0.0174   0.0326  -0.0283   0.00    0.0
2026/01/15 02:55:00.000   22.434279466  114.335386105    63.6455   6   8   0.0265   0.0473   0.0631  -0.0173   0.0325  -0.0282   0.00    0.0
2026/01/15 02:55:30.000   22.434279462  114.335386103    63.6459   6   8   0.0264   0.0472   0.0628  -0.0173   0.0324  -0.0281   0.00    0.0
2026/01/15 02:56:00.000   22.434279458  114.335386101    63.6464   6   8   0.0263   0.0471   0.0626  -0.0173   0.0323  -0.0279   0.00    0.0
2026/01/15 02:56:30.000   22.434279454  114.335386098    63.6469   6   9   0.0262   0.0470   0.0623  -0.0172   0.0323  -0.0278   0.00    0.0
2026/01/15 02:57:00.000   22.434279451  114.335386096    63.6474   6   9   0.0261   0.0469   0.0621  -0.0172   0.0322  -0.0276   0.00    0.0
2026/01/15 02:57:30.000   22.434279447  114.335386093    63.6478   6   9   0.0260   0.0468   0.0618  -0.0171   0.0321  -0.0275   0.00    0.0
2026/01/15 02:58:00.000   22.434279443  114.335386091    63.6483   6   9   0.0258   0.0467   0.0616  -0.0171   0.0320  -0.0274   0.00    0.0
2026/01/15 02:58:30.000   22.434279439  114.335386087    63.6486   6   9   0.0257   0.0466   0.0613  -0.0170   0.0319  -0.0272   0.00    0.0
2026/01/15 02:59:00.000   22.434279435  114.335386084    63.6489   6   9   0.0256   0.0465   0.0611  -0.0170   0.0319  -0.0271   0.00    0.0
2026/01/15 02:59:30.000   22.434279431  114.335386081    63.6492   6   9   0.0255   0.0464   0.0608  -0.0169   0.0318  -0.0270   0.00    0.0
2026/01/15 03:00:00.000   22.434279427  114.335386077    63.6495   6   9   0.0254   0.0463   0.0606  -0.0169   0.0317  -0.0269   0.00    0.0
2026/01/15 03:00:30.000   22.434279423  114.335386073    63.6498   6   9   0.0253   0.0462   0.0603  -0.0168   0.0316  -0.0267   0.00    0.0
2026/01/15 03:01:00.000   22.434279419  114.335386069    63.6500   6   9   0.0252   0.0461   0.0601  -0.0168   0.0315  -0.0266   0.00    0.0
2026/01/15 03:01:30.000   22.434279415  114.335386066    63.6502   6   9   0.0251   0.0460   0.0598  -0.0168   0.0315  -0.0265   0.00    0.0
2026/01/15 03:02:00.000   22.434279410  114.335386064    63.6505   6   9   0.0250   0.0459   0.0596  -0.0167   0.0314  -0.0263   0.00    0.0
2026/01/15 03:02:30.000   22.434279406  114.335386061    63.6507   6   9   0.0249   0.0458   0.0594  -0.0167   0.0313  -0.0262   0.00    0.0
2026/01/15 03:03:00.000   22.434279401  114.335386058    63.6510   6   9   0.0248   0.0457   0.0591  -0.0166   0.0312  -0.0261   0.00    0.0
2026/01/15 03:03:30.000   22.434279398  114.335386054    63.6511   6   9   0.0247   0.0456   0.0589  -0.0166   0.0312  -0.0260   0.00    0.0
2026/01/15 03:04:00.000   22.434279394  114.335386050    63.6512   6   9   0.0246   0.0455   0.0586  -0.0166   0.0311  -0.0259   0.00    0.0
2026/01/15 03:04:30.000   22.434279391  114.335386045    63.6513   6   9   0.0245   0.0454   0.0584  -0.0165   0.0310  -0.0257   0.00    0.0
2026/01/15 03:05:00.000   22.434279387  114.335386040    63.6515   6   9   0.0244   0.0453   0.0582  -0.0165   0.0309  -0.0256   0.00    0.0
2026/01/15 03:05:30.000   22.434279383  114.335386036    63.6517   6   9   0.0243   0.0452   0.0579  -0.0164   0.0309  -0.0255   0.00    0.0
2026/01/15 03:06:00.000   22.434279380  114.335386031    63.6518   6   9   0.0242   0.0452   0.0577  -0.0164   0.0308  -0.0254   0.00    0.0
2026/01/15 03:06:30.000   22.434279376  114.335386025    63.6518   6   9   0.0241   0.0451   0.0575  -0.0164   0.0307  -0.0253   0.00    0.0
2026/01/15 03:07:00.000   22.434279373  114.335386019    63.6517   6   9   0.0240   0.0450   0.0573  -0.0163   0.0307  -0.0252   0.00    0.0
2026/01/15 03:07:30.000   22.434279369  114.335386012    63.6516   6   9   0.0239   0.0449   0.0570  -0.0163   0.0306  -0.0251   0.00    0.0
2026/01/15 03:08:00.000   22.434279366  114.335386005    63.6515   6   9   0.0238   0.0448   0.0568  -0.0163   0.0305  -0.0249   0.00    0.0
2026/01/15 03:08:30.000   22.434279363  114.335385998    63.6513   6   9   0.0237   0.0447   0.0566  -0.0162   0.0304  -0.0248   0.00    0.0
2026/01/15 03:09:00.000   22.434279359  114.335385990    63.6512   6   9   0.0237   0.0446   0.0564  -0.0162   0.0304  -0.0247   0.00    0.0
2026/01/15 03:09:30.000   22.434279356  114.335385983    63.6510   6   9   0.0236   0.0445   0.0561  -0.0162   0.0303  -0.0246   0.00    0.0
2026/01/15 03:10:00.000   22.434279353  114.335385975    63.6508   6   9   0.0235   0.0445   0.0559  -0.0161   0.0302  -0.0245   0.00    0.0
2026/01/15 03:10:30.000   22.434279349  114.335385968    63.6505   6   9   0.0234   0.0444   0.0557  -0.0161   0.0302  -0.0244   0.00    0.0
2026/01/15 03:11:00.000   22.434279346  114.335385960    63.6504   6   9   0.0233   0.0443   0.0555  -0.0161   0.0301  -0.0243   0.00    0.0
2026/01/15 03:11:30.000   22.434279343  114.335385953    63.6501   6   9   0.0232   0.0442   0.0553  -0.0160   0.0300  -0.0242   0.00    0.0
2026/01/15 03:12:00.000   22.434279339  114.335385945    63.6499   6   9   0.0231   0.0441   0.0551  -0.0160   0.0300  -0.0241   0.00    0.0
2026/01/15 03:12:30.000   22.434279336  114.335385937    63.6496   6   9   0.0230   0.0441   0.0548  -0.0160   0.0299  -0.0240   0.00    0.0
2026/01/15 03:13:00.000   22.434279334  114.335385937    63.6499   6   8   0.0229   0.0440   0.0547  -0.0159   0.0299  -0.0239   0.00    0.0
2026/01/15 03:13:30.000   22.434279333  114.335385938    63.6502   6   8   0.0229   0.0440   0.0545  -0.0159   0.0299  -0.0238   0.00    0.0
2026/01/15 03:14:00.000   22.434279330  114.335385939    63.6505   6   8   0.0228   0.0439   0.0543  -0.0158   0.0298  -0.0237   0.00    0.0
2026/01/15 03:14:30.000   22.434279328  114.335385940    63.6509   6   8   0.0227   0.0439   0.0541  -0.0158   0.0298  -0.0236   0.00    0.0
2026/01/15 03:15:00.000   22.434279326  114.335385942    63.6514   6   8   0.0226   0.0438   0.0539  -0.0157   0.0298  -0.0234   0.00    0.0
2026/01/15 03:15:30.000   22.434279323  114.335385944    63.6519   6   8   0.0226   0.0438   0.0537  -0.0156   0.0298  -0.0233   0.00    0.0
2026/01/15 03:16:00.000   22.434279321  114.335385945    63.6522   6   8   0.0225   0.0438   0.0535  -0.0156   0.0297  -0.0232   0.00    0.0
2026/01/15 03:16:30.000   22.434279319  114.335385946    63.6527   6   8   0.0224   0.0437   0.0533  -0.0155   0.0297  -0.0231   0.00    0.0
2026/01/15 03:17:00.000   22.434279317  114.335385947    63.6533   6   8   0.0223   0.0437   0.0532  -0.0155   0.0297  -0.0230   0.00    0.0
2026/01/15 03:17:30.000   22.434279316  114.335385949    63.6538   6   8   0.0223   0.0436   0.0530  -0.0154   0.0297  -0.0229   0.00    0.0
2026/01/15 03:18:00.000   22.434279314  114.335385949    63.6543   6   8   0.0222   0.0436   0.0528  -0.0154   0.0297  -0.0227   0.00    0.0
2026/01/15 03:18:30.000   22.434279313  114.335385949    63.6548   6   8   0.0221   0.0436   0.0527  -0.0153   0.0297  -0.0226   0.00    0.0
2026/01/15 03:19:00.000   22.434279312  114.335385950    63.6553   6   8   0.0221   0.0435   0.0525  -0.0153   0.0297  -0.0225   0.00    0.0
2026/01/15 03:19:30.000   22.434279310  114.335385951    63.6558   6   8   0.0220   0.0435   0.0524  -0.0152   0.0297  -0.0224   0.00    0.0
2026/01/15 03:20:00.000   22.434279309  114.335385952    63.6563   6   8   0.0219   0.0434   0.0522  -0.0151   0.0296  -0.0223   0.00    0.0
2026/01/15 03:20:30.000   22.434279308  114.335385952    63.6567   6   8   0.0219   0.0434   0.0521  -0.0151   0.0296  -0.0221   0.00    0.0
2026/01/15 03:21:00.000   22.434279306  114.335385953    63.6571   6   8   0.0218   0.0434   0.0519  -0.0150   0.0296  -0.0220   0.00    0.0
2026/01/15 03:21:30.000   22.434279305  114.335385953    63.6575   6   8   0.0217   0.0433   0.0518  -0.0150   0.0296  -0.0219   0.00    0.0
2026/01/15 03:22:00.000   22.434279304  114.335385954    63.6580   6   8   0.0217   0.0433   0.0516  -0.0149   0.0296  -0.0218   0.00    0.0
2026/01/15 03:22:30.000   22.434279302  114.335385955    63.6584   6   8   0.0216   0.0433   0.0514  -0.0149   0.0296  -0.0217   0.00    0.0
2026/01/15 03:23:00.000   22.434279301  114.335385956    63.6588   6   8   0.0215   0.0432   0.0513  -0.0148   0.0296  -0.0216   0.00    0.0
2026/01/15 03:23:30.000   22.434279300  114.335385956    63.6591   6   8   0.0215   0.0432   0.0512  -0.0148   0.0296  -0.0215   0.00    0.0
2026/01/15 03:24:00.000   22.434279299  114.335385956    63.6594   6   8   0.0214   0.0432   0.0510  -0.0147   0.0296  -0.0214   0.00    0.0
2026/01/15 03:24:30.000   22.434279298  114.335385955    63.6597   6   8   0.0214   0.0431   0.0509  -0.0147   0.0296  -0.0213   0.00    0.0
2026/01/15 03:25:00.000   22.434279298  114.335385955    63.6599   6   8   0.0213   0.0431   0.0507  -0.0146   0.0296  -0.0211   0.00    0.0
2026/01/15 03:25:30.000   22.434279297  114.335385955    63.6602   6   8   0.0212   0.0431   0.0506  -0.0146   0.0296  -0.0210   0.00    0.0
2026/01/15 03:26:00.000   22.434279296  114.335385955    63.6605   6   8   0.0212   0.0430   0.0504  -0.0145   0.0296  -0.0209   0.00    0.0
2026/01/15 03:26:30.000   22.434279295  114.335385955    63.6608   6   8   0.0211   0.0430   0.0503  -0.0145   0.0296  -0.0208   0.00    0.0
2026/01/15 03:27:00.000   22.434279294  114.335385956    63.6610   6   8   0.0210   0.0430   0.0502  -0.0144   0.0296  -0.0207   0.00    0.0
2026/01/15 03:27:30.000   22.434279293  114.335385957    63.6613   6   8   0.0210   0.0429   0.0500  -0.0144   0.0296  -0.0206   0.00    0.0
