% program   : RTKLIB ver.EX 2.5.0
% inp file  : C:\PPP_PROJECT\RTKLIB_work\runs\ZIM2_5C_20260508_102536\ZIM200CHE_R_20260150000_01D_30S_MO.rnx
% inp file  : C:\PPP_PROJECT\RTKLIB_work\runs\ZIM2_5C_20260508_102536\BRDC00IGS_R_20260150000_01D_MN.rnx
% inp file  : C:\PPP_PROJECT\RTKLIB_work\runs\ZIM2_5C_20260508_102536\COD0MGXFIN_20260150000_01D_05M_ORB.SP3
% inp file  : C:\PPP_PROJECT\RTKLIB_work\runs\ZIM2_5C_20260508_102536\COD0MGXFIN_20260150000_01D_30S_CLK.CLK
% inp file  : C:\PPP_PROJECT\RTKLIB_work\runs\ZIM2_5C_20260508_102536
% inp file  : C:\PPP_PROJECT\RTKLIB_work\runs\ZIM2_5C_20260508_102536
% obs start : 2026/01/15 00:00:00.0 GPST (week2401 345600.0s)
% obs end   : 2026/01/15 04:00:00.0 GPST (week2401 360000.0s)
% pos mode  : PPP Static
% freqs     : L1+L2/E5b
% solution  : Forward
% elev mask : 15.0 deg
% dynamics  : on
% tidecorr  :
% ionos opt : Iono-Free LC
% tropo opt : Saastamoinen
% ephemeris : Precise
% navi sys  : GPS Galileo BDS
% antenna1  : TRM59800.00     NONE  ( 0.0000  0.0000  0.0000)
%
% (lat/lon/height=WGS84/ellipsoidal,Q=1:fix,2:float,3:sbas,4:dgps,5:single,6:ppp,ns=# of satellites)
%  GPST                  latitude(deg) longitude(deg)  height(m)   Q  ns   sdn(m)   sde(m)   sdu(m)  sdne(m)  sdeu(m)  sdun(m) age(s)  ratio
2026/01/15 00:00:00.000   46.877097440    7.465047610   957.1818   6  11   3.2200   2.7185   6.3287  -0.4834   0.7836  -1.3176   0.00    0.0
2026/01/15 00:00:30.000   46.877097933    7.465045962   957.1278   6   9   2.2229   1.8616   4.3380   0.3549  -0.5043  -0.5276   0.00    0.0
2026/01/15 00:01:00.000   46.877096911    7.465045104   957.3077   6   8   1.8028   1.5074   3.5085   0.3481  -0.5149  -0.3003   0.00    0.0
2026/01/15 00:01:30.000   46.877096810    7.465044390   957.4017   6   8   1.5550   1.3002   3.0189   0.3194  -0.4819  -0.1963   0.00    0.0
2026/01/15 00:02:00.000   46.877096807    7.465044180   957.4528   6   8   1.3862   1.1601   2.6841   0.2928  -0.4486  -0.1446   0.00    0.0
2026/01/15 00:02:30.000   46.877096648    7.465043908   957.4988   6   8   1.2614   1.0572   2.4349   0.2702  -0.4196  -0.1230   0.00    0.0
2026/01/15 00:03:00.000   46.877096169    7.465043853   957.5537   6   8   1.1639   0.9774   2.2390   0.2511  -0.3947  -0.1191   0.00    0.0
2026/01/15 00:03:30.000   46.877095773    7.465043921   957.5707   6   8   1.0850   0.9133   2.0788   0.2348  -0.3733  -0.1244   0.00    0.0
2026/01/15 00:04:00.000   46.877095616    7.465044028   957.5815   6   8   1.0191   0.8602   1.9440   0.2207  -0.3547  -0.1332   0.00    0.0
2026/01/15 00:07:30.000   46.877095368    7.465044663   957.5035   6   8   0.7570   0.6465   1.4430   0.1334  -0.3052   0.0711   0.00    0.0
2026/01/15 00:08:00.000   46.877095299    7.465044685   957.4348   6   8   0.7258   0.6267   1.3592   0.1285  -0.2935  -0.0824   0.00    0.0
2026/01/15 00:08:30.000   46.877095253    7.465044608   957.3721   6   8   0.6981   0.6086   1.2882   0.1238  -0.2832  -0.1218   0.00    0.0
2026/01/15 00:09:00.000   46.877095181    7.465044446   957.3397   6   8   0.6731   0.5919   1.2267   0.1193  -0.2739  -0.1431   0.00    0.0
2026/01/15 00:26:00.000   46.877094894    7.465043597   957.5493   6   4   0.4262   0.3607   0.8394  -0.0176  -0.2209   0.0355   0.00    0.0
2026/01/15 00:26:30.000   46.877094896    7.465043633   957.5466   6   5   0.4225   0.3574   0.8329  -0.0227  -0.2193   0.0374   0.00    0.0
2026/01/15 00:27:00.000   46.877094927    7.465043652   957.5421   6   6   0.4188   0.3541   0.8264  -0.0266  -0.2177   0.0385   0.00    0.0
2026/01/15 00:27:30.000   46.877094959    7.465043667   957.5462   6   6   0.4152   0.3510   0.8201  -0.0298  -0.2161   0.0398   0.00    0.0
2026/01/15 00:28:00.000   46.877094936    7.465043698   957.5585   6   6   0.4117   0.3480   0.8138  -0.0327  -0.2145   0.0409   0.00    0.0
2026/01/15 00:28:30.000   46.877094954    7.465043672   957.5641   6   6   0.4083   0.3450   0.8076  -0.0351  -0.2129   0.0420   0.00    0.0
2026/01/15 00:29:00.000   46.877094960    7.465043701   957.5634   6   6   0.4049   0.3421   0.8013  -0.0373  -0.2112   0.0429   0.00    0.0
2026/01/15 00:29:30.000   46.877094977    7.465043754   957.5626   6   7   0.4016   0.3392   0.7950  -0.0392  -0.2095   0.0438   0.00    0.0
2026/01/15 00:30:00.000   46.877095024    7.465043726   957.5615   6   7   0.3983   0.3365   0.7886  -0.0410  -0.2077   0.0446   0.00    0.0
2026/01/15 00:30:30.000   46.877095015    7.465043721   957.5716   6   7   0.3950   0.3337   0.7821  -0.0425  -0.2059   0.0452   0.00    0.0
2026/01/15 00:31:00.000   46.877095010    7.465043711   957.5783   6   7   0.3917   0.3311   0.7756  -0.0440  -0.2040   0.0458   0.00    0.0
2026/01/15 00:31:30.000   46.877095026    7.465043714   957.5759   6   7   0.3885   0.3285   0.7689  -0.0452  -0.2021   0.0461   0.00    0.0
2026/01/15 00:32:00.000   46.877095024    7.465043755   957.5723   6   7   0.3853   0.3259   0.7620  -0.0464  -0.2001   0.0463   0.00    0.0
2026/01/15 00:32:30.000   46.877095008    7.465043782   957.5634   6   7   0.3821   0.3234   0.7550  -0.0474  -0.1981   0.0463   0.00    0.0
2026/01/15 00:33:00.000   46.877095014    7.465043795   957.5549   6   7   0.3789   0.3210   0.7478  -0.0484  -0.1959   0.0460   0.00    0.0
2026/01/15 00:33:30.000   46.877094978    7.465043865   957.5492   6   7   0.3756   0.3186   0.7405  -0.0492  -0.1938   0.0456   0.00    0.0
2026/01/15 00:34:00.000   46.877094978    7.465043890   957.5372   6   7   0.3724   0.3162   0.7329  -0.0499  -0.1915   0.0449   0.00    0.0
2026/01/15 00:34:30.000   46.877094966    7.465043942   957.5262   6   8   0.3692   0.3139   0.7252  -0.0506  -0.1892   0.0439   0.00    0.0
2026/01/15 00:35:00.000   46.877094948    7.465044000   957.5153   6   7   0.3660   0.3116   0.7173  -0.0512  -0.1868   0.0428   0.00    0.0
2026/01/15 00:35:30.000   46.877094971    7.465044017   957.5006   6   7   0.3628   0.3094   0.7092  -0.0517  -0.1844   0.0413   0.00    0.0
2026/01/15 00:36:00.000   46.877094987    7.465044039   957.4868   6   7   0.3595   0.3072   0.7009  -0.0521  -0.1819   0.0396   0.00    0.0
2026/01/15 00:36:30.000   46.877095005    7.465044038   957.4758   6   7   0.3563   0.3051   0.6924  -0.0525  -0.1794   0.0375   0.00    0.0
2026/01/15 00:37:00.000   46.877095034    7.465044023   957.4671   6   7   0.3530   0.3029   0.6838  -0.0528  -0.1768   0.0351   0.00    0.0
2026/01/15 00:37:30.000   46.877095053    7.465044053   957.4595   6   7   0.3497   0.3009   0.6751  -0.0530  -0.1742   0.0323   0.00    0.0
2026/01/15 00:38:00.000   46.877095107    7.465044104   957.4441   6   7   0.3464   0.2988   0.6662  -0.0532  -0.1715   0.0290   0.00    0.0
2026/01/15 00:38:30.000   46.877095169    7.465044198   957.4205   6   7   0.3431   0.2968   0.6571  -0.0534  -0.1688   0.0250   0.00    0.0
2026/01/15 00:39:00.000   46.877095216    7.465044295   957.3997   6   7   0.3398   0.2948   0.6480  -0.0535  -0.1660   0.0200   0.00    0.0
2026/01/15 00:39:30.000   46.877095255    7.465044343   957.3872   6   7   0.3365   0.2929   0.6387  -0.0536  -0.1632   0.0129   0.00    0.0
2026/01/15 00:40:00.000   46.877095251    7.465044384   957.3817   6   7   0.3331   0.2910   0.6294  -0.0536  -0.1604  -0.0084   0.00    0.0
2026/01/15 00:40:30.000   46.877095244    7.465044388   957.3765   6   7   0.3298   0.2891   0.6200  -0.0536  -0.1576  -0.0177   0.00    0.0
2026/01/15 00:41:00.000   46.877095258    7.465044358   957.3674   6   7   0.3264   0.2872   0.6106  -0.0536  -0.1548  -0.0237   0.00    0.0
2026/01/15 00:41:30.000   46.877095259    7.465044329   957.3558   6   7   0.3230   0.2854   0.6011  -0.0535  -0.1519  -0.0284   0.00    0.0
2026/01/15 00:42:00.000   46.877095274    7.465044283   957.3448   6   7   0.3197   0.2836   0.5916  -0.0534  -0.1491  -0.0324   0.00    0.0
2026/01/15 00:42:30.000   46.877095294    7.465044258   957.3339   6   7   0.3163   0.2819   0.5821  -0.0533  -0.1463  -0.0360   0.00    0.0
2026/01/15 00:43:00.000   46.877095325    7.465044262   957.3198   6   7   0.3129   0.2801   0.5726  -0.0532  -0.1434  -0.0392   0.00    0.0
2026/01/15 00:43:30.000   46.877095358    7.465044304   957.3033   6   7   0.3095   0.2784   0.5632  -0.0530  -0.1406  -0.0420   0.00    0.0
2026/01/15 00:44:00.000   46.877095379    7.465044368   957.2859   6   7   0.3061   0.2767   0.5537  -0.0529  -0.1378  -0.0447   0.00    0.0
2026/01/15 00:44:30.000   46.877095404    7.465044397   957.2698   6   7   0.3027   0.2751   0.5444  -0.0527  -0.1350  -0.0471   0.00    0.0
2026/01/15 00:45:00.000   46.877095430    7.465044412   957.2526   6   7   0.2993   0.2735   0.5351  -0.0525  -0.1323  -0.0493   0.00    0.0
2026/01/15 00:45:30.000   46.877095464    7.465044430   957.2394   6   7   0.2960   0.2719   0.5259  -0.0524  -0.1295  -0.0513   0.00    0.0
2026/01/15 00:46:00.000   46.877095490    7.465044448   957.2248   6   7   0.2926   0.2703   0.5167  -0.0522  -0.1268  -0.0532   0.00    0.0
2026/01/15 00:46:30.000   46.877095510    7.465044447   957.2100   6   7   0.2892   0.2687   0.5077  -0.0520  -0.1242  -0.0549   0.00    0.0
2026/01/15 00:47:00.000   46.877095531    7.465044419   957.1980   6   7   0.2859   0.2672   0.4987  -0.0518  -0.1215  -0.0564   0.00    0.0
2026/01/15 00:47:30.000   46.877095555    7.465044409   957.1867   6   7   0.2826   0.2657   0.4899  -0.0516  -0.1189  -0.0579   0.00    0.0
2026/01/15 00:48:00.000   46.877095586    7.465044415   957.1749   6   7   0.2792   0.2642   0.4812  -0.0513  -0.1164  -0.0592   0.00    0.0
2026/01/15 00:48:30.000   46.877095613    7.465044416   957.1603   6   7   0.2759   0.2627   0.4726  -0.0511  -0.1138  -0.0604   0.00    0.0
2026/01/15 00:49:00.000   46.877095654    7.465044416   957.1474   6   7   0.2726   0.2613   0.4642  -0.0509  -0.1114  -0.0614   0.00    0.0
2026/01/15 00:49:30.000   46.877095697    7.465044409   957.1365   6   7   0.2694   0.2599   0.4559  -0.0507  -0.1089  -0.0624   0.00    0.0
2026/01/15 00:50:00.000   46.877095730    7.465044421   957.1271   6   7   0.2661   0.2585   0.4477  -0.0505  -0.1066  -0.0633   0.00    0.0
2026/01/15 00:50:30.000   46.877095757    7.465044425   957.1173   6   7   0.2629   0.2571   0.4396  -0.0503  -0.1042  -0.0640   0.00    0.0
2026/01/15 00:51:00.000   46.877095782    7.465044431   957.1063   6   7   0.2597   0.2557   0.4318  -0.0501  -0.1019  -0.0647   0.00    0.0
2026/01/15 00:51:30.000   46.877095809    7.465044463   957.0935   6   7   0.2566   0.2544   0.4240  -0.0499  -0.0997  -0.0653   0.00    0.0
2026/01/15 01:06:30.000   46.877096324    7.465044793   957.1718   6   4   0.2372   0.2264   0.3976  -0.0602  -0.0820  -0.0635   0.00    0.0
2026/01/15 01:07:00.000   46.877096328    7.465044810   957.1732   6   4   0.2367   0.2257   0.3968  -0.0604  -0.0814  -0.0634   0.00    0.0
2026/01/15 01:07:30.000   46.877096327    7.465044826   957.1767   6   6   0.2361   0.2250   0.3959  -0.0607  -0.0808  -0.0633   0.00    0.0
2026/01/15 01:08:00.000   46.877096323    7.465044843   957.1808   6   5   0.2356   0.2242   0.3951  -0.0609  -0.0801  -0.0633   0.00    0.0
2026/01/15 01:08:30.000   46.877096317    7.465044859   957.1829   6   5   0.2351   0.2235   0.3942  -0.0611  -0.0795  -0.0632   0.00    0.0
2026/01/15 01:09:00.000   46.877096315    7.465044870   957.1832   6   6   0.2346   0.2228   0.3934  -0.0613  -0.0788  -0.0631   0.00    0.0
2026/01/15 01:09:30.000   46.877096319    7.465044871   957.1845   6   6   0.2340   0.2221   0.3925  -0.0615  -0.0782  -0.0630   0.00    0.0
2026/01/15 01:10:00.000   46.877096323    7.465044867   957.1876   6   7   0.2335   0.2214   0.3916  -0.0617  -0.0775  -0.0629   0.00    0.0
2026/01/15 01:12:30.000   46.877096374    7.465044864   957.1987   6   7   0.2312   0.2181   0.3876  -0.0631  -0.0749  -0.0613   0.00    0.0
2026/01/15 01:13:00.000   46.877096379    7.465044853   957.2000   6   7   0.2306   0.2175   0.3863  -0.0633  -0.0744  -0.0608   0.00    0.0
2026/01/15 01:13:30.000   46.877096375    7.465044827   957.2008   6   7   0.2300   0.2168   0.3850  -0.0634  -0.0738  -0.0602   0.00    0.0
2026/01/15 01:14:00.000   46.877096365    7.465044804   957.1996   6   7   0.2294   0.2162   0.3837  -0.0636  -0.0733  -0.0596   0.00    0.0
2026/01/15 01:14:30.000   46.877096367    7.465044804   957.1985   6   7   0.2288   0.2155   0.3823  -0.0637  -0.0727  -0.0591   0.00    0.0
2026/01/15 01:15:00.000   46.877096372    7.465044811   957.1958   6   7   0.2282   0.2149   0.3810  -0.0638  -0.0721  -0.0585   0.00    0.0
2026/01/15 01:15:30.000   46.877096371    7.465044813   957.1928   6   7   0.2276   0.2143   0.3796  -0.0640  -0.0715  -0.0580   0.00    0.0
2026/01/15 01:16:00.000   46.877096368    7.465044804   957.1897   6   7   0.2270   0.2137   0.3781  -0.0641  -0.0709  -0.0575   0.00    0.0
2026/01/15 01:16:30.000   46.877096364    7.465044789   957.1873   6   7   0.2263   0.2131   0.3766  -0.0641  -0.0703  -0.0572   0.00    0.0
2026/01/15 01:17:00.000   46.877096373    7.465044773   957.1860   6   7   0.2257   0.2124   0.3751  -0.0642  -0.0696  -0.0570   0.00    0.0
2026/01/15 01:17:30.000   46.877096387    7.465044762   957.1839   6   7   0.2250   0.2119   0.3735  -0.0642  -0.0688  -0.0567   0.00    0.0
2026/01/15 01:18:00.000   46.877096403    7.465044763   957.1800   6   7   0.2243   0.2113   0.3719  -0.0642  -0.0680  -0.0563   0.00    0.0
2026/01/15 01:18:30.000   46.877096417    7.465044771   957.1768   6   7   0.2236   0.2107   0.3703  -0.0642  -0.0672  -0.0560   0.00    0.0
2026/01/15 01:19:00.000   46.877096428    7.465044758   957.1731   6   7   0.2229   0.2101   0.3686  -0.0642  -0.0664  -0.0557   0.00    0.0
2026/01/15 01:19:30.000   46.877096440    7.465044733   957.1703   6   7   0.2222   0.2095   0.3669  -0.0642  -0.0655  -0.0554   0.00    0.0
2026/01/15 01:20:00.000   46.877096449    7.465044712   957.1670   6   7   0.2214   0.2089   0.3651  -0.0642  -0.0647  -0.0552   0.00    0.0
2026/01/15 01:20:30.000   46.877096460    7.465044689   957.1639   6   7   0.2207   0.2084   0.3633  -0.0641  -0.0639  -0.0550   0.00    0.0
2026/01/15 01:21:00.000   46.877096471    7.465044656   957.1599   6   7   0.2199   0.2078   0.3614  -0.0641  -0.0630  -0.0548   0.00    0.0
2026/01/15 01:21:30.000   46.877096481    7.465044616   957.1560   6   7   0.2191   0.2073   0.3594  -0.0641  -0.0622  -0.0546   0.00    0.0
2026/01/15 01:22:00.000   46.877096478    7.465044598   957.1506   6   7   0.2183   0.2067   0.3575  -0.0641  -0.0613  -0.0545   0.00    0.0
2026/01/15 01:22:30.000   46.877096470    7.465044596   957.1429   6   7   0.2175   0.2061   0.3554  -0.0641  -0.0604  -0.0543   0.00    0.0
2026/01/15 01:23:00.000   46.877096471    7.465044610   957.1344   6   7   0.2167   0.2056   0.3534  -0.0640  -0.0596  -0.0542   0.00    0.0
2026/01/15 01:23:30.000   46.877096472    7.465044617   957.1259   6   7   0.2158   0.2050   0.3513  -0.0640  -0.0587  -0.0542   0.00    0.0
2026/01/15 01:24:00.000   46.877096474    7.465044619   957.1188   6   7   0.2149   0.2045   0.3491  -0.0640  -0.0578  -0.0541   0.00    0.0
2026/01/15 01:24:30.000   46.877096476    7.465044614   957.1123   6   8   0.2141   0.2040   0.3469  -0.0639  -0.0570  -0.0543   0.00    0.0
2026/01/15 01:25:00.000   46.877096489    7.465044619   957.1079   6   7   0.2132   0.2035   0.3447  -0.0638  -0.0563  -0.0544   0.00    0.0
2026/01/15 01:25:30.000   46.877096503    7.465044602   957.1013   6   7   0.2123   0.2029   0.3425  -0.0637  -0.0555  -0.0546   0.00    0.0
2026/01/15 01:26:00.000   46.877096518    7.465044584   957.0937   6   7   0.2113   0.2024   0.3402  -0.0637  -0.0547  -0.0547   0.00    0.0
2026/01/15 01:26:30.000   46.877096529    7.465044561   957.0855   6   7   0.2104   0.2019   0.3379  -0.0636  -0.0539  -0.0549   0.00    0.0
2026/01/15 01:27:00.000   46.877096532    7.465044546   957.0793   6   7   0.2094   0.2014   0.3355  -0.0635  -0.0531  -0.0551   0.00    0.0
2026/01/15 01:27:30.000   46.877096533    7.465044517   957.0718   6   7   0.2084   0.2009   0.3331  -0.0635  -0.0523  -0.0553   0.00    0.0
2026/01/15 01:28:00.000   46.877096534    7.465044494   957.0630   6   7   0.2074   0.2004   0.3306  -0.0634  -0.0515  -0.0555   0.00    0.0
2026/01/15 01:28:30.000   46.877096536    7.465044480   957.0535   6   7   0.2064   0.1998   0.3282  -0.0633  -0.0507  -0.0557   0.00    0.0
2026/01/15 01:29:00.000   46.877096538    7.465044465   957.0424   6   7   0.2054   0.1993   0.3257  -0.0633  -0.0499  -0.0559   0.00    0.0
2026/01/15 01:29:30.000   46.877096541    7.465044459   957.0326   6   7   0.2044   0.1988   0.3231  -0.0632  -0.0491  -0.0561   0.00    0.0
2026/01/15 01:30:00.000   46.877096543    7.465044468   957.0222   6   7   0.2033   0.1983   0.3205  -0.0632  -0.0483  -0.0563   0.00    0.0
2026/01/15 01:30:30.000   46.877096540    7.465044482   957.0105   6   7   0.2022   0.1978   0.3179  -0.0631  -0.0475  -0.0565   0.00    0.0
2026/01/15 01:31:00.000   46.877096536    7.465044495   956.9983   6   7   0.2011   0.1973   0.3153  -0.0631  -0.0467  -0.0567   0.00    0.0
2026/01/15 01:31:30.000   46.877096527    7.465044513   956.9873   6   7   0.2000   0.1968   0.3127  -0.0630  -0.0459  -0.0569   0.00    0.0
2026/01/15 01:32:00.000   46.877096517    7.465044508   956.9758   6   7   0.1989   0.1963   0.3100  -0.0630  -0.0451  -0.0571   0.00    0.0
2026/01/15 01:32:30.000   46.877096511    7.465044488   956.9633   6   7   0.1977   0.1958   0.3074  -0.0630  -0.0443  -0.0572   0.00    0.0
2026/01/15 01:33:00.000   46.877096518    7.465044473   956.9562   6   6   0.1966   0.1954   0.3050  -0.0629  -0.0430  -0.0569   0.00    0.0
2026/01/15 02:04:30.000   46.877096852    7.465043349   956.9484   6   4   0.1809   0.1748   0.2914  -0.0576   0.0123  -0.0515   0.00    0.0
2026/01/15 02:05:00.000   46.877096858    7.465043323   956.9478   6   5   0.1806   0.1745   0.2911  -0.0575   0.0130  -0.0513   0.00    0.0
2026/01/15 02:05:30.000   46.877096860    7.465043310   956.9487   6   6   0.1804   0.1741   0.2908  -0.0574   0.0133  -0.0510   0.00    0.0
2026/01/15 02:06:00.000   46.877096862    7.465043289   956.9492   6   7   0.1801   0.1738   0.2905  -0.0573   0.0137  -0.0508   0.00    0.0
2026/01/15 02:06:30.000   46.877096863    7.465043260   956.9485   6   7   0.1798   0.1735   0.2902  -0.0572   0.0140  -0.0506   0.00    0.0
2026/01/15 02:07:00.000   46.877096872    7.465043238   956.9483   6   7   0.1796   0.1732   0.2899  -0.0571   0.0143  -0.0504   0.00    0.0
2026/01/15 02:07:30.000   46.877096879    7.465043216   956.9475   6   7   0.1793   0.1729   0.2896  -0.0569   0.0147  -0.0502   0.00    0.0
2026/01/15 02:08:00.000   46.877096879    7.465043190   956.9461   6   7   0.1790   0.1726   0.2892  -0.0568   0.0150  -0.0499   0.00    0.0
2026/01/15 02:08:30.000   46.877096876    7.465043159   956.9459   6   7   0.1787   0.1723   0.2889  -0.0567   0.0154  -0.0497   0.00    0.0
2026/01/15 02:09:00.000   46.877096875    7.465043114   956.9455   6   7   0.1785   0.1720   0.2885  -0.0566   0.0157  -0.0495   0.00    0.0
2026/01/15 02:09:30.000   46.877096875    7.465043088   956.9453   6   7   0.1782   0.1717   0.2881  -0.0565   0.0161  -0.0493   0.00    0.0
2026/01/15 02:10:00.000   46.877096876    7.465043050   956.9429   6   7   0.1779   0.1714   0.2877  -0.0564   0.0164  -0.0491   0.00    0.0
2026/01/15 02:10:30.000   46.877096883    7.465043013   956.9401   6   7   0.1776   0.1711   0.2873  -0.0563   0.0168  -0.0489   0.00    0.0
2026/01/15 02:11:00.000   46.877096894    7.465042976   956.9375   6   7   0.1773   0.1708   0.2869  -0.0562   0.0172  -0.0487   0.00    0.0
2026/01/15 02:11:30.000   46.877096908    7.465042953   956.9362   6   7   0.1770   0.1705   0.2864  -0.0561   0.0176  -0.0486   0.00    0.0
2026/01/15 02:12:00.000   46.877096920    7.465042928   956.9349   6   7   0.1767   0.1702   0.2859  -0.0561   0.0180  -0.0485   0.00    0.0
2026/01/15 02:12:30.000   46.877096929    7.465042910   956.9336   6   7   0.1764   0.1699   0.2853  -0.0560   0.0184  -0.0485   0.00    0.0
2026/01/15 02:13:00.000   46.877096939    7.465042893   956.9323   6   7   0.1760   0.1696   0.2847  -0.0559   0.0188  -0.0484   0.00    0.0
2026/01/15 02:13:30.000   46.877096941    7.465042877   956.9307   6   7   0.1757   0.1693   0.2841  -0.0558   0.0193  -0.0484   0.00    0.0
2026/01/15 02:14:00.000   46.877096937    7.465042851   956.9297   6   7   0.1753   0.1690   0.2835  -0.0557   0.0197  -0.0483   0.00    0.0
2026/01/15 02:14:30.000   46.877096931    7.465042822   956.9290   6   7   0.1750   0.1686   0.2828  -0.0557   0.0202  -0.0483   0.00    0.0
2026/01/15 02:15:00.000   46.877096929    7.465042795   956.9273   6   7   0.1746   0.1683   0.2821  -0.0556   0.0207  -0.0483   0.00    0.0
2026/01/15 02:15:30.000   46.877096928    7.465042776   956.9249   6   7   0.1742   0.1680   0.2814  -0.0555   0.0212  -0.0483   0.00    0.0
2026/01/15 02:16:00.000   46.877096929    7.465042761   956.9235   6   7   0.1739   0.1677   0.2806  -0.0555   0.0217  -0.0484   0.00    0.0
2026/01/15 02:16:30.000   46.877096926    7.465042737   956.9219   6   7   0.1735   0.1674   0.2798  -0.0554   0.0223  -0.0484   0.00    0.0
2026/01/15 02:17:00.000   46.877096922    7.465042703   956.9199   6   7   0.1731   0.1671   0.2790  -0.0553   0.0228  -0.0485   0.00    0.0
2026/01/15 02:17:30.000   46.877096917    7.465042676   956.9168   6   7   0.1727   0.1668   0.2781  -0.0553   0.0234  -0.0485   0.00    0.0
2026/01/15 02:18:00.000   46.877096917    7.465042648   956.9138   6   7   0.1723   0.1665   0.2772  -0.0552   0.0240  -0.0486   0.00    0.0
2026/01/15 02:18:30.000   46.877096915    7.465042625   956.9103   6   7   0.1718   0.1662   0.2763  -0.0552   0.0245  -0.0488   0.00    0.0
2026/01/15 02:19:00.000   46.877096909    7.465042595   956.9069   6   7   0.1714   0.1659   0.2753  -0.0551   0.0251  -0.0489   0.00    0.0
2026/01/15 02:19:30.000   46.877096904    7.465042567   956.9040   6   7   0.1710   0.1656   0.2742  -0.0551   0.0257  -0.0490   0.00    0.0
2026/01/15 02:20:00.000   46.877096899    7.465042539   956.9004   6   7   0.1705   0.1653   0.2732  -0.0551   0.0263  -0.0492   0.00    0.0
2026/01/15 02:20:30.000   46.877096892    7.465042513   956.8958   6   7   0.1701   0.1650   0.2721  -0.0550   0.0269  -0.0494   0.00    0.0
2026/01/15 02:21:00.000   46.877096886    7.465042490   956.8917   6   7   0.1696   0.1647   0.2709  -0.0550   0.0275  -0.0496   0.00    0.0
2026/01/15 02:21:30.000   46.877096883    7.465042466   956.8885   6   7   0.1691   0.1644   0.2697  -0.0550   0.0282  -0.0498   0.00    0.0
2026/01/15 02:22:00.000   46.877096880    7.465042436   956.8849   6   7   0.1686   0.1641   0.2685  -0.0550   0.0288  -0.0500   0.00    0.0
2026/01/15 02:22:30.000   46.877096874    7.465042406   956.8803   6   7   0.1681   0.1638   0.2673  -0.0550   0.0294  -0.0502   0.00    0.0
2026/01/15 02:23:00.000   46.877096864    7.465042385   956.8760   6   7   0.1676   0.1634   0.2660  -0.0550   0.0300  -0.0505   0.00    0.0
2026/01/15 02:23:30.000   46.877096854    7.465042360   956.8720   6   7   0.1671   0.1631   0.2646  -0.0550   0.0306  -0.0507   0.00    0.0
2026/01/15 02:24:00.000   46.877096850    7.465042338   956.8671   6   7   0.1666   0.1628   0.2633  -0.0550   0.0313  -0.0510   0.00    0.0
2026/01/15 02:24:30.000   46.877096844    7.465042312   956.8617   6   7   0.1660   0.1625   0.2619  -0.0550   0.0319  -0.0513   0.00    0.0
2026/01/15 02:25:00.000   46.877096837    7.465042307   956.8561   6   7   0.1655   0.1622   0.2604  -0.0550   0.0325  -0.0516   0.00    0.0
2026/01/15 02:25:30.000   46.877096830    7.465042287   956.8504   6   7   0.1650   0.1619   0.2590  -0.0550   0.0331  -0.0519   0.00    0.0
2026/01/15 02:26:00.000   46.877096820    7.465042273   956.8445   6   7   0.1644   0.1616   0.2575  -0.0550   0.0337  -0.0521   0.00    0.0
2026/01/15 02:26:30.000   46.877096815    7.465042246   956.8390   6   7   0.1638   0.1613   0.2560  -0.0551   0.0342  -0.0524   0.00    0.0
2026/01/15 02:27:00.000   46.877096809    7.465042218   956.8343   6   7   0.1632   0.1610   0.2544  -0.0551   0.0347  -0.0527   0.00    0.0
2026/01/15 02:27:30.000   46.877096798    7.465042196   956.8297   6   7   0.1627   0.1607   0.2528  -0.0552   0.0353  -0.0530   0.00    0.0
2026/01/15 02:28:00.000   46.877096793    7.465042171   956.8248   6   7   0.1621   0.1604   0.2512  -0.0552   0.0358  -0.0534   0.00    0.0
2026/01/15 02:28:30.000   46.877096795    7.465042143   956.8200   6   7   0.1615   0.1601   0.2496  -0.0553   0.0363  -0.0537   0.00    0.0
2026/01/15 02:29:00.000   46.877096798    7.465042129   956.8145   6   7   0.1608   0.1598   0.2480  -0.0553   0.0369  -0.0540   0.00    0.0
2026/01/15 02:29:30.000   46.877096801    7.465042112   956.8096   6   7   0.1602   0.1595   0.2463  -0.0554   0.0374  -0.0543   0.00    0.0
2026/01/15 02:30:00.000   46.877096798    7.465042099   956.8046   6   7   0.1596   0.1592   0.2446  -0.0555   0.0379  -0.0546   0.00    0.0
2026/01/15 02:30:30.000   46.877096795    7.465042084   956.7993   6   7   0.1590   0.1589   0.2428  -0.0556   0.0384  -0.0550   0.00    0.0
2026/01/15 02:31:00.000   46.877096792    7.465042065   956.7931   6   7   0.1583   0.1586   0.2411  -0.0556   0.0390  -0.0553   0.00    0.0
2026/01/15 02:31:30.000   46.877096785    7.465042038   956.7870   6   7   0.1577   0.1582   0.2393  -0.0557   0.0395  -0.0556   0.00    0.0
2026/01/15 02:32:00.000   46.877096779    7.465042013   956.7803   6   7   0.1570   0.1579   0.2376  -0.0558   0.0400  -0.0560   0.00    0.0
2026/01/15 02:32:30.000   46.877096771    7.465041981   956.7739   6   7   0.1563   0.1576   0.2358  -0.0559   0.0405  -0.0563   0.00    0.0
2026/01/15 02:33:00.000   46.877096756    7.465041958   956.7671   6   7   0.1557   0.1573   0.2340  -0.0560   0.0410  -0.0566   0.00    0.0
2026/01/15 02:33:30.000   46.877096743    7.465041931   956.7614   6   7   0.1550   0.1570   0.2322  -0.0561   0.0415  -0.0569   0.00    0.0
2026/01/15 02:34:00.000   46.877096733    7.465041904   956.7557   6   7   0.1543   0.1567   0.2303  -0.0562   0.0420  -0.0572   0.00    0.0
2026/01/15 02:34:30.000   46.877096725    7.465041877   956.7497   6   7   0.1536   0.1564   0.2285  -0.0563   0.0424  -0.0575   0.00    0.0
2026/01/15 02:35:00.000   46.877096718    7.465041857   956.7433   6   7   0.1529   0.1560   0.2266  -0.0564   0.0429  -0.0578   0.00    0.0
2026/01/15 02:35:30.000   46.877096711    7.465041842   956.7366   6   7   0.1522   0.1557   0.2248  -0.0565   0.0434  -0.0581   0.00    0.0
2026/01/15 02:36:00.000   46.877096705    7.465041828   956.7297   6   7   0.1515   0.1554   0.2229  -0.0566   0.0438  -0.0584   0.00    0.0
2026/01/15 02:36:30.000   46.877096701    7.465041809   956.7232   6   7   0.1508   0.1551   0.2211  -0.0567   0.0443  -0.0587   0.00    0.0
2026/01/15 02:37:00.000   46.877096693    7.465041790   956.7162   6   7   0.1501   0.1548   0.2192  -0.0568   0.0447  -0.0590   0.00    0.0
2026/01/15 02:37:30.000   46.877096686    7.465041768   956.7092   6   7   0.1494   0.1544   0.2173  -0.0569   0.0451  -0.0592   0.00    0.0
2026/01/15 02:38:00.000   46.877096680    7.465041748   956.7030   6   7   0.1486   0.1541   0.2155  -0.0571   0.0455  -0.0595   0.00    0.0
2026/01/15 02:38:30.000   46.877096677    7.465041723   956.6969   6   7   0.1479   0.1538   0.2136  -0.0572   0.0460  -0.0597   0.00    0.0
2026/01/15 02:39:00.000   46.877096673    7.465041694   956.6912   6   7   0.1472   0.1535   0.2117  -0.0573   0.0464  -0.0600   0.00    0.0
2026/01/15 02:39:30.000   46.877096668    7.465041667   956.6854   6   7   0.1465   0.1531   0.2099  -0.0574   0.0467  -0.0602   0.00    0.0
2026/01/15 02:40:00.000   46.877096663    7.465041641   956.6797   6   7   0.1457   0.1528   0.2080  -0.0576   0.0471  -0.0604   0.00    0.0
2026/01/15 02:40:30.000   46.877096655    7.465041626   956.6739   6   7   0.1450   0.1525   0.2062  -0.0577   0.0475  -0.0606   0.00    0.0
2026/01/15 02:41:00.000   46.877096647    7.465041604   956.6686   6   7   0.1442   0.1521   0.2043  -0.0578   0.0478  -0.0608   0.00    0.0
2026/01/15 02:41:30.000   46.877096639    7.465041576   956.6636   6   7   0.1435   0.1518   0.2025  -0.0580   0.0482  -0.0610   0.00    0.0
2026/01/15 02:42:00.000   46.877096631    7.465041546   956.6584   6   8   0.1427   0.1515   0.2007  -0.0581   0.0485  -0.0612   0.00    0.0
2026/01/15 02:42:30.000   46.877096622    7.465041521   956.6530   6   7   0.1420   0.1511   0.1989  -0.0582   0.0489  -0.0614   0.00    0.0
2026/01/15 02:43:00.000   46.877096617    7.465041497   956.6478   6   7   0.1413   0.1508   0.1970  -0.0584   0.0492  -0.0615   0.00    0.0
2026/01/15 02:43:30.000   46.877096614    7.465041463   956.6424   6   7   0.1405   0.1505   0.1952  -0.0585   0.0495  -0.0617   0.00    0.0
2026/01/15 02:44:00.000   46.877096610    7.465041436   956.6365   6  12   0.1398   0.1501   0.1935  -0.0587   0.0498  -0.0618   0.00    0.0
2026/01/15 02:44:30.000   46.877096605    7.465041406   956.6312   6  12   0.1390   0.1498   0.1917  -0.0588   0.0501  -0.0619   0.00    0.0
2026/01/15 02:45:00.000   46.877096598    7.465041372   956.6254   6  13   0.1383   0.1495   0.1899  -0.0589   0.0504  -0.0621   0.00    0.0
2026/01/15 02:45:30.000   46.877096596    7.465041339   956.6197   6  14   0.1375   0.1491   0.1882  -0.0591   0.0506  -0.0622   0.00    0.0
2026/01/15 02:46:00.000   46.877096595    7.465041315   956.6142   6  14   0.1368   0.1488   0.1864  -0.0592   0.0509  -0.0623   0.00    0.0
2026/01/15 02:46:30.000   46.877096594    7.465041292   956.6085   6  14   0.1360   0.1485   0.1847  -0.0594   0.0511  -0.0624   0.00    0.0
2026/01/15 02:47:00.000   46.877096590    7.465041264   956.6034   6  14   0.1353   0.1481   0.1830  -0.0595   0.0514  -0.0625   0.00    0.0
2026/01/15 02:47:30.000   46.877096582    7.465041248   956.5981   6  14   0.1345   0.1478   0.1813  -0.0596   0.0516  -0.0626   0.00    0.0
2026/01/15 02:48:00.000   46.877096573    7.465041238   956.5929   6  14   0.1337   0.1474   0.1796  -0.0598   0.0519  -0.0626   0.00    0.0
2026/01/15 02:48:30.000   46.877096566    7.465041221   956.5881   6  14   0.1330   0.1471   0.1779  -0.0599   0.0521  -0.0627   0.00    0.0
2026/01/15 02:49:00.000   46.877096559    7.465041197   956.5835   6  14   0.1322   0.1467   0.1762  -0.0601   0.0523  -0.0628   0.00    0.0
2026/01/15 02:49:30.000   46.877096550    7.465041166   956.5785   6  14   0.1315   0.1464   0.1745  -0.0602   0.0525  -0.0628   0.00    0.0
2026/01/15 02:50:00.000   46.877096544    7.465041138   956.5735   6  14   0.1307   0.1460   0.1729  -0.0603   0.0527  -0.0629   0.00    0.0
2026/01/15 02:50:30.000   46.877096539    7.465041118   956.5687   6  14   0.1300   0.1457   0.1712  -0.0605   0.0529  -0.0629   0.00    0.0
2026/01/15 02:51:00.000   46.877096533    7.465041092   956.5640   6  14   0.1292   0.1453   0.1696  -0.0606   0.0531  -0.0629   0.00    0.0
2026/01/15 02:51:30.000   46.877096530    7.465041063   956.5593   6  14   0.1285   0.1450   0.1680  -0.0607   0.0533  -0.0630   0.00    0.0
2026/01/15 02:52:00.000   46.877096527    7.465041039   956.5552   6  14   0.1277   0.1446   0.1664  -0.0609   0.0534  -0.0630   0.00    0.0
2026/01/15 02:52:30.000   46.877096522    7.465041025   956.5509   6  14   0.1270   0.1443   0.1648  -0.0610   0.0536  -0.0630   0.00    0.0
2026/01/15 02:53:00.000   46.877096518    7.465041008   956.5465   6  14   0.1262   0.1439   0.1632  -0.0611   0.0537  -0.0630   0.00    0.0
2026/01/15 02:53:30.000   46.877096516    7.465040991   956.5426   6  14   0.1255   0.1436   0.1617  -0.0612   0.0539  -0.0630   0.00    0.0
2026/01/15 02:54:00.000   46.877096515    7.465040968   956.5387   6  14   0.1247   0.1432   0.1601  -0.0614   0.0540  -0.0630   0.00    0.0
2026/01/15 02:54:30.000   46.877096514    7.465040940   956.5346   6  14   0.1240   0.1428   0.1586  -0.0615   0.0542  -0.0630   0.00    0.0
2026/01/15 02:55:00.000   46.877096514    7.465040909   956.5306   6  14   0.1232   0.1425   0.1571  -0.0616   0.0543  -0.0630   0.00    0.0
2026/01/15 02:55:30.000   46.877096512    7.465040882   956.5266   6  14   0.1225   0.1421   0.1556  -0.0617   0.0544  -0.0629   0.00    0.0
2026/01/15 02:56:00.000   46.877096507    7.465040856   956.5224   6  14   0.1217   0.1417   0.1541  -0.0618   0.0546  -0.0629   0.00    0.0
2026/01/15 02:56:30.000   46.877096500    7.465040825   956.5203   6  13   0.1210   0.1414   0.1528  -0.0619   0.0546  -0.0629   0.00    0.0
2026/01/15 02:57:00.000   46.877096497    7.465040790   956.5182   6  13   0.1203   0.1410   0.1516  -0.0620   0.0545  -0.0629   0.00    0.0
2026/01/15 02:57:30.000   46.877096493    7.465040759   956.5163   6  13   0.1195   0.1407   0.1504  -0.0621   0.0545  -0.0628   0.00    0.0
2026/01/15 02:58:00.000   46.877096491    7.465040726   956.5147   6  13   0.1188   0.1403   0.1491  -0.0622   0.0545  -0.0628   0.00    0.0
2026/01/15 02:58:30.000   46.877096486    7.465040693   956.5132   6  13   0.1181   0.1399   0.1479  -0.0623   0.0545  -0.0628   0.00    0.0
2026/01/15 02:59:00.000   46.877096479    7.465040661   956.5114   6  13   0.1173   0.1396   0.1467  -0.0624   0.0545  -0.0627   0.00    0.0
2026/01/15 02:59:30.000   46.877096471    7.465040627   956.5099   6  13   0.1166   0.1392   0.1455  -0.0625   0.0545  -0.0627   0.00    0.0
2026/01/15 03:00:00.000   46.877096464    7.465040588   956.5083   6  13   0.1159   0.1388   0.1443  -0.0626   0.0545  -0.0626   0.00    0.0
2026/01/15 03:00:30.000   46.877096460    7.465040551   956.5063   6  13   0.1151   0.1385   0.1431  -0.0626   0.0545  -0.0625   0.00    0.0
2026/01/15 03:01:00.000   46.877096458    7.465040513   956.5043   6  13   0.1144   0.1381   0.1419  -0.0627   0.0544  -0.0625   0.00    0.0
2026/01/15 03:01:30.000   46.877096456    7.465040473   956.5026   6  13   0.1137   0.1377   0.1407  -0.0628   0.0544  -0.0624   0.00    0.0
2026/01/15 03:02:00.000   46.877096454    7.465040432   956.5007   6  13   0.1130   0.1373   0.1395  -0.0628   0.0544  -0.0623   0.00    0.0
2026/01/15 03:02:30.000   46.877096450    7.465040386   956.4989   6  13   0.1123   0.1370   0.1383  -0.0629   0.0544  -0.0622   0.00    0.0
2026/01/15 03:03:00.000   46.877096446    7.465040344   956.4970   6  13   0.1116   0.1366   0.1371  -0.0630   0.0544  -0.0621   0.00    0.0
2026/01/15 03:03:30.000   46.877096444    7.465040305   956.4948   6  13   0.1108   0.1362   0.1360  -0.0630   0.0543  -0.0620   0.00    0.0
2026/01/15 03:04:00.000   46.877096442    7.465040268   956.4927   6  13   0.1101   0.1358   0.1348  -0.0631   0.0543  -0.0619   0.00    0.0
2026/01/15 03:04:30.000   46.877096438    7.465040231   956.4909   6  13   0.1094   0.1354   0.1337  -0.0631   0.0543  -0.0618   0.00    0.0
2026/01/15 03:05:00.000   46.877096435    7.465040192   956.4887   6  14   0.1087   0.1350   0.1325  -0.0631   0.0543  -0.0617   0.00    0.0
2026/01/15 03:05:30.000   46.877096429    7.465040161   956.4869   6  14   0.1080   0.1346   0.1314  -0.0632   0.0542  -0.0616   0.00    0.0
2026/01/15 03:06:00.000   46.877096423    7.465040124   956.4852   6  14   0.1074   0.1342   0.1303  -0.0632   0.0542  -0.0615   0.00    0.0
2026/01/15 03:06:30.000   46.877096417    7.465040090   956.4834   6  14   0.1067   0.1338   0.1292  -0.0632   0.0542  -0.0613   0.00    0.0
2026/01/15 03:07:00.000   46.877096411    7.465040050   956.4816   6  14   0.1060   0.1334   0.1280  -0.0633   0.0541  -0.0612   0.00    0.0
2026/01/15 03:07:30.000   46.877096407    7.465040010   956.4800   6  14   0.1053   0.1330   0.1269  -0.0633   0.0541  -0.0611   0.00    0.0
2026/01/15 03:08:00.000   46.877096405    7.465039972   956.4781   6  14   0.1046   0.1326   0.1259  -0.0633   0.0540  -0.0609   0.00    0.0
2026/01/15 03:08:30.000   46.877096403    7.465039937   956.4762   6  14   0.1040   0.1322   0.1248  -0.0633   0.0540  -0.0608   0.00    0.0
2026/01/15 03:09:00.000   46.877096399    7.465039902   956.4747   6  14   0.1033   0.1317   0.1237  -0.0633   0.0539  -0.0606   0.00    0.0
2026/01/15 03:09:30.000   46.877096397    7.465039869   956.4730   6  14   0.1026   0.1313   0.1226  -0.0633   0.0539  -0.0605   0.00    0.0
2026/01/15 03:10:00.000   46.877096393    7.465039842   956.4715   6  14   0.1020   0.1309   0.1216  -0.0633   0.0538  -0.0603   0.00    0.0
2026/01/15 03:10:30.000   46.877096389    7.465039820   956.4697   6  14   0.1013   0.1305   0.1206  -0.0633   0.0538  -0.0602   0.00    0.0
2026/01/15 03:11:00.000   46.877096385    7.465039801   956.4681   6  14   0.1006   0.1300   0.1195  -0.0633   0.0537  -0.0600   0.00    0.0
2026/01/15 03:11:30.000   46.877096383    7.465039777   956.4663   6  14   0.1000   0.1296   0.1185  -0.0632   0.0536  -0.0598   0.00    0.0
2026/01/15 03:12:00.000   46.877096378    7.465039752   956.4648   6  14   0.0993   0.1292   0.1175  -0.0632   0.0536  -0.0597   0.00    0.0
2026/01/15 03:12:30.000   46.877096376    7.465039722   956.4633   6  14   0.0987   0.1287   0.1165  -0.0632   0.0535  -0.0595   0.00    0.0
2026/01/15 03:13:00.000   46.877096373    7.465039686   956.4616   6  14   0.0981   0.1283   0.1155  -0.0631   0.0534  -0.0593   0.00    0.0
2026/01/15 03:13:30.000   46.877096373    7.465039644   956.4598   6  14   0.0974   0.1279   0.1145  -0.0631   0.0533  -0.0591   0.00    0.0
2026/01/15 03:14:00.000   46.877096372    7.465039612   956.4583   6  14   0.0968   0.1274   0.1135  -0.0630   0.0533  -0.0589   0.00    0.0
2026/01/15 03:14:30.000   46.877096371    7.465039583   956.4567   6  14   0.0962   0.1270   0.1126  -0.0630   0.0532  -0.0587   0.00    0.0
2026/01/15 03:15:00.000   46.877096368    7.465039565   956.4552   6  14   0.0955   0.1265   0.1116  -0.0629   0.0531  -0.0586   0.00    0.0
2026/01/15 03:15:30.000   46.877096366    7.465039542   956.4539   6  15   0.0949   0.1261   0.1107  -0.0629   0.0530  -0.0584   0.00    0.0
2026/01/15 03:16:00.000   46.877096364    7.465039513   956.4523   6  15   0.0943   0.1256   0.1097  -0.0628   0.0528  -0.0582   0.00    0.0
2026/01/15 03:16:30.000   46.877096362    7.465039476   956.4508   6  15   0.0937   0.1252   0.1088  -0.0627   0.0527  -0.0579   0.00    0.0
2026/01/15 03:17:00.000   46.877096360    7.465039441   956.4493   6  15   0.0930   0.1247   0.1079  -0.0626   0.0526  -0.0577   0.00    0.0
2026/01/15 03:17:30.000   46.877096360    7.465039404   956.4476   6  15   0.0924   0.1243   0.1070  -0.0625   0.0525  -0.0575   0.00    0.0
2026/01/15 03:18:00.000   46.877096359    7.465039371   956.4460   6  15   0.0918   0.1238   0.1061  -0.0624   0.0524  -0.0573   0.00    0.0
2026/01/15 03:18:30.000   46.877096356    7.465039337   956.4445   6  15   0.0912   0.1233   0.1052  -0.0623   0.0522  -0.0571   0.00    0.0
2026/01/15 03:19:00.000   46.877096355    7.465039304   956.4428   6  15   0.0906   0.1228   0.1043  -0.0622   0.0521  -0.0569   0.00    0.0
2026/01/15 03:19:30.000   46.877096355    7.465039269   956.4410   6  15   0.0900   0.1224   0.1034  -0.0620   0.0520  -0.0567   0.00    0.0
2026/01/15 03:20:00.000   46.877096355    7.465039230   956.4391   6  15   0.0894   0.1219   0.1025  -0.0619   0.0518  -0.0564   0.00    0.0
2026/01/15 03:20:30.000   46.877096356    7.465039189   956.4375   6  15   0.0888   0.1214   0.1017  -0.0618   0.0517  -0.0562   0.00    0.0
2026/01/15 03:21:00.000   46.877096358    7.465039151   956.4357   6  15   0.0882   0.1209   0.1008  -0.0617   0.0515  -0.0560   0.00    0.0
2026/01/15 03:21:30.000   46.877096360    7.465039113   956.4337   6  15   0.0877   0.1205   0.1000  -0.0615   0.0514  -0.0557   0.00    0.0
2026/01/15 03:22:00.000   46.877096362    7.465039079   956.4320   6  15   0.0871   0.1200   0.0992  -0.0614   0.0512  -0.0555   0.00    0.0
2026/01/15 03:22:30.000   46.877096363    7.465039045   956.4304   6  15   0.0865   0.1195   0.0984  -0.0612   0.0511  -0.0553   0.00    0.0
2026/01/15 03:23:00.000   46.877096364    7.465039017   956.4290   6  15   0.0859   0.1190   0.0975  -0.0611   0.0509  -0.0550   0.00    0.0
2026/01/15 03:23:30.000   46.877096366    7.465038983   956.4273   6  15   0.0854   0.1185   0.0967  -0.0609   0.0507  -0.0548   0.00    0.0
2026/01/15 03:24:00.000   46.877096368    7.465038948   956.4257   6  15   0.0848   0.1180   0.0959  -0.0608   0.0506  -0.0546   0.00    0.0
2026/01/15 03:24:30.000   46.877096370    7.465038913   956.4238   6  15   0.0842   0.1175   0.0952  -0.0606   0.0504  -0.0543   0.00    0.0
2026/01/15 03:25:00.000   46.877096374    7.465038874   956.4219   6  15   0.0837   0.1171   0.0944  -0.0604   0.0502  -0.0541   0.00    0.0
2026/01/15 03:25:30.000   46.877096377    7.465038834   956.4202   6  15   0.0831   0.1166   0.0936  -0.0603   0.0500  -0.0539   0.00    0.0
2026/01/15 03:26:00.000   46.877096381    7.465038790   956.4182   6  15   0.0826   0.1161   0.0929  -0.0601   0.0498  -0.0536   0.00    0.0
2026/01/15 03:26:30.000   46.877096386    7.465038747   956.4160   6  15   0.0820   0.1156   0.0921  -0.0599   0.0497  -0.0534   0.00    0.0
2026/01/15 03:27:00.000   46.877096390    7.465038711   956.4139   6  15   0.0815   0.1151   0.0914  -0.0597   0.0495  -0.0531   0.00    0.0
2026/01/15 03:27:30.000   46.877096393    7.465038670   956.4117   6  15   0.0810   0.1146   0.0906  -0.0595   0.0493  -0.0529   0.00    0.0
2026/01/15 03:28:00.000   46.877096395    7.465038632   956.4101   6   7   0.0806   0.1142   0.0901  -0.0595   0.0492  -0.0527   0.00    0.0
2026/01/15 03:28:30.000   46.877096397    7.465038596   956.4083   6   7   0.0803   0.1139   0.0896  -0.0594   0.0491  -0.0525   0.00    0.0
2026/01/15 03:29:00.000   46.877096400    7.465038568   956.4082   6  13   0.0797   0.1134   0.0892  -0.0592   0.0491  -0.0523   0.00    0.0
2026/01/15 03:29:30.000   46.877096404    7.465038540   956.4080   6  13   0.0792   0.1130   0.0887  -0.0591   0.0491  -0.0521   0.00    0.0
2026/01/15 03:30:00.000   46.877096407    7.465038511   956.4078   6  13   0.0787   0.1126   0.0882  -0.0589   0.0491  -0.0519   0.00    0.0
2026/01/15 03:30:30.000   46.877096410    7.465038485   956.4077   6  13   0.0781   0.1121   0.0878  -0.0587   0.0491  -0.0517   0.00    0.0
2026/01/15 03:31:00.000   46.877096413    7.465038457   956.4074   6  13   0.0776   0.1117   0.0873  -0.0585   0.0492  -0.0515   0.00    0.0
2026/01/15 03:31:30.000   46.877096416    7.465038429   956.4071   6  13   0.0771   0.1112   0.0869  -0.0583   0.0492  -0.0513   0.00    0.0
2026/01/15 03:32:00.000   46.877096420    7.465038401   956.4066   6  13   0.0766   0.1108   0.0864  -0.0581   0.0491  -0.0511   0.00    0.0
2026/01/15 03:32:30.000   46.877096425    7.465038372   956.4061   6  13   0.0761   0.1103   0.0859  -0.0579   0.0491  -0.0509   0.00    0.0
2026/01/15 03:33:00.000   46.877096430    7.465038341   956.4056   6  13   0.0756   0.1099   0.0855  -0.0577   0.0491  -0.0507   0.00    0.0
2026/01/15 03:33:30.000   46.877096436    7.465038310   956.4051   6  13   0.0751   0.1094   0.0850  -0.0575   0.0491  -0.0505   0.00    0.0
2026/01/15 03:34:00.000   46.877096442    7.465038280   956.4045   6  13   0.0746   0.1090   0.0846  -0.0573   0.0490  -0.0503   0.00    0.0
2026/01/15 03:34:30.000   46.877096448    7.465038253   956.4039   6  13   0.0741   0.1085   0.0841  -0.0571   0.0490  -0.0501   0.00    0.0
2026/01/15 03:35:00.000   46.877096451    7.465038227   956.4034   6  13   0.0736   0.1081   0.0837  -0.0569   0.0490  -0.0499   0.00    0.0
2026/01/15 03:35:30.000   46.877096455    7.465038202   956.4028   6  13   0.0731   0.1076   0.0832  -0.0567   0.0489  -0.0497   0.00    0.0
2026/01/15 03:36:00.000   46.877096458    7.465038178   956.4022   6  13   0.0726   0.1072   0.0828  -0.0565   0.0488  -0.0495   0.00    0.0
2026/01/15 03:36:30.000   46.877096462    7.465038153   956.4016   6  13   0.0721   0.1067   0.0823  -0.0563   0.0488  -0.0493   0.00    0.0
2026/01/15 03:37:00.000   46.877096465    7.465038132   956.4011   6  13   0.0717   0.1063   0.0819  -0.0561   0.0487  -0.0491   0.00    0.0
2026/01/15 03:37:30.000   46.877096468    7.465038110   956.4004   6  13   0.0712   0.1058   0.0814  -0.0558   0.0486  -0.0489   0.00    0.0
2026/01/15 03:38:00.000   46.877096470    7.465038088   956.3999   6  13   0.0707   0.1054   0.0810  -0.0556   0.0485  -0.0487   0.00    0.0
2026/01/15 03:38:30.000   46.877096472    7.465038067   956.3994   6  13   0.0703   0.1049   0.0806  -0.0554   0.0484  -0.0485   0.00    0.0
2026/01/15 03:39:00.000   46.877096475    7.465038047   956.3987   6  13   0.0698   0.1044   0.0801  -0.0552   0.0483  -0.0483   0.00    0.0
2026/01/15 03:39:30.000   46.877096478    7.465038024   956.3981   6  13   0.0693   0.1040   0.0797  -0.0550   0.0482  -0.0481   0.00    0.0
2026/01/15 03:40:00.000   46.877096482    7.465037999   956.3975   6  13   0.0689   0.1035   0.0792  -0.0547   0.0481  -0.0479   0.00    0.0
2026/01/15 03:40:30.000   46.877096485    7.465037975   956.3968   6  13   0.0684   0.1031   0.0788  -0.0545   0.0480  -0.0477   0.00    0.0
2026/01/15 03:41:00.000   46.877096489    7.465037948   956.3960   6  13   0.0680   0.1026   0.0784  -0.0543   0.0479  -0.0475   0.00    0.0
2026/01/15 03:41:30.000   46.877096493    7.465037919   956.3952   6  13   0.0676   0.1021   0.0779  -0.0540   0.0478  -0.0473   0.00    0.0
2026/01/15 03:42:00.000   46.877096496    7.465037892   956.3943   6  13   0.0671   0.1017   0.0775  -0.0538   0.0476  -0.0471   0.00    0.0
2026/01/15 03:42:30.000   46.877096500    7.465037866   956.3935   6  13   0.0667   0.1012   0.0771  -0.0536   0.0475  -0.0469   0.00    0.0
2026/01/15 03:43:00.000   46.877096503    7.465037843   956.3927   6  13   0.0662   0.1007   0.0766  -0.0533   0.0474  -0.0467   0.00    0.0
2026/01/15 03:43:30.000   46.877096506    7.465037821   956.3918   6  13   0.0658   0.1003   0.0762  -0.0531   0.0472  -0.0465   0.00    0.0
2026/01/15 03:44:00.000   46.877096510    7.465037798   956.3909   6  13   0.0654   0.0998   0.0758  -0.0529   0.0471  -0.0462   0.00    0.0
2026/01/15 03:44:30.000   46.877096514    7.465037773   956.3900   6  13   0.0650   0.0994   0.0753  -0.0526   0.0469  -0.0460   0.00    0.0
2026/01/15 03:45:00.000   46.877096518    7.465037749   956.3890   6  13   0.0645   0.0989   0.0749  -0.0524   0.0468  -0.0458   0.00    0.0
2026/01/15 03:45:30.000   46.877096520    7.465037725   956.3881   6  13   0.0641   0.0984   0.0745  -0.0521   0.0466  -0.0456   0.00    0.0
2026/01/15 03:46:00.000   46.877096523    7.465037702   956.3872   6  13   0.0637   0.0980   0.0741  -0.0519   0.0465  -0.0454   0.00    0.0
2026/01/15 03:46:30.000   46.877096529    7.465037678   956.3862   6  13   0.0633   0.0975   0.0737  -0.0517   0.0463  -0.0452   0.00    0.0
2026/01/15 03:47:00.000   46.877096533    7.465037654   956.3852   6  13   0.0629   0.0970   0.0732  -0.0514   0.0461  -0.0450   0.00    0.0
2026/01/15 03:47:30.000   46.877096536    7.465037631   956.3844   6  13   0.0625   0.0966   0.0728  -0.0512   0.0459  -0.0448   0.00    0.0
2026/01/15 03:48:00.000   46.877096539    7.465037609   956.3835   6  13   0.0621   0.0961   0.0724  -0.0509   0.0458  -0.0445   0.00    0.0
2026/01/15 03:48:30.000   46.877096542    7.465037593   956.3830   6   6   0.0619   0.0958   0.0722  -0.0509   0.0458  -0.0445   0.00    0.0
2026/01/15 03:49:00.000   46.877096543    7.465037578   956.3827   6   6   0.0617   0.0956   0.0720  -0.0509   0.0458  -0.0444   0.00    0.0
2026/01/15 03:49:30.000   46.877096544    7.465037563   956.3824   6   6   0.0615   0.0953   0.0718  -0.0508   0.0458  -0.0443   0.00    0.0
2026/01/15 03:50:00.000   46.877096544    7.465037548   956.3820   6   6   0.0614   0.0950   0.0717  -0.0508   0.0458  -0.0443   0.00    0.0
2026/01/15 03:50:30.000   46.877096545    7.465037533   956.3816   6   6   0.0612   0.0948   0.0715  -0.0507   0.0458  -0.0442   0.00    0.0
2026/01/15 03:51:00.000   46.877096548    7.465037518   956.3811   6   6   0.0610   0.0945   0.0713  -0.0507   0.0458  -0.0441   0.00    0.0
2026/01/15 03:51:30.000   46.877096549    7.465037503   956.3807   6   6   0.0608   0.0942   0.0711  -0.0506   0.0458  -0.0441   0.00    0.0
2026/01/15 03:52:00.000   46.877096550    7.465037488   956.3804   6   6   0.0606   0.0939   0.0709  -0.0506   0.0458  -0.0440   0.00    0.0
2026/01/15 03:52:30.000   46.877096551    7.465037471   956.3800   6   6   0.0605   0.0937   0.0707  -0.0505   0.0458  -0.0439   0.00    0.0
2026/01/15 03:53:00.000   46.877096554    7.465037452   956.3796   6   6   0.0603   0.0934   0.0706  -0.0505   0.0458  -0.0438   0.00    0.0
2026/01/15 03:53:30.000   46.877096556    7.465037435   956.3791   6   6   0.0601   0.0931   0.0704  -0.0504   0.0458  -0.0438   0.00    0.0
2026/01/15 03:54:00.000   46.877096559    7.465037420   956.3787   6   6   0.0599   0.0928   0.0702  -0.0504   0.0458  -0.0437   0.00    0.0
2026/01/15 03:54:30.000   46.877096560    7.465037407   956.3783   6   6   0.0597   0.0926   0.0700  -0.0503   0.0458  -0.0436   0.00    0.0
2026/01/15 03:55:00.000   46.877096563    7.465037390   956.3780   6   6   0.0596   0.0923   0.0698  -0.0503   0.0458  -0.0436   0.00    0.0
2026/01/15 03:55:30.000   46.877096564    7.465037376   956.3776   6   6   0.0594   0.0920   0.0696  -0.0502   0.0458  -0.0435   0.00    0.0
2026/01/15 03:56:00.000   46.877096565    7.465037361   956.3772   6   6   0.0592   0.0917   0.0695  -0.0502   0.0458  -0.0434   0.00    0.0
2026/01/15 03:56:30.000   46.877096568    7.465037348   956.3767   6   6   0.0591   0.0914   0.0693  -0.0501   0.0457  -0.0434   0.00    0.0
2026/01/15 03:57:00.000   46.877096571    7.465037332   956.3762   6   6   0.0589   0.0911   0.0691  -0.0500   0.0457  -0.0433   0.00    0.0
2026/01/15 03:57:30.000   46.877096574    7.465037315   956.3758   6   6   0.0587   0.0909   0.0689  -0.0500   0.0457  -0.0432   0.00    0.0
2026/01/15 03:58:00.000   46.877096575    7.465037301   956.3755   6   6   0.0585   0.0906   0.0687  -0.0499   0.0456  -0.0432   0.00    0.0
2026/01/15 03:58:30.000   46.877096577    7.465037288   956.3751   6   6   0.0584   0.0903   0.0685  -0.0498   0.0456  -0.0431   0.00    0.0
2026/01/15 03:59:00.000   46.877096577    7.465037279   956.3748   6   6   0.0582   0.0900   0.0684  -0.0498   0.0456  -0.0430   0.00    0.0
2026/01/15 03:59:30.000   46.877096579    7.465037266   956.3745   6   6   0.0580   0.0897   0.0682  -0.0497   0.0455  -0.0430   0.00    0.0
2026/01/15 04:00:00.000   46.877096579    7.465037257   956.3743   6   6   0.0579   0.0894   0.0680  -0.0496   0.0455  -0.0429   0.00    0.0
