% program   : RTKPOST ver.demo5 b34d
% inp file  : C:\Users\tevin\Desktop\GNSS - MASTA\SPRING SEM\4.SAT NAV DATA PROCESSING\TEAM PROJECT\SNDP-PROJECT\DATA(Tevin USE)\obs\RNXDATA\WUH200CHN_R_20260150000_01D_30S_MO.obs
% inp file  : C:\Users\tevin\Desktop\GNSS - MASTA\SPRING SEM\4.SAT NAV DATA PROCESSING\TEAM PROJECT\SNDP-PROJECT\DATA(Tevin USE)\nav\BRDC00IGS_R_20260150000_01D_MN.nav
% inp file  : C:\Users\tevin\Desktop\GNSS - MASTA\SPRING SEM\4.SAT NAV DATA PROCESSING\TEAM PROJECT\SNDP-PROJECT\DATA(Tevin USE)\DATA_FINAL_ANT_EXTRA\COD0MGXFIN_20260150000_01D_30S_CLK.CLK
% inp file  : C:\Users\tevin\Desktop\GNSS - MASTA\SPRING SEM\4.SAT NAV DATA PROCESSING\TEAM PROJECT\SNDP-PROJECT\DATA(Tevin USE)\DATA_FINAL_ANT_EXTRA\COD0MGXFIN_20260150000_01D_05M_ORB.SP3
% obs start : 2026/01/15 00:00:00.0 GPST (week2401 345600.0s)
% obs end   : 2026/01/15 23:59:30.0 GPST (week2401 431970.0s)
% pos mode  : PPP Static
% solution  : Forward
% elev mask : 15.0 deg
% dynamics  : on
% tidecorr  : off
% tropo opt : Saastamoinen
% ephemeris : Precise
% navi sys  : GPS GLONASS Galileo QZSS BDS NavIC SBAS
% antenna1  :                       ( 0.0000  0.0000  0.0000)
%
% (lat/lon/height=WGS84/ellipsoidal,Q=1:fix,2:float,3:sbas,4:dgps,5:single,6:ppp,ns=# of satellites)
%  GPST                  latitude(deg) longitude(deg)  height(m)   Q  ns   sdn(m)   sde(m)   sdu(m)  sdne(m)  sdeu(m)  sdun(m) age(s)  ratio
2026/01/15 00:00:00.000   30.531694707  114.357241779    24.7627   6  27   0.9065   0.9741   2.7154  -0.0906   0.3962  -0.6876   0.00    0.0
2026/01/15 00:00:30.000   30.531695731  114.357241494    24.7305   6  27   0.6416   0.6897   1.9240  -0.0618   0.2811  -0.4838   0.00    0.0
2026/01/15 00:01:00.000   30.531695882  114.357241751    24.8520   6  27   0.5242   0.5637   1.5725  -0.0485   0.2308  -0.3929   0.00    0.0
2026/01/15 00:01:30.000   30.531695708  114.357241871    24.7945   6  27   0.4542   0.4886   1.3629  -0.0401   0.2012  -0.3385   0.00    0.0
2026/01/15 00:02:00.000   30.531695998  114.357242431    24.8241   6  27   0.4066   0.4376   1.2200  -0.0327   0.1806  -0.3015   0.00    0.0
2026/01/15 00:02:30.000   30.531696024  114.357242863    24.7382   6  27   0.3714   0.4000   1.1146  -0.0271   0.1657  -0.2741   0.00    0.0
2026/01/15 00:03:00.000   30.531696285  114.357243292    24.6734   6  27   0.3441   0.3707   1.0326  -0.0223   0.1541  -0.2526   0.00    0.0
2026/01/15 00:03:30.000   30.531696477  114.357243669    24.6413   6  27   0.3220   0.3471   0.9664  -0.0180   0.1448  -0.2351   0.00    0.0
2026/01/15 00:04:00.000   30.531696743  114.357243993    24.6204   6  27   0.3037   0.3275   0.9116  -0.0139   0.1372  -0.2205   0.00    0.0
2026/01/15 00:04:30.000   30.531696765  114.357244166    24.6246   6  27   0.2881   0.3109   0.8652  -0.0094   0.1308  -0.2081   0.00    0.0
2026/01/15 00:05:00.000   30.531696844  114.357244300    24.6332   6  27   0.2748   0.2967   0.8253  -0.0021   0.1253  -0.1974   0.00    0.0
2026/01/15 00:05:30.000   30.531696885  114.357244430    24.6654   6  28   0.2632   0.2841   0.7886   0.0063   0.1183  -0.1884   0.00    0.0
2026/01/15 00:06:00.000   30.531696980  114.357244550    24.6610   6  28   0.2529   0.2730   0.7555   0.0082   0.1113  -0.1806   0.00    0.0
2026/01/15 00:06:30.000   30.531697044  114.357244471    24.5774   6  28   0.2437   0.2631   0.7263   0.0098   0.1053  -0.1735   0.00    0.0
2026/01/15 00:07:00.000   30.531697131  114.357244540    24.5180   6  28   0.2355   0.2542   0.7003   0.0111   0.1001  -0.1672   0.00    0.0
2026/01/15 00:07:30.000   30.531697211  114.357244705    24.5158   6  28   0.2282   0.2462   0.6769   0.0120   0.0957  -0.1614   0.00    0.0
2026/01/15 00:08:00.000   30.531697197  114.357244812    24.4304   6  29   0.2214   0.2388   0.6545   0.0110   0.0900  -0.1568   0.00    0.0
2026/01/15 00:08:30.000   30.531697124  114.357244922    24.3522   6  29   0.2152   0.2321   0.6342   0.0103   0.0852  -0.1524   0.00    0.0
2026/01/15 00:09:00.000   30.531697095  114.357244978    24.2620   6  29   0.2094   0.2259   0.6157   0.0099   0.0809  -0.1484   0.00    0.0
2026/01/15 00:09:30.000   30.531697083  114.357245201    24.2144   6  30   0.2040   0.2199   0.5970   0.0135   0.0737  -0.1433   0.00    0.0
2026/01/15 00:10:00.000   30.531697084  114.357245286    24.1766   6  30   0.1990   0.2144   0.5799   0.0158   0.0671  -0.1387   0.00    0.0
2026/01/15 00:10:30.000   30.531697101  114.357245317    24.1017   6  29   0.1944   0.2095   0.5657   0.0154   0.0644  -0.1355   0.00    0.0
2026/01/15 00:11:00.000   30.531697154  114.357245411    24.0376   6  29   0.1901   0.2050   0.5525   0.0151   0.0620  -0.1325   0.00    0.0
2026/01/15 00:11:30.000   30.531697178  114.357245531    23.9738   6  29   0.1862   0.2007   0.5402   0.0148   0.0598  -0.1297   0.00    0.0
2026/01/15 00:12:00.000   30.531697237  114.357245653    23.8906   6  29   0.1824   0.1968   0.5287   0.0147   0.0578  -0.1270   0.00    0.0
2026/01/15 00:12:30.000   30.531697268  114.357245744    23.8620   6  29   0.1789   0.1930   0.5179   0.0146   0.0560  -0.1244   0.00    0.0
2026/01/15 00:13:00.000   30.531697235  114.357245839    23.8310   6  30   0.1756   0.1895   0.5073   0.0140   0.0535  -0.1223   0.00    0.0
2026/01/15 00:13:30.000   30.531697251  114.357245951    23.7822   6  30   0.1724   0.1861   0.4973   0.0135   0.0512  -0.1202   0.00    0.0
2026/01/15 00:14:00.000   30.531697249  114.357245985    23.7539   6  29   0.1694   0.1829   0.4882   0.0128   0.0487  -0.1181   0.00    0.0
2026/01/15 00:14:30.000   30.531697230  114.357245942    23.7177   6  29   0.1666   0.1800   0.4795   0.0121   0.0464  -0.1161   0.00    0.0
2026/01/15 00:15:00.000   30.531697258  114.357245931    23.6638   6  29   0.1638   0.1771   0.4712   0.0114   0.0442  -0.1142   0.00    0.0
2026/01/15 00:15:30.000   30.531697262  114.357246046    23.6418   6  30   0.1612   0.1743   0.4626   0.0124   0.0398  -0.1118   0.00    0.0
2026/01/15 00:16:00.000   30.531697238  114.357246133    23.6320   6  30   0.1586   0.1716   0.4544   0.0133   0.0354  -0.1094   0.00    0.0
2026/01/15 00:16:30.000   30.531697228  114.357246204    23.6192   6  30   0.1562   0.1690   0.4466   0.0140   0.0311  -0.1072   0.00    0.0
2026/01/15 00:17:00.000   30.531697235  114.357246290    23.6199   6  30   0.1539   0.1666   0.4394   0.0142   0.0277  -0.1053   0.00    0.0
2026/01/15 00:17:30.000   30.531697230  114.357246422    23.6126   6  30   0.1518   0.1643   0.4326   0.0145   0.0242  -0.1035   0.00    0.0
2026/01/15 00:18:00.000   30.531697214  114.357246597    23.6021   6  30   0.1496   0.1620   0.4259   0.0150   0.0195  -0.1016   0.00    0.0
2026/01/15 00:18:30.000   30.531697228  114.357246792    23.5932   6  30   0.1476   0.1599   0.4195   0.0154   0.0141  -0.0998   0.00    0.0
2026/01/15 00:19:00.000   30.531697229  114.357246971    23.5851   6  30   0.1456   0.1578   0.4134   0.0158   0.0062  -0.0981   0.00    0.0
2026/01/15 00:19:30.000   30.531697247  114.357247070    23.5599   6  29   0.1438   0.1559   0.4081   0.0154   0.0041  -0.0969   0.00    0.0
2026/01/15 00:20:00.000   30.531697272  114.357247252    23.5548   6  30   0.1420   0.1540   0.4024   0.0157  -0.0107  -0.0953   0.00    0.0
2026/01/15 00:20:30.000   30.531697300  114.357247392    23.5390   6  30   0.1402   0.1522   0.3970   0.0160  -0.0152  -0.0938   0.00    0.0
2026/01/15 00:21:00.000   30.531697303  114.357247484    23.5265   6  30   0.1385   0.1504   0.3918   0.0162  -0.0183  -0.0924   0.00    0.0
2026/01/15 00:21:30.000   30.531697302  114.357247578    23.5135   6  30   0.1369   0.1488   0.3868   0.0164  -0.0207  -0.0910   0.00    0.0
2026/01/15 00:22:00.000   30.531697283  114.357247673    23.4963   6  30   0.1354   0.1471   0.3820   0.0165  -0.0226  -0.0897   0.00    0.0
2026/01/15 00:22:30.000   30.531697255  114.357247806    23.4810   6  30   0.1338   0.1456   0.3774   0.0167  -0.0241  -0.0885   0.00    0.0
2026/01/15 00:23:00.000   30.531697246  114.357247908    23.4621   6  30   0.1324   0.1440   0.3729   0.0168  -0.0255  -0.0873   0.00    0.0
2026/01/15 00:23:30.000   30.531697279  114.357248032    23.4616   6  30   0.1309   0.1426   0.3686   0.0169  -0.0266  -0.0861   0.00    0.0
2026/01/15 00:24:00.000   30.531697312  114.357248150    23.4560   6  30   0.1296   0.1412   0.3644   0.0170  -0.0276  -0.0850   0.00    0.0
2026/01/15 00:24:30.000   30.531697336  114.357248256    23.4475   6  30   0.1282   0.1398   0.3604   0.0171  -0.0284  -0.0839   0.00    0.0
2026/01/15 00:25:00.000   30.531697336  114.357248399    23.4377   6  30   0.1269   0.1384   0.3565   0.0172  -0.0291  -0.0829   0.00    0.0
2026/01/15 00:25:30.000   30.531697348  114.357248552    23.4273   6  30   0.1257   0.1371   0.3527   0.0173  -0.0297  -0.0819   0.00    0.0
2026/01/15 00:26:00.000   30.531697317  114.357248721    23.4222   6  31   0.1244   0.1358   0.3487   0.0178  -0.0314  -0.0806   0.00    0.0
2026/01/15 00:26:30.000   30.531697315  114.357248880    23.4155   6  32   0.1231   0.1346   0.3447   0.0182  -0.0326  -0.0794   0.00    0.0
2026/01/15 00:27:00.000   30.531697298  114.357249045    23.4113   6  32   0.1219   0.1333   0.3409   0.0187  -0.0338  -0.0783   0.00    0.0
2026/01/15 00:27:30.000   30.531697291  114.357249216    23.3999   6  32   0.1207   0.1321   0.3372   0.0190  -0.0348  -0.0772   0.00    0.0
2026/01/15 00:28:00.000   30.531697275  114.357249429    23.4088   6  31   0.1196   0.1310   0.3337   0.0194  -0.0356  -0.0760   0.00    0.0
2026/01/15 00:28:30.000   30.531697299  114.357249649    23.4104   6  31   0.1185   0.1298   0.3303   0.0197  -0.0364  -0.0750   0.00    0.0
2026/01/15 00:29:00.000   30.531697295  114.357249855    23.4163   6  31   0.1174   0.1287   0.3270   0.0200  -0.0371  -0.0739   0.00    0.0
2026/01/15 00:29:30.000   30.531697285  114.357250064    23.4234   6  31   0.1163   0.1276   0.3238   0.0202  -0.0377  -0.0729   0.00    0.0
2026/01/15 00:30:00.000   30.531697285  114.357250252    23.4318   6  31   0.1153   0.1266   0.3207   0.0205  -0.0382  -0.0720   0.00    0.0
2026/01/15 00:30:30.000   30.531697297  114.357250414    23.4393   6  31   0.1143   0.1256   0.3177   0.0207  -0.0387  -0.0711   0.00    0.0
2026/01/15 00:31:00.000   30.531697286  114.357250593    23.4544   6  31   0.1133   0.1246   0.3148   0.0209  -0.0392  -0.0702   0.00    0.0
2026/01/15 00:31:30.000   30.531697272  114.357250747    23.4632   6  31   0.1124   0.1236   0.3119   0.0211  -0.0396  -0.0694   0.00    0.0
2026/01/15 00:32:00.000   30.531697266  114.357250952    23.4707   6  31   0.1114   0.1227   0.3092   0.0212  -0.0399  -0.0686   0.00    0.0
2026/01/15 00:32:30.000   30.531697251  114.357251146    23.4799   6  31   0.1105   0.1217   0.3065   0.0214  -0.0403  -0.0678   0.00    0.0
2026/01/15 00:33:00.000   30.531697252  114.357251322    23.4819   6  31   0.1096   0.1208   0.3038   0.0215  -0.0405  -0.0671   0.00    0.0
2026/01/15 00:33:30.000   30.531697252  114.357251505    23.4892   6  31   0.1088   0.1200   0.3013   0.0216  -0.0408  -0.0664   0.00    0.0
2026/01/15 00:34:00.000   30.531697245  114.357251673    23.4919   6  31   0.1079   0.1191   0.2988   0.0217  -0.0410  -0.0657   0.00    0.0
2026/01/15 00:34:30.000   30.531697253  114.357251840    23.5019   6  31   0.1071   0.1183   0.2963   0.0218  -0.0412  -0.0650   0.00    0.0
2026/01/15 00:35:00.000   30.531697257  114.357252000    23.5105   6  31   0.1063   0.1174   0.2939   0.0219  -0.0414  -0.0644   0.00    0.0
2026/01/15 00:35:30.000   30.531697247  114.357252180    23.5188   6  31   0.1055   0.1166   0.2916   0.0220  -0.0416  -0.0638   0.00    0.0
2026/01/15 00:36:00.000   30.531697239  114.357252351    23.5269   6  31   0.1047   0.1159   0.2893   0.0221  -0.0417  -0.0632   0.00    0.0
2026/01/15 00:36:30.000   30.531697255  114.357252523    23.5334   6  31   0.1039   0.1151   0.2871   0.0221  -0.0419  -0.0627   0.00    0.0
2026/01/15 00:37:00.000   30.531697252  114.357252691    23.5477   6  31   0.1032   0.1143   0.2850   0.0222  -0.0420  -0.0621   0.00    0.0
2026/01/15 00:37:30.000   30.531697243  114.357252854    23.5656   6  31   0.1024   0.1136   0.2829   0.0222  -0.0421  -0.0616   0.00    0.0
2026/01/15 00:38:00.000   30.531697245  114.357253013    23.5827   6  31   0.1017   0.1129   0.2808   0.0223  -0.0422  -0.0611   0.00    0.0
2026/01/15 00:38:30.000   30.531697231  114.357253162    23.5990   6  30   0.1010   0.1122   0.2788   0.0223  -0.0424  -0.0606   0.00    0.0
2026/01/15 00:39:00.000   30.531697208  114.357253348    23.6149   6  30   0.1003   0.1115   0.2769   0.0223  -0.0425  -0.0601   0.00    0.0
2026/01/15 00:39:30.000   30.531697180  114.357253498    23.6256   6  30   0.0996   0.1108   0.2750   0.0223  -0.0426  -0.0597   0.00    0.0
2026/01/15 00:40:00.000   30.531697171  114.357253645    23.6357   6  30   0.0990   0.1101   0.2732   0.0223  -0.0426  -0.0593   0.00    0.0
2026/01/15 00:40:30.000   30.531697164  114.357253800    23.6422   6  30   0.0983   0.1095   0.2714   0.0223  -0.0426  -0.0589   0.00    0.0
2026/01/15 00:41:00.000   30.531697170  114.357253970    23.6479   6  30   0.0977   0.1089   0.2696   0.0223  -0.0427  -0.0585   0.00    0.0
2026/01/15 00:41:30.000   30.531697180  114.357254143    23.6555   6  29   0.0971   0.1082   0.2680   0.0223  -0.0428  -0.0582   0.00    0.0
2026/01/15 00:42:00.000   30.531697173  114.357254280    23.6633   6  29   0.0965   0.1076   0.2664   0.0224  -0.0429  -0.0580   0.00    0.0
2026/01/15 00:42:30.000   30.531697187  114.357254429    23.6658   6  29   0.0959   0.1070   0.2649   0.0224  -0.0430  -0.0577   0.00    0.0
2026/01/15 00:43:00.000   30.531697200  114.357254583    23.6724   6  29   0.0953   0.1065   0.2633   0.0224  -0.0430  -0.0575   0.00    0.0
2026/01/15 00:43:30.000   30.531697195  114.357254726    23.6803   6  29   0.0947   0.1059   0.2618   0.0224  -0.0431  -0.0573   0.00    0.0
2026/01/15 00:44:00.000   30.531697198  114.357254877    23.6876   6  29   0.0941   0.1053   0.2603   0.0224  -0.0431  -0.0570   0.00    0.0
2026/01/15 00:44:30.000   30.531697204  114.357255017    23.6932   6  29   0.0936   0.1048   0.2589   0.0224  -0.0432  -0.0568   0.00    0.0
2026/01/15 00:45:00.000   30.531697210  114.357255153    23.7014   6  29   0.0930   0.1042   0.2574   0.0224  -0.0432  -0.0566   0.00    0.0
2026/01/15 00:45:30.000   30.531697196  114.357255300    23.7085   6  28   0.0925   0.1037   0.2560   0.0223  -0.0432  -0.0564   0.00    0.0
2026/01/15 00:46:00.000   30.531697157  114.357255438    23.7182   6  28   0.0920   0.1032   0.2546   0.0223  -0.0432  -0.0562   0.00    0.0
2026/01/15 00:46:30.000   30.531697134  114.357255599    23.7291   6  28   0.0915   0.1027   0.2533   0.0222  -0.0432  -0.0560   0.00    0.0
2026/01/15 00:47:00.000   30.531697112  114.357255751    23.7396   6  28   0.0910   0.1022   0.2519   0.0222  -0.0432  -0.0558   0.00    0.0
2026/01/15 00:47:30.000   30.531697091  114.357255881    23.7444   6  28   0.0905   0.1017   0.2506   0.0221  -0.0432  -0.0556   0.00    0.0
2026/01/15 00:48:00.000   30.531697077  114.357256012    23.7573   6  27   0.0901   0.1012   0.2494   0.0220  -0.0432  -0.0554   0.00    0.0
2026/01/15 00:48:30.000   30.531697063  114.357256127    23.7690   6  27   0.0896   0.1007   0.2481   0.0220  -0.0432  -0.0552   0.00    0.0
2026/01/15 00:49:00.000   30.531697035  114.357256253    23.7820   6  27   0.0891   0.1002   0.2469   0.0219  -0.0432  -0.0550   0.00    0.0
2026/01/15 00:49:30.000   30.531697020  114.357256396    23.7979   6  27   0.0887   0.0998   0.2457   0.0218  -0.0432  -0.0548   0.00    0.0
2026/01/15 00:50:00.000   30.531696999  114.357256528    23.8144   6  27   0.0882   0.0993   0.2445   0.0218  -0.0432  -0.0546   0.00    0.0
2026/01/15 00:50:30.000   30.531696981  114.357256658    23.8223   6  27   0.0878   0.0989   0.2433   0.0217  -0.0432  -0.0545   0.00    0.0
2026/01/15 00:51:00.000   30.531696972  114.357256781    23.8349   6  27   0.0873   0.0984   0.2422   0.0216  -0.0432  -0.0543   0.00    0.0
2026/01/15 00:51:30.000   30.531696961  114.357256908    23.8457   6  27   0.0869   0.0980   0.2411   0.0215  -0.0431  -0.0542   0.00    0.0
2026/01/15 00:52:00.000   30.531696949  114.357257034    23.8560   6  27   0.0865   0.0976   0.2399   0.0214  -0.0431  -0.0540   0.00    0.0
2026/01/15 00:52:30.000   30.531696945  114.357257167    23.8664   6  27   0.0861   0.0972   0.2388   0.0214  -0.0430  -0.0539   0.00    0.0
2026/01/15 00:53:00.000   30.531696938  114.357257296    23.8773   6  27   0.0857   0.0967   0.2377   0.0213  -0.0430  -0.0537   0.00    0.0
2026/01/15 00:53:30.000   30.531696937  114.357257405    23.8869   6  27   0.0852   0.0963   0.2367   0.0212  -0.0429  -0.0536   0.00    0.0
2026/01/15 00:54:00.000   30.531696924  114.357257534    23.8946   6  27   0.0848   0.0959   0.2356   0.0211  -0.0429  -0.0535   0.00    0.0
2026/01/15 00:54:30.000   30.531696908  114.357257660    23.9042   6  27   0.0844   0.0955   0.2346   0.0210  -0.0428  -0.0534   0.00    0.0
2026/01/15 00:55:00.000   30.531696895  114.357257780    23.9126   6  27   0.0841   0.0951   0.2335   0.0209  -0.0427  -0.0533   0.00    0.0
2026/01/15 00:55:30.000   30.531696882  114.357257898    23.9220   6  27   0.0837   0.0947   0.2325   0.0209  -0.0426  -0.0532   0.00    0.0
2026/01/15 00:56:00.000   30.531696859  114.357258026    23.9299   6  27   0.0833   0.0943   0.2315   0.0208  -0.0426  -0.0530   0.00    0.0
2026/01/15 00:56:30.000   30.531696846  114.357258157    23.9382   6  27   0.0829   0.0940   0.2305   0.0207  -0.0425  -0.0529   0.00    0.0
2026/01/15 00:57:00.000   30.531696842  114.357258273    23.9449   6  27   0.0826   0.0936   0.2295   0.0206  -0.0424  -0.0529   0.00    0.0
2026/01/15 00:57:30.000   30.531696830  114.357258392    23.9526   6  27   0.0822   0.0932   0.2286   0.0205  -0.0423  -0.0528   0.00    0.0
2026/01/15 00:58:00.000   30.531696830  114.357258520    23.9603   6  27   0.0818   0.0928   0.2276   0.0204  -0.0422  -0.0527   0.00    0.0
2026/01/15 00:58:30.000   30.531696834  114.357258637    23.9681   6  27   0.0815   0.0925   0.2267   0.0203  -0.0421  -0.0526   0.00    0.0
2026/01/15 00:59:00.000   30.531696836  114.357258760    23.9773   6  27   0.0811   0.0921   0.2257   0.0202  -0.0420  -0.0525   0.00    0.0
2026/01/15 00:59:30.000   30.531696834  114.357258887    23.9842   6  27   0.0808   0.0918   0.2248   0.0201  -0.0419  -0.0524   0.00    0.0
2026/01/15 01:00:00.000   30.531696829  114.357259002    23.9906   6  27   0.0805   0.0914   0.2239   0.0201  -0.0418  -0.0524   0.00    0.0
2026/01/15 01:00:30.000   30.531696826  114.357259104    23.9967   6  27   0.0801   0.0911   0.2230   0.0200  -0.0417  -0.0523   0.00    0.0
2026/01/15 01:01:00.000   30.531696813  114.357259203    24.0052   6  27   0.0798   0.0907   0.2221   0.0199  -0.0416  -0.0522   0.00    0.0
2026/01/15 01:01:30.000   30.531696816  114.357259319    24.0123   6  27   0.0795   0.0904   0.2212   0.0198  -0.0415  -0.0522   0.00    0.0
2026/01/15 01:02:00.000   30.531696819  114.357259430    24.0198   6  27   0.0791   0.0901   0.2204   0.0197  -0.0413  -0.0521   0.00    0.0
2026/01/15 01:02:30.000   30.531696807  114.357259533    24.0283   6  27   0.0788   0.0897   0.2195   0.0196  -0.0412  -0.0520   0.00    0.0
2026/01/15 01:03:00.000   30.531696770  114.357259669    24.0552   6  28   0.0785   0.0894   0.2186   0.0195  -0.0411  -0.0519   0.00    0.0
2026/01/15 01:03:30.000   30.531696759  114.357259771    24.0641   6  27   0.0782   0.0891   0.2178   0.0194  -0.0410  -0.0519   0.00    0.0
2026/01/15 01:04:00.000   30.531696744  114.357259875    24.0739   6  27   0.0779   0.0888   0.2170   0.0193  -0.0409  -0.0518   0.00    0.0
2026/01/15 01:04:30.000   30.531696736  114.357259978    24.0845   6  27   0.0776   0.0885   0.2161   0.0192  -0.0408  -0.0518   0.00    0.0
2026/01/15 01:05:00.000   30.531696726  114.357260075    24.0930   6  27   0.0773   0.0881   0.2153   0.0191  -0.0406  -0.0517   0.00    0.0
2026/01/15 01:05:30.000   30.531696710  114.357260179    24.1025   6  27   0.0770   0.0878   0.2145   0.0190  -0.0405  -0.0517   0.00    0.0
2026/01/15 01:06:00.000   30.531696701  114.357260269    24.1106   6  27   0.0767   0.0875   0.2138   0.0189  -0.0404  -0.0516   0.00    0.0
2026/01/15 01:06:30.000   30.531696695  114.357260366    24.1198   6  27   0.0764   0.0872   0.2130   0.0188  -0.0403  -0.0516   0.00    0.0
2026/01/15 01:07:00.000   30.531696681  114.357260457    24.1286   6  27   0.0761   0.0869   0.2122   0.0187  -0.0401  -0.0516   0.00    0.0
2026/01/15 01:07:30.000   30.531696661  114.357260547    24.1356   6  27   0.0759   0.0866   0.2114   0.0186  -0.0400  -0.0515   0.00    0.0
2026/01/15 01:08:00.000   30.531696644  114.357260632    24.1438   6  27   0.0756   0.0863   0.2107   0.0185  -0.0399  -0.0515   0.00    0.0
2026/01/15 01:08:30.000   30.531696632  114.357260715    24.1504   6  27   0.0753   0.0861   0.2099   0.0184  -0.0397  -0.0514   0.00    0.0
2026/01/15 01:09:00.000   30.531696618  114.357260802    24.1592   6  27   0.0750   0.0858   0.2092   0.0183  -0.0396  -0.0514   0.00    0.0
2026/01/15 01:09:30.000   30.531696604  114.357260894    24.1689   6  27   0.0748   0.0855   0.2085   0.0182  -0.0394  -0.0514   0.00    0.0
2026/01/15 01:10:00.000   30.531696583  114.357260985    24.1779   6  27   0.0745   0.0852   0.2078   0.0181  -0.0393  -0.0513   0.00    0.0
2026/01/15 01:10:30.000   30.531696567  114.357261069    24.1888   6  28   0.0743   0.0849   0.2070   0.0181  -0.0392  -0.0513   0.00    0.0
2026/01/15 01:11:00.000   30.531696455  114.357261139    24.2128   6  29   0.0740   0.0847   0.2062   0.0180  -0.0391  -0.0511   0.00    0.0
2026/01/15 01:11:30.000   30.531696351  114.357261209    24.2339   6  29   0.0737   0.0844   0.2055   0.0179  -0.0389  -0.0510   0.00    0.0
2026/01/15 01:12:00.000   30.531696329  114.357261287    24.2430   6  28   0.0734   0.0841   0.2047   0.0178  -0.0388  -0.0509   0.00    0.0
2026/01/15 01:12:30.000   30.531696314  114.357261365    24.2528   6  28   0.0732   0.0838   0.2040   0.0177  -0.0387  -0.0508   0.00    0.0
2026/01/15 01:13:00.000   30.531696202  114.357261444    24.2788   6  29   0.0729   0.0836   0.2033   0.0176  -0.0386  -0.0507   0.00    0.0
2026/01/15 01:13:30.000   30.531696195  114.357261527    24.2845   6  28   0.0726   0.0833   0.2026   0.0175  -0.0385  -0.0507   0.00    0.0
2026/01/15 01:14:00.000   30.531696179  114.357261615    24.2923   6  28   0.0724   0.0831   0.2019   0.0174  -0.0383  -0.0506   0.00    0.0
2026/01/15 01:14:30.000   30.531696078  114.357261675    24.3115   6  29   0.0721   0.0828   0.2012   0.0173  -0.0382  -0.0505   0.00    0.0
2026/01/15 01:15:00.000   30.531695978  114.357261731    24.3308   6  29   0.0719   0.0825   0.2005   0.0172  -0.0381  -0.0504   0.00    0.0
2026/01/15 01:15:30.000   30.531695871  114.357261798    24.3535   6  29   0.0716   0.0823   0.1998   0.0171  -0.0379  -0.0503   0.00    0.0
2026/01/15 01:16:00.000   30.531695768  114.357261876    24.3760   6  29   0.0713   0.0820   0.1991   0.0170  -0.0378  -0.0501   0.00    0.0
2026/01/15 01:16:30.000   30.531695677  114.357261945    24.3951   6  29   0.0711   0.0818   0.1984   0.0169  -0.0377  -0.0500   0.00    0.0
2026/01/15 01:17:00.000   30.531695583  114.357262020    24.4125   6  29   0.0708   0.0815   0.1978   0.0168  -0.0375  -0.0500   0.00    0.0
2026/01/15 01:17:30.000   30.531695483  114.357262093    24.4319   6  29   0.0706   0.0813   0.1972   0.0167  -0.0373  -0.0499   0.00    0.0
2026/01/15 01:18:00.000   30.531695389  114.357262169    24.4508   6  29   0.0703   0.0811   0.1965   0.0166  -0.0371  -0.0499   0.00    0.0
2026/01/15 01:18:30.000   30.531695300  114.357262237    24.4696   6  29   0.0701   0.0808   0.1959   0.0165  -0.0370  -0.0498   0.00    0.0
2026/01/15 01:19:00.000   30.531695215  114.357262300    24.4879   6  29   0.0699   0.0806   0.1953   0.0163  -0.0368  -0.0497   0.00    0.0
2026/01/15 01:19:30.000   30.531695120  114.357262369    24.5037   6  29   0.0696   0.0803   0.1947   0.0162  -0.0366  -0.0497   0.00    0.0
2026/01/15 01:20:00.000   30.531695032  114.357262434    24.5219   6  29   0.0694   0.0801   0.1941   0.0161  -0.0364  -0.0496   0.00    0.0
2026/01/15 01:20:30.000   30.531694940  114.357262496    24.5401   6  29   0.0692   0.0799   0.1935   0.0160  -0.0362  -0.0496   0.00    0.0
2026/01/15 01:21:00.000   30.531694856  114.357262569    24.5576   6  29   0.0690   0.0796   0.1929   0.0159  -0.0361  -0.0495   0.00    0.0
2026/01/15 01:21:30.000   30.531694763  114.357262632    24.5737   6  29   0.0687   0.0794   0.1923   0.0158  -0.0359  -0.0495   0.00    0.0
2026/01/15 01:22:00.000   30.531694676  114.357262696    24.5905   6  29   0.0685   0.0792   0.1917   0.0156  -0.0357  -0.0494   0.00    0.0
2026/01/15 01:22:30.000   30.531694595  114.357262754    24.6075   6  29   0.0683   0.0790   0.1912   0.0155  -0.0355  -0.0494   0.00    0.0
2026/01/15 01:23:00.000   30.531694515  114.357262815    24.6228   6  29   0.0681   0.0787   0.1906   0.0154  -0.0354  -0.0494   0.00    0.0
2026/01/15 01:23:30.000   30.531694434  114.357262877    24.6384   6  29   0.0679   0.0785   0.1900   0.0153  -0.0352  -0.0493   0.00    0.0
2026/01/15 01:24:00.000   30.531694355  114.357262925    24.6538   6  29   0.0677   0.0783   0.1895   0.0152  -0.0350  -0.0493   0.00    0.0
2026/01/15 01:24:30.000   30.531694278  114.357262971    24.6697   6  30   0.0675   0.0781   0.1889   0.0151  -0.0348  -0.0492   0.00    0.0
2026/01/15 01:25:00.000   30.531694193  114.357263030    24.6885   6  30   0.0673   0.0779   0.1883   0.0150  -0.0347  -0.0491   0.00    0.0
2026/01/15 01:25:30.000   30.531694113  114.357263089    24.7043   6  30   0.0671   0.0777   0.1878   0.0149  -0.0345  -0.0491   0.00    0.0
2026/01/15 01:26:00.000   30.531694037  114.357263133    24.7203   6  30   0.0669   0.0774   0.1872   0.0148  -0.0344  -0.0490   0.00    0.0
2026/01/15 01:26:30.000   30.531693964  114.357263173    24.7332   6  30   0.0667   0.0772   0.1867   0.0147  -0.0342  -0.0489   0.00    0.0
2026/01/15 01:27:00.000   30.531693890  114.357263224    24.7482   6  29   0.0665   0.0770   0.1861   0.0146  -0.0341  -0.0489   0.00    0.0
2026/01/15 01:27:30.000   30.531693885  114.357263292    24.7563   6  28   0.0663   0.0768   0.1856   0.0145  -0.0339  -0.0489   0.00    0.0
2026/01/15 01:28:00.000   30.531693818  114.357263339    24.7707   6  29   0.0661   0.0766   0.1851   0.0144  -0.0337  -0.0489   0.00    0.0
2026/01/15 01:28:30.000   30.531693743  114.357263386    24.7857   6  29   0.0659   0.0764   0.1846   0.0143  -0.0335  -0.0488   0.00    0.0
2026/01/15 01:29:00.000   30.531693663  114.357263441    24.7989   6  29   0.0658   0.0762   0.1841   0.0142  -0.0334  -0.0488   0.00    0.0
2026/01/15 01:29:30.000   30.531693588  114.357263488    24.8134   6  29   0.0656   0.0760   0.1836   0.0140  -0.0332  -0.0488   0.00    0.0
2026/01/15 01:30:00.000   30.531693514  114.357263540    24.8280   6  29   0.0654   0.0758   0.1831   0.0139  -0.0330  -0.0487   0.00    0.0
2026/01/15 01:30:30.000   30.531693441  114.357263588    24.8432   6  29   0.0652   0.0756   0.1826   0.0138  -0.0328  -0.0487   0.00    0.0
2026/01/15 01:31:00.000   30.531693367  114.357263627    24.8587   6  29   0.0650   0.0754   0.1822   0.0137  -0.0326  -0.0487   0.00    0.0
2026/01/15 01:31:30.000   30.531693295  114.357263672    24.8743   6  29   0.0649   0.0752   0.1817   0.0136  -0.0325  -0.0487   0.00    0.0
2026/01/15 01:32:00.000   30.531693229  114.357263721    24.8885   6  29   0.0647   0.0751   0.1812   0.0135  -0.0323  -0.0486   0.00    0.0
2026/01/15 01:32:30.000   30.531693156  114.357263769    24.9015   6  29   0.0645   0.0749   0.1807   0.0134  -0.0321  -0.0486   0.00    0.0
2026/01/15 01:33:00.000   30.531693089  114.357263814    24.9131   6  29   0.0644   0.0747   0.1803   0.0133  -0.0320  -0.0486   0.00    0.0
2026/01/15 01:33:30.000   30.531693048  114.357263857    24.9324   6  30   0.0642   0.0745   0.1798   0.0132  -0.0318  -0.0486   0.00    0.0
2026/01/15 01:34:00.000   30.531693006  114.357263902    24.9510   6  30   0.0640   0.0743   0.1793   0.0131  -0.0316  -0.0485   0.00    0.0
2026/01/15 01:34:30.000   30.531692963  114.357263941    24.9692   6  30   0.0639   0.0741   0.1789   0.0129  -0.0314  -0.0485   0.00    0.0
2026/01/15 01:35:00.000   30.531692920  114.357263981    24.9862   6  30   0.0637   0.0739   0.1784   0.0128  -0.0312  -0.0485   0.00    0.0
2026/01/15 01:35:30.000   30.531692877  114.357264022    25.0042   6  30   0.0636   0.0738   0.1780   0.0127  -0.0311  -0.0485   0.00    0.0
2026/01/15 01:36:00.000   30.531692826  114.357264063    25.0208   6  31   0.0634   0.0736   0.1775   0.0126  -0.0309  -0.0485   0.00    0.0
2026/01/15 01:36:30.000   30.531692781  114.357264096    25.0368   6  31   0.0632   0.0734   0.1771   0.0125  -0.0307  -0.0485   0.00    0.0
2026/01/15 01:37:00.000   30.531692733  114.357264128    25.0516   6  32   0.0631   0.0732   0.1766   0.0124  -0.0305  -0.0484   0.00    0.0
2026/01/15 01:37:30.000   30.531692689  114.357264163    25.0651   6  32   0.0629   0.0731   0.1761   0.0123  -0.0304  -0.0484   0.00    0.0
2026/01/15 01:38:00.000   30.531692642  114.357264195    25.0800   6  32   0.0628   0.0729   0.1757   0.0123  -0.0302  -0.0484   0.00    0.0
2026/01/15 01:38:30.000   30.531692594  114.357264229    25.0953   6  32   0.0626   0.0727   0.1752   0.0122  -0.0301  -0.0483   0.00    0.0
2026/01/15 01:39:00.000   30.531692550  114.357264263    25.1111   6  32   0.0625   0.0725   0.1748   0.0121  -0.0299  -0.0483   0.00    0.0
2026/01/15 01:39:30.000   30.531692509  114.357264293    25.1240   6  32   0.0623   0.0724   0.1743   0.0120  -0.0298  -0.0483   0.00    0.0
2026/01/15 01:40:00.000   30.531692478  114.357264318    25.1354   6  32   0.0622   0.0722   0.1739   0.0120  -0.0297  -0.0482   0.00    0.0
2026/01/15 01:40:30.000   30.531692443  114.357264337    25.1478   6  32   0.0620   0.0720   0.1734   0.0119  -0.0296  -0.0482   0.00    0.0
2026/01/15 01:41:00.000   30.531692404  114.357264359    25.1601   6  32   0.0619   0.0718   0.1730   0.0118  -0.0295  -0.0481   0.00    0.0
2026/01/15 01:41:30.000   30.531692362  114.357264376    25.1718   6  32   0.0617   0.0717   0.1725   0.0118  -0.0294  -0.0481   0.00    0.0
2026/01/15 01:42:00.000   30.531692323  114.357264392    25.1836   6  32   0.0616   0.0715   0.1721   0.0117  -0.0293  -0.0480   0.00    0.0
2026/01/15 01:42:30.000   30.531692279  114.357264420    25.1958   6  32   0.0614   0.0713   0.1717   0.0117  -0.0292  -0.0480   0.00    0.0
2026/01/15 01:43:00.000   30.531692238  114.357264438    25.2073   6  32   0.0613   0.0712   0.1713   0.0116  -0.0291  -0.0480   0.00    0.0
2026/01/15 01:43:30.000   30.531692196  114.357264460    25.2183   6  32   0.0612   0.0710   0.1708   0.0115  -0.0290  -0.0479   0.00    0.0
2026/01/15 01:44:00.000   30.531692148  114.357264477    25.2306   6  32   0.0610   0.0709   0.1704   0.0115  -0.0289  -0.0479   0.00    0.0
2026/01/15 01:44:30.000   30.531692107  114.357264493    25.2400   6  33   0.0609   0.0707   0.1700   0.0114  -0.0289  -0.0478   0.00    0.0
2026/01/15 01:45:00.000   30.531692067  114.357264511    25.2486   6  33   0.0607   0.0705   0.1695   0.0114  -0.0288  -0.0477   0.00    0.0
2026/01/15 01:45:30.000   30.531692028  114.357264529    25.2584   6  33   0.0606   0.0704   0.1691   0.0114  -0.0287  -0.0477   0.00    0.0
2026/01/15 01:46:00.000   30.531691990  114.357264548    25.2668   6  33   0.0605   0.0702   0.1686   0.0113  -0.0287  -0.0476   0.00    0.0
2026/01/15 01:46:30.000   30.531691951  114.357264576    25.2745   6  33   0.0603   0.0701   0.1682   0.0113  -0.0286  -0.0476   0.00    0.0
2026/01/15 01:47:00.000   30.531691913  114.357264590    25.2839   6  33   0.0602   0.0699   0.1678   0.0113  -0.0285  -0.0475   0.00    0.0
2026/01/15 01:47:30.000   30.531691878  114.357264614    25.2941   6  33   0.0601   0.0697   0.1673   0.0112  -0.0285  -0.0474   0.00    0.0
2026/01/15 01:48:00.000   30.531691839  114.357264630    25.3031   6  33   0.0599   0.0696   0.1669   0.0112  -0.0284  -0.0474   0.00    0.0
2026/01/15 01:48:30.000   30.531691797  114.357264638    25.3138   6  32   0.0598   0.0694   0.1665   0.0111  -0.0283  -0.0473   0.00    0.0
2026/01/15 01:49:00.000   30.531691752  114.357264646    25.3262   6  32   0.0597   0.0693   0.1661   0.0111  -0.0283  -0.0473   0.00    0.0
2026/01/15 01:49:30.000   30.531691708  114.357264654    25.3381   6  32   0.0596   0.0691   0.1657   0.0111  -0.0282  -0.0472   0.00    0.0
2026/01/15 01:50:00.000   30.531691663  114.357264661    25.3498   6  32   0.0594   0.0690   0.1653   0.0110  -0.0281  -0.0472   0.00    0.0
2026/01/15 01:50:30.000   30.531691625  114.357264663    25.3606   6  32   0.0593   0.0688   0.1650   0.0110  -0.0281  -0.0471   0.00    0.0
2026/01/15 01:51:00.000   30.531691582  114.357264675    25.3738   6  32   0.0592   0.0687   0.1646   0.0110  -0.0280  -0.0471   0.00    0.0
2026/01/15 01:51:30.000   30.531691544  114.357264688    25.3869   6  32   0.0591   0.0685   0.1642   0.0109  -0.0279  -0.0470   0.00    0.0
2026/01/15 01:52:00.000   30.531691503  114.357264693    25.4000   6  32   0.0590   0.0684   0.1638   0.0109  -0.0279  -0.0470   0.00    0.0
2026/01/15 01:52:30.000   30.531691459  114.357264711    25.4128   6  32   0.0589   0.0682   0.1634   0.0109  -0.0278  -0.0469   0.00    0.0
2026/01/15 01:53:00.000   30.531691414  114.357264723    25.4259   6  32   0.0587   0.0681   0.1631   0.0108  -0.0277  -0.0469   0.00    0.0
2026/01/15 01:53:30.000   30.531691373  114.357264732    25.4378   6  31   0.0586   0.0680   0.1627   0.0108  -0.0277  -0.0468   0.00    0.0
2026/01/15 01:54:00.000   30.531691331  114.357264741    25.4501   6  31   0.0585   0.0678   0.1623   0.0108  -0.0276  -0.0467   0.00    0.0
2026/01/15 01:54:30.000   30.531691288  114.357264750    25.4628   6  31   0.0584   0.0677   0.1620   0.0107  -0.0275  -0.0467   0.00    0.0
2026/01/15 01:55:00.000   30.531691245  114.357264767    25.4754   6  32   0.0583   0.0675   0.1616   0.0107  -0.0274  -0.0466   0.00    0.0
2026/01/15 01:55:30.000   30.531691203  114.357264781    25.4872   6  32   0.0582   0.0674   0.1612   0.0107  -0.0273  -0.0466   0.00    0.0
2026/01/15 01:56:00.000   30.531691161  114.357264795    25.4997   6  32   0.0581   0.0673   0.1609   0.0106  -0.0273  -0.0465   0.00    0.0
2026/01/15 01:56:30.000   30.531691119  114.357264805    25.5124   6  32   0.0580   0.0671   0.1605   0.0106  -0.0272  -0.0465   0.00    0.0
2026/01/15 01:57:00.000   30.531691073  114.357264818    25.5242   6  32   0.0579   0.0670   0.1602   0.0106  -0.0271  -0.0464   0.00    0.0
2026/01/15 01:57:30.000   30.531691034  114.357264825    25.5369   6  32   0.0577   0.0669   0.1598   0.0106  -0.0270  -0.0464   0.00    0.0
2026/01/15 01:58:00.000   30.531690992  114.357264832    25.5496   6  32   0.0576   0.0667   0.1595   0.0105  -0.0269  -0.0463   0.00    0.0
2026/01/15 01:58:30.000   30.531690951  114.357264841    25.5620   6  32   0.0575   0.0666   0.1591   0.0105  -0.0268  -0.0463   0.00    0.0
2026/01/15 01:59:00.000   30.531690908  114.357264845    25.5748   6  32   0.0574   0.0664   0.1588   0.0105  -0.0267  -0.0462   0.00    0.0
2026/01/15 01:59:30.000   30.531690868  114.357264856    25.5867   6  32   0.0573   0.0663   0.1584   0.0104  -0.0267  -0.0462   0.00    0.0
2026/01/15 02:00:00.000   30.531690827  114.357264860    25.5993   6  32   0.0572   0.0662   0.1581   0.0104  -0.0266  -0.0461   0.00    0.0
2026/01/15 02:00:30.000   30.531690786  114.357264864    25.6127   6  32   0.0571   0.0661   0.1578   0.0104  -0.0265  -0.0461   0.00    0.0
2026/01/15 02:01:00.000   30.531690738  114.357264865    25.6229   6  32   0.0570   0.0659   0.1575   0.0103  -0.0264  -0.0460   0.00    0.0
2026/01/15 02:01:30.000   30.531690691  114.357264868    25.6325   6  32   0.0569   0.0658   0.1571   0.0103  -0.0263  -0.0459   0.00    0.0
2026/01/15 02:02:00.000   30.531690640  114.357264878    25.6427   6  32   0.0568   0.0657   0.1568   0.0103  -0.0262  -0.0459   0.00    0.0
2026/01/15 02:02:30.000   30.531690593  114.357264882    25.6524   6  32   0.0567   0.0655   0.1565   0.0103  -0.0261  -0.0458   0.00    0.0
2026/01/15 02:03:00.000   30.531690544  114.357264882    25.6627   6  32   0.0567   0.0654   0.1562   0.0102  -0.0260  -0.0457   0.00    0.0
2026/01/15 02:03:30.000   30.531690519  114.357264896    25.6735   6  31   0.0566   0.0653   0.1559   0.0102  -0.0259  -0.0457   0.00    0.0
2026/01/15 02:04:00.000   30.531690491  114.357264904    25.6844   6  31   0.0565   0.0652   0.1556   0.0102  -0.0258  -0.0456   0.00    0.0
2026/01/15 02:04:30.000   30.531690443  114.357264910    25.6934   6  32   0.0564   0.0650   0.1553   0.0102  -0.0257  -0.0455   0.00    0.0
2026/01/15 02:05:00.000   30.531690414  114.357264920    25.7044   6  31   0.0563   0.0649   0.1550   0.0101  -0.0256  -0.0455   0.00    0.0
2026/01/15 02:05:30.000   30.531690392  114.357264926    25.7162   6  30   0.0562   0.0648   0.1547   0.0101  -0.0255  -0.0454   0.00    0.0
2026/01/15 02:06:00.000   30.531690362  114.357264937    25.7267   6  31   0.0561   0.0647   0.1544   0.0101  -0.0254  -0.0453   0.00    0.0
2026/01/15 02:06:30.000   30.531690332  114.357264942    25.7378   6  31   0.0560   0.0646   0.1541   0.0101  -0.0253  -0.0452   0.00    0.0
2026/01/15 02:07:00.000   30.531690281  114.357264945    25.7476   6  30   0.0560   0.0644   0.1538   0.0100  -0.0252  -0.0452   0.00    0.0
2026/01/15 02:07:30.000   30.531690231  114.357264948    25.7576   6  30   0.0559   0.0643   0.1535   0.0100  -0.0251  -0.0451   0.00    0.0
2026/01/15 02:08:00.000   30.531690180  114.357264955    25.7666   6  31   0.0558   0.0642   0.1532   0.0100  -0.0250  -0.0450   0.00    0.0
2026/01/15 02:08:30.000   30.531690132  114.357264962    25.7770   6  31   0.0557   0.0641   0.1529   0.0100  -0.0249  -0.0450   0.00    0.0
2026/01/15 02:09:00.000   30.531690087  114.357264965    25.7885   6  29   0.0556   0.0640   0.1526   0.0099  -0.0248  -0.0449   0.00    0.0
2026/01/15 02:09:30.000   30.531690045  114.357264967    25.8007   6  29   0.0555   0.0639   0.1524   0.0099  -0.0247  -0.0448   0.00    0.0
2026/01/15 02:10:00.000   30.531690000  114.357264972    25.8127   6  30   0.0554   0.0638   0.1521   0.0099  -0.0246  -0.0448   0.00    0.0
2026/01/15 02:10:30.000   30.531689953  114.357264979    25.8245   6  30   0.0554   0.0636   0.1518   0.0098  -0.0245  -0.0447   0.00    0.0
2026/01/15 02:11:00.000   30.531689910  114.357264988    25.8368   6  29   0.0553   0.0635   0.1515   0.0098  -0.0244  -0.0446   0.00    0.0
2026/01/15 02:11:30.000   30.531689883  114.357264997    25.8510   6  28   0.0552   0.0634   0.1513   0.0098  -0.0243  -0.0445   0.00    0.0
2026/01/15 02:12:00.000   30.531689852  114.357265001    25.8644   6  29   0.0551   0.0633   0.1510   0.0097  -0.0242  -0.0445   0.00    0.0
2026/01/15 02:12:30.000   30.531689812  114.357265005    25.8766   6  29   0.0550   0.0632   0.1507   0.0097  -0.0241  -0.0444   0.00    0.0
2026/01/15 02:13:00.000   30.531689787  114.357265012    25.8905   6  28   0.0550   0.0631   0.1505   0.0097  -0.0240  -0.0443   0.00    0.0
2026/01/15 02:13:30.000   30.531689758  114.357265019    25.9033   6  29   0.0549   0.0630   0.1502   0.0097  -0.0239  -0.0443   0.00    0.0
2026/01/15 02:14:00.000   30.531689731  114.357265028    25.9173   6  28   0.0548   0.0629   0.1499   0.0096  -0.0238  -0.0442   0.00    0.0
2026/01/15 02:14:30.000   30.531689704  114.357265038    25.9312   6  28   0.0547   0.0628   0.1497   0.0096  -0.0237  -0.0441   0.00    0.0
2026/01/15 02:15:00.000   30.531689679  114.357265044    25.9455   6  28   0.0547   0.0627   0.1494   0.0096  -0.0236  -0.0440   0.00    0.0
2026/01/15 02:15:30.000   30.531689651  114.357265051    25.9601   6  28   0.0546   0.0625   0.1492   0.0096  -0.0235  -0.0439   0.00    0.0
2026/01/15 02:16:00.000   30.531689624  114.357265059    25.9740   6  28   0.0545   0.0624   0.1489   0.0095  -0.0234  -0.0439   0.00    0.0
2026/01/15 02:16:30.000   30.531689595  114.357265066    25.9881   6  28   0.0544   0.0623   0.1487   0.0095  -0.0233  -0.0438   0.00    0.0
2026/01/15 02:17:00.000   30.531689569  114.357265070    26.0027   6  28   0.0544   0.0622   0.1484   0.0095  -0.0232  -0.0437   0.00    0.0
2026/01/15 02:17:30.000   30.531689543  114.357265085    26.0169   6  28   0.0543   0.0621   0.1482   0.0095  -0.0231  -0.0436   0.00    0.0
2026/01/15 02:18:00.000   30.531689520  114.357265098    26.0288   6  28   0.0542   0.0620   0.1479   0.0094  -0.0230  -0.0436   0.00    0.0
2026/01/15 02:18:30.000   30.531689493  114.357265104    26.0414   6  28   0.0541   0.0619   0.1477   0.0094  -0.0229  -0.0435   0.00    0.0
2026/01/15 02:19:00.000   30.531689467  114.357265117    26.0534   6  28   0.0541   0.0618   0.1474   0.0094  -0.0228  -0.0434   0.00    0.0
2026/01/15 02:19:30.000   30.531689440  114.357265127    26.0665   6  28   0.0540   0.0617   0.1472   0.0094  -0.0227  -0.0434   0.00    0.0
2026/01/15 02:20:00.000   30.531689413  114.357265141    26.0793   6  28   0.0539   0.0616   0.1470   0.0094  -0.0225  -0.0433   0.00    0.0
2026/01/15 02:20:30.000   30.531689386  114.357265157    26.0917   6  28   0.0538   0.0615   0.1468   0.0093  -0.0224  -0.0432   0.00    0.0
2026/01/15 02:21:00.000   30.531689360  114.357265170    26.1046   6  28   0.0538   0.0614   0.1465   0.0093  -0.0223  -0.0432   0.00    0.0
2026/01/15 02:21:30.000   30.531689333  114.357265180    26.1172   6  28   0.0537   0.0613   0.1463   0.0093  -0.0222  -0.0431   0.00    0.0
2026/01/15 02:22:00.000   30.531689308  114.357265193    26.1296   6  28   0.0536   0.0612   0.1461   0.0093  -0.0221  -0.0430   0.00    0.0
2026/01/15 02:22:30.000   30.531689283  114.357265203    26.1421   6  28   0.0536   0.0611   0.1459   0.0093  -0.0220  -0.0429   0.00    0.0
2026/01/15 02:23:00.000   30.531689257  114.357265215    26.1552   6  28   0.0535   0.0610   0.1456   0.0092  -0.0219  -0.0429   0.00    0.0
2026/01/15 02:23:30.000   30.531689231  114.357265225    26.1686   6  28   0.0534   0.0609   0.1454   0.0092  -0.0218  -0.0428   0.00    0.0
2026/01/15 02:24:00.000   30.531689203  114.357265231    26.1825   6  28   0.0534   0.0608   0.1452   0.0092  -0.0217  -0.0427   0.00    0.0
2026/01/15 02:24:30.000   30.531689176  114.357265240    26.1958   6  28   0.0533   0.0607   0.1450   0.0092  -0.0215  -0.0427   0.00    0.0
2026/01/15 02:25:00.000   30.531689149  114.357265249    26.2089   6  28   0.0532   0.0606   0.1448   0.0091  -0.0214  -0.0426   0.00    0.0
2026/01/15 02:25:30.000   30.531689124  114.357265259    26.2224   6  27   0.0531   0.0606   0.1445   0.0091  -0.0213  -0.0425   0.00    0.0
2026/01/15 02:26:00.000   30.531689100  114.357265273    26.2355   6  27   0.0531   0.0605   0.1443   0.0091  -0.0212  -0.0425   0.00    0.0
2026/01/15 02:26:30.000   30.531689076  114.357265285    26.2488   6  27   0.0530   0.0604   0.1441   0.0091  -0.0210  -0.0424   0.00    0.0
2026/01/15 02:27:00.000   30.531689052  114.357265294    26.2624   6  27   0.0529   0.0603   0.1439   0.0091  -0.0209  -0.0423   0.00    0.0
2026/01/15 02:27:30.000   30.531689031  114.357265305    26.2756   6  27   0.0529   0.0602   0.1437   0.0091  -0.0208  -0.0422   0.00    0.0
2026/01/15 02:28:00.000   30.531689007  114.357265314    26.2894   6  27   0.0528   0.0601   0.1435   0.0091  -0.0206  -0.0422   0.00    0.0
2026/01/15 02:28:30.000   30.531688985  114.357265323    26.3030   6  27   0.0527   0.0600   0.1433   0.0090  -0.0205  -0.0421   0.00    0.0
2026/01/15 02:29:00.000   30.531688960  114.357265332    26.3177   6  27   0.0527   0.0599   0.1431   0.0090  -0.0204  -0.0420   0.00    0.0
2026/01/15 02:29:30.000   30.531688934  114.357265342    26.3321   6  27   0.0526   0.0598   0.1429   0.0090  -0.0202  -0.0419   0.00    0.0
2026/01/15 02:30:00.000   30.531688910  114.357265350    26.3468   6  27   0.0525   0.0597   0.1427   0.0090  -0.0201  -0.0419   0.00    0.0
2026/01/15 02:30:30.000   30.531688886  114.357265361    26.3611   6  27   0.0525   0.0597   0.1425   0.0090  -0.0200  -0.0418   0.00    0.0
2026/01/15 02:31:00.000   30.531688862  114.357265371    26.3749   6  27   0.0524   0.0596   0.1423   0.0089  -0.0198  -0.0417   0.00    0.0
2026/01/15 02:31:30.000   30.531688840  114.357265379    26.3888   6  27   0.0523   0.0595   0.1421   0.0089  -0.0197  -0.0417   0.00    0.0
2026/01/15 02:32:00.000   30.531688816  114.357265379    26.4003   6  29   0.0523   0.0594   0.1419   0.0089  -0.0195  -0.0416   0.00    0.0
2026/01/15 02:32:30.000   30.531688794  114.357265388    26.4140   6  27   0.0522   0.0593   0.1417   0.0089  -0.0194  -0.0415   0.00    0.0
2026/01/15 02:33:00.000   30.531688770  114.357265397    26.4284   6  27   0.0521   0.0592   0.1415   0.0089  -0.0193  -0.0414   0.00    0.0
2026/01/15 02:33:30.000   30.531688748  114.357265406    26.4426   6  27   0.0521   0.0591   0.1413   0.0088  -0.0191  -0.0414   0.00    0.0
2026/01/15 02:34:00.000   30.531688726  114.357265411    26.4553   6  28   0.0520   0.0590   0.1411   0.0088  -0.0190  -0.0413   0.00    0.0
2026/01/15 02:34:30.000   30.531688703  114.357265418    26.4698   6  27   0.0519   0.0590   0.1409   0.0088  -0.0188  -0.0412   0.00    0.0
2026/01/15 02:35:00.000   30.531688680  114.357265418    26.4823   6  28   0.0519   0.0589   0.1407   0.0088  -0.0187  -0.0411   0.00    0.0
2026/01/15 02:35:30.000   30.531688656  114.357265425    26.4953   6  28   0.0518   0.0588   0.1405   0.0088  -0.0186  -0.0411   0.00    0.0
2026/01/15 02:36:00.000   30.531688632  114.357265433    26.5090   6  28   0.0517   0.0587   0.1403   0.0087  -0.0184  -0.0410   0.00    0.0
2026/01/15 02:36:30.000   30.531688609  114.357265440    26.5226   6  28   0.0517   0.0586   0.1401   0.0087  -0.0183  -0.0409   0.00    0.0
2026/01/15 02:37:00.000   30.531688585  114.357265446    26.5351   6  28   0.0516   0.0586   0.1399   0.0087  -0.0181  -0.0408   0.00    0.0
2026/01/15 02:37:30.000   30.531688561  114.357265453    26.5488   6  28   0.0515   0.0585   0.1397   0.0087  -0.0180  -0.0408   0.00    0.0
2026/01/15 02:38:00.000   30.531688535  114.357265463    26.5621   6  28   0.0515   0.0584   0.1395   0.0086  -0.0179  -0.0407   0.00    0.0
2026/01/15 02:38:30.000   30.531688512  114.357265471    26.5750   6  28   0.0514   0.0583   0.1394   0.0086  -0.0177  -0.0406   0.00    0.0
2026/01/15 02:39:00.000   30.531688488  114.357265476    26.5885   6  28   0.0514   0.0582   0.1392   0.0086  -0.0176  -0.0406   0.00    0.0
2026/01/15 02:39:30.000   30.531688465  114.357265476    26.6009   6  29   0.0513   0.0582   0.1390   0.0085  -0.0174  -0.0405   0.00    0.0
2026/01/15 02:40:00.000   30.531688441  114.357265480    26.6143   6  28   0.0512   0.0581   0.1388   0.0085  -0.0173  -0.0404   0.00    0.0
2026/01/15 02:40:30.000   30.531688417  114.357265487    26.6276   6  28   0.0512   0.0580   0.1386   0.0085  -0.0171  -0.0403   0.00    0.0
2026/01/15 02:41:00.000   30.531688394  114.357265495    26.6409   6  28   0.0511   0.0579   0.1384   0.0085  -0.0170  -0.0403   0.00    0.0
2026/01/15 02:41:30.000   30.531688371  114.357265506    26.6539   6  28   0.0510   0.0578   0.1382   0.0084  -0.0168  -0.0402   0.00    0.0
2026/01/15 02:42:00.000   30.531688348  114.357265514    26.6673   6  28   0.0510   0.0578   0.1380   0.0084  -0.0167  -0.0401   0.00    0.0
2026/01/15 02:42:30.000   30.531688325  114.357265523    26.6806   6  28   0.0509   0.0577   0.1379   0.0084  -0.0165  -0.0401   0.00    0.0
2026/01/15 02:43:00.000   30.531688300  114.357265535    26.6921   6  29   0.0508   0.0576   0.1377   0.0083  -0.0164  -0.0400   0.00    0.0
2026/01/15 02:43:30.000   30.531688278  114.357265541    26.7047   6  28   0.0508   0.0575   0.1375   0.0083  -0.0162  -0.0399   0.00    0.0
2026/01/15 02:44:00.000   30.531688255  114.357265550    26.7179   6  28   0.0507   0.0575   0.1373   0.0083  -0.0160  -0.0399   0.00    0.0
2026/01/15 02:44:30.000   30.531688230  114.357265562    26.7299   6  29   0.0506   0.0574   0.1371   0.0082  -0.0159  -0.0398   0.00    0.0
2026/01/15 02:45:00.000   30.531688207  114.357265570    26.7432   6  28   0.0506   0.0573   0.1370   0.0082  -0.0157  -0.0397   0.00    0.0
2026/01/15 02:45:30.000   30.531688184  114.357265579    26.7564   6  28   0.0505   0.0572   0.1368   0.0082  -0.0155  -0.0396   0.00    0.0
2026/01/15 02:46:00.000   30.531688161  114.357265590    26.7684   6  28   0.0505   0.0572   0.1366   0.0081  -0.0154  -0.0396   0.00    0.0
2026/01/15 02:46:30.000   30.531688138  114.357265597    26.7815   6  28   0.0504   0.0571   0.1364   0.0081  -0.0152  -0.0395   0.00    0.0
2026/01/15 02:47:00.000   30.531688116  114.357265606    26.7937   6  28   0.0503   0.0570   0.1363   0.0081  -0.0151  -0.0394   0.00    0.0
2026/01/15 02:47:30.000   30.531688094  114.357265615    26.8064   6  28   0.0503   0.0569   0.1361   0.0080  -0.0149  -0.0394   0.00    0.0
2026/01/15 02:48:00.000   30.531688070  114.357265625    26.8193   6  28   0.0502   0.0569   0.1359   0.0080  -0.0147  -0.0393   0.00    0.0
2026/01/15 02:48:30.000   30.531688048  114.357265635    26.8316   6  28   0.0501   0.0568   0.1357   0.0080  -0.0146  -0.0392   0.00    0.0
2026/01/15 02:49:00.000   30.531688025  114.357265644    26.8442   6  28   0.0501   0.0567   0.1356   0.0079  -0.0144  -0.0391   0.00    0.0
2026/01/15 02:49:30.000   30.531688002  114.357265653    26.8571   6  28   0.0500   0.0567   0.1354   0.0079  -0.0142  -0.0391   0.00    0.0
2026/01/15 02:50:00.000   30.531687980  114.357265664    26.8699   6  28   0.0499   0.0566   0.1352   0.0078  -0.0140  -0.0390   0.00    0.0
2026/01/15 02:50:30.000   30.531687957  114.357265677    26.8817   6  29   0.0499   0.0565   0.1351   0.0078  -0.0139  -0.0389   0.00    0.0
2026/01/15 02:51:00.000   30.531687933  114.357265690    26.8928   6  29   0.0498   0.0565   0.1349   0.0078  -0.0137  -0.0389   0.00    0.0
2026/01/15 02:51:30.000   30.531687910  114.357265704    26.9040   6  29   0.0498   0.0564   0.1347   0.0077  -0.0135  -0.0388   0.00    0.0
2026/01/15 02:52:00.000   30.531687887  114.357265716    26.9153   6  29   0.0497   0.0563   0.1346   0.0077  -0.0133  -0.0387   0.00    0.0
2026/01/15 02:52:30.000   30.531687864  114.357265730    26.9264   6  29   0.0496   0.0562   0.1344   0.0077  -0.0131  -0.0387   0.00    0.0
2026/01/15 02:53:00.000   30.531687842  114.357265748    26.9371   6  29   0.0496   0.0562   0.1342   0.0076  -0.0129  -0.0386   0.00    0.0
2026/01/15 02:53:30.000   30.531687822  114.357265760    26.9471   6  30   0.0495   0.0561   0.1341   0.0076  -0.0127  -0.0385   0.00    0.0
2026/01/15 02:54:00.000   30.531687800  114.357265769    26.9574   6  30   0.0495   0.0560   0.1339   0.0076  -0.0126  -0.0384   0.00    0.0
2026/01/15 02:54:30.000   30.531687780  114.357265778    26.9675   6  30   0.0494   0.0560   0.1337   0.0075  -0.0124  -0.0384   0.00    0.0
2026/01/15 02:55:00.000   30.531687761  114.357265787    26.9777   6  30   0.0493   0.0559   0.1335   0.0075  -0.0122  -0.0383   0.00    0.0
2026/01/15 02:55:30.000   30.531687742  114.357265803    26.9881   6  29   0.0493   0.0558   0.1334   0.0075  -0.0120  -0.0382   0.00    0.0
2026/01/15 02:56:00.000   30.531687722  114.357265818    26.9991   6  29   0.0492   0.0558   0.1332   0.0074  -0.0118  -0.0382   0.00    0.0
2026/01/15 02:56:30.000   30.531687702  114.357265831    27.0097   6  29   0.0491   0.0557   0.1330   0.0074  -0.0116  -0.0381   0.00    0.0
2026/01/15 02:57:00.000   30.531687683  114.357265845    27.0206   6  29   0.0491   0.0556   0.1329   0.0074  -0.0114  -0.0380   0.00    0.0
2026/01/15 02:57:30.000   30.531687658  114.357265868    27.0306   6  28   0.0490   0.0556   0.1327   0.0073  -0.0112  -0.0379   0.00    0.0
2026/01/15 02:58:00.000   30.531687639  114.357265885    27.0412   6  29   0.0490   0.0555   0.1326   0.0073  -0.0110  -0.0379   0.00    0.0
2026/01/15 02:58:30.000   30.531687621  114.357265903    27.0515   6  29   0.0489   0.0554   0.1324   0.0073  -0.0108  -0.0378   0.00    0.0
2026/01/15 02:59:00.000   30.531687604  114.357265919    27.0619   6  29   0.0488   0.0554   0.1322   0.0072  -0.0106  -0.0377   0.00    0.0
2026/01/15 02:59:30.000   30.531687585  114.357265934    27.0725   6  29   0.0488   0.0553   0.1321   0.0072  -0.0103  -0.0376   0.00    0.0
2026/01/15 03:00:00.000   30.531687567  114.357265948    27.0826   6  29   0.0487   0.0552   0.1319   0.0071  -0.0101  -0.0376   0.00    0.0
2026/01/15 03:00:30.000   30.531687550  114.357265965    27.0930   6  29   0.0487   0.0552   0.1318   0.0071  -0.0099  -0.0375   0.00    0.0
2026/01/15 03:01:00.000   30.531687533  114.357265978    27.1028   6  28   0.0486   0.0551   0.1316   0.0071  -0.0097  -0.0374   0.00    0.0
2026/01/15 03:01:30.000   30.531687510  114.357265999    27.1116   6  27   0.0485   0.0551   0.1315   0.0070  -0.0094  -0.0373   0.00    0.0
2026/01/15 03:02:00.000   30.531687490  114.357266019    27.1208   6  27   0.0485   0.0550   0.1313   0.0070  -0.0092  -0.0373   0.00    0.0
2026/01/15 03:02:30.000   30.531687475  114.357266029    27.1296   6  29   0.0484   0.0549   0.1312   0.0069  -0.0090  -0.0372   0.00    0.0
2026/01/15 03:03:00.000   30.531687453  114.357266046    27.1387   6  27   0.0484   0.0549   0.1310   0.0069  -0.0088  -0.0371   0.00    0.0
2026/01/15 03:03:30.000   30.531687441  114.357266055    27.1475   6  29   0.0483   0.0548   0.1309   0.0068  -0.0085  -0.0370   0.00    0.0
2026/01/15 03:04:00.000   30.531687427  114.357266068    27.1569   6  29   0.0482   0.0547   0.1308   0.0068  -0.0083  -0.0369   0.00    0.0
2026/01/15 03:04:30.000   30.531687418  114.357266099    27.1691   6  29   0.0482   0.0547   0.1306   0.0068  -0.0081  -0.0369   0.00    0.0
2026/01/15 03:05:00.000   30.531687406  114.357266110    27.1772   6  30   0.0481   0.0546   0.1305   0.0067  -0.0078  -0.0368   0.00    0.0
2026/01/15 03:05:30.000   30.531687391  114.357266122    27.1860   6  30   0.0481   0.0546   0.1303   0.0067  -0.0075  -0.0367   0.00    0.0
2026/01/15 03:06:00.000   30.531687371  114.357266143    27.1940   6  29   0.0480   0.0545   0.1302   0.0066  -0.0073  -0.0366   0.00    0.0
2026/01/15 03:06:30.000   30.531687357  114.357266155    27.2028   6  29   0.0479   0.0544   0.1300   0.0066  -0.0070  -0.0366   0.00    0.0
2026/01/15 03:07:00.000   30.531687337  114.357266173    27.2104   6  29   0.0479   0.0544   0.1299   0.0065  -0.0067  -0.0365   0.00    0.0
2026/01/15 03:07:30.000   30.531687322  114.357266218    27.2204   6  30   0.0478   0.0543   0.1298   0.0065  -0.0064  -0.0364   0.00    0.0
2026/01/15 03:08:00.000   30.531687311  114.357266246    27.2312   6  30   0.0478   0.0543   0.1296   0.0064  -0.0062  -0.0363   0.00    0.0
2026/01/15 03:08:30.000   30.531687308  114.357266265    27.2423   6  31   0.0477   0.0542   0.1295   0.0063  -0.0058  -0.0363   0.00    0.0
2026/01/15 03:09:00.000   30.531687299  114.357266290    27.2527   6  29   0.0477   0.0541   0.1293   0.0063  -0.0055  -0.0362   0.00    0.0
2026/01/15 03:09:30.000   30.531687286  114.357266315    27.2643   6  29   0.0476   0.0541   0.1292   0.0062  -0.0052  -0.0361   0.00    0.0
2026/01/15 03:10:00.000   30.531687275  114.357266336    27.2748   6  29   0.0475   0.0540   0.1291   0.0062  -0.0049  -0.0361   0.00    0.0
2026/01/15 03:10:30.000   30.531687264  114.357266356    27.2856   6  28   0.0475   0.0540   0.1289   0.0061  -0.0045  -0.0360   0.00    0.0
2026/01/15 03:11:00.000   30.531687253  114.357266380    27.2962   6  28   0.0474   0.0539   0.1288   0.0060  -0.0042  -0.0359   0.00    0.0
2026/01/15 03:11:30.000   30.531687253  114.357266424    27.3094   6  30   0.0474   0.0538   0.1287   0.0060  -0.0038  -0.0359   0.00    0.0
2026/01/15 03:12:00.000   30.531687244  114.357266444    27.3184   6  29   0.0473   0.0538   0.1285   0.0059  -0.0033  -0.0358   0.00    0.0
2026/01/15 03:12:30.000   30.531687244  114.357266489    27.3311   6  30   0.0472   0.0537   0.1284   0.0058  -0.0029  -0.0357   0.00    0.0
2026/01/15 03:13:00.000   30.531687244  114.357266532    27.3436   6  30   0.0472   0.0537   0.1283   0.0058  -0.0023  -0.0357   0.00    0.0
2026/01/15 03:13:30.000   30.531687236  114.357266555    27.3523   6  29   0.0471   0.0536   0.1281   0.0057  -0.0015  -0.0356   0.00    0.0
2026/01/15 03:14:00.000   30.531687235  114.357266597    27.3650   6  30   0.0471   0.0536   0.1280   0.0056   0.0009  -0.0355   0.00    0.0
2026/01/15 03:14:30.000   30.531687224  114.357266615    27.3748   6  29   0.0470   0.0535   0.1279   0.0055   0.0020  -0.0355   0.00    0.0
2026/01/15 03:15:00.000   30.531687224  114.357266654    27.3879   6  30   0.0470   0.0534   0.1277   0.0055   0.0026  -0.0354   0.00    0.0
2026/01/15 03:15:30.000   30.531687224  114.357266697    27.4004   6  30   0.0469   0.0534   0.1276   0.0054   0.0031  -0.0353   0.00    0.0
2026/01/15 03:16:00.000   30.531687223  114.357266740    27.4134   6  30   0.0468   0.0533   0.1275   0.0053   0.0036  -0.0353   0.00    0.0
2026/01/15 03:16:30.000   30.531687221  114.357266781    27.4258   6  30   0.0468   0.0533   0.1273   0.0052   0.0040  -0.0352   0.00    0.0
2026/01/15 03:17:00.000   30.531687220  114.357266820    27.4378   6  30   0.0467   0.0532   0.1272   0.0052   0.0043  -0.0351   0.00    0.0
2026/01/15 03:17:30.000   30.531687219  114.357266857    27.4498   6  30   0.0467   0.0531   0.1271   0.0051   0.0046  -0.0351   0.00    0.0
2026/01/15 03:18:00.000   30.531687218  114.357266895    27.4621   6  30   0.0466   0.0531   0.1269   0.0050   0.0049  -0.0350   0.00    0.0
2026/01/15 03:18:30.000   30.531687217  114.357266932    27.4741   6  30   0.0466   0.0530   0.1268   0.0049   0.0052  -0.0350   0.00    0.0
2026/01/15 03:19:00.000   30.531687217  114.357266972    27.4846   6  30   0.0465   0.0530   0.1267   0.0048   0.0054  -0.0349   0.00    0.0
2026/01/15 03:19:30.000   30.531687215  114.357267008    27.4954   6  30   0.0465   0.0529   0.1265   0.0047   0.0057  -0.0348   0.00    0.0
2026/01/15 03:20:00.000   30.531687214  114.357267043    27.5060   6  30   0.0464   0.0529   0.1264   0.0046   0.0059  -0.0348   0.00    0.0
2026/01/15 03:20:30.000   30.531687212  114.357267080    27.5165   6  30   0.0463   0.0528   0.1263   0.0045   0.0061  -0.0347   0.00    0.0
2026/01/15 03:21:00.000   30.531687208  114.357267114    27.5276   6  30   0.0463   0.0527   0.1262   0.0044   0.0063  -0.0346   0.00    0.0
2026/01/15 03:21:30.000   30.531687207  114.357267147    27.5379   6  30   0.0462   0.0527   0.1260   0.0043   0.0065  -0.0346   0.00    0.0
2026/01/15 03:22:00.000   30.531687207  114.357267180    27.5475   6  30   0.0462   0.0526   0.1259   0.0042   0.0067  -0.0345   0.00    0.0
2026/01/15 03:22:30.000   30.531687206  114.357267213    27.5574   6  30   0.0461   0.0526   0.1258   0.0041   0.0069  -0.0345   0.00    0.0
2026/01/15 03:23:00.000   30.531687206  114.357267244    27.5672   6  29   0.0461   0.0525   0.1257   0.0040   0.0071  -0.0344   0.00    0.0
2026/01/15 03:23:30.000   30.531687206  114.357267276    27.5766   6  30   0.0460   0.0525   0.1255   0.0039   0.0073  -0.0343   0.00    0.0
2026/01/15 03:24:00.000   30.531687206  114.357267307    27.5864   6  29   0.0460   0.0524   0.1254   0.0038   0.0074  -0.0343   0.00    0.0
2026/01/15 03:24:30.000   30.531687206  114.357267341    27.5964   6  29   0.0459   0.0524   0.1253   0.0037   0.0076  -0.0342   0.00    0.0
2026/01/15 03:25:00.000   30.531687205  114.357267373    27.6062   6  29   0.0459   0.0523   0.1252   0.0036   0.0077  -0.0342   0.00    0.0
2026/01/15 03:25:30.000   30.531687203  114.357267407    27.6158   6  29   0.0458   0.0522   0.1250   0.0034   0.0079  -0.0341   0.00    0.0
2026/01/15 03:26:00.000   30.531687201  114.357267436    27.6255   6  29   0.0458   0.0522   0.1249   0.0033   0.0080  -0.0341   0.00    0.0
2026/01/15 03:26:30.000   30.531687200  114.357267468    27.6350   6  29   0.0457   0.0521   0.1248   0.0032   0.0082  -0.0340   0.00    0.0
2026/01/15 03:27:00.000   30.531687198  114.357267495    27.6445   6  29   0.0457   0.0521   0.1247   0.0030   0.0083  -0.0340   0.00    0.0
