% program   : RTKLIB ver.EX 2.5.0
% inp file  : C:\PPP_PROJECT\RTKLIB_work\runs\HKWS_EXP2_2B_20260508_102907\HKWS00HKG_R_20260150000_01D_30S_MO.rnx
% inp file  : C:\PPP_PROJECT\RTKLIB_work\runs\HKWS_EXP2_2B_20260508_102907\BRDC00IGS_R_20260150000_01D_MN.rnx
% inp file  : C:\PPP_PROJECT\RTKLIB_work\runs\HKWS_EXP2_2B_20260508_102907\COD0MGXFIN_20260150000_01D_05M_ORB.SP3
% inp file  : C:\PPP_PROJECT\RTKLIB_work\runs\HKWS_EXP2_2B_20260508_102907\COD0MGXFIN_20260150000_01D_30S_CLK.CLK
% inp file  : C:\PPP_PROJECT\RTKLIB_work\runs\HKWS_EXP2_2B_20260508_102907
% inp file  : C:\PPP_PROJECT\RTKLIB_work\runs\HKWS_EXP2_2B_20260508_102907
% obs start : 2026/01/15 00:00:00.0 GPST (week2401 345600.0s)
% obs end   : 2026/01/15 23:59:30.0 GPST (week2401 431970.0s)
% pos mode  : PPP Static
% freqs     : L1+L2/E5b
% solution  : Forward
% elev mask : 15.0 deg
% dynamics  : on
% tidecorr  :
% ionos opt : Iono-Free LC
% tropo opt : Saastamoinen
% ephemeris : Precise
% navi sys  : GPS Galileo
% antenna1  : LEIAR25.R4      LEIT  ( 0.0000  0.0000  0.0083)
%
% (lat/lon/height=WGS84/ellipsoidal,Q=1:fix,2:float,3:sbas,4:dgps,5:single,6:ppp,ns=# of satellites)
%  GPST                  latitude(deg) longitude(deg)  height(m)   Q  ns   sdn(m)   sde(m)   sdu(m)  sdne(m)  sdeu(m)  sdun(m) age(s)  ratio
2026/01/15 00:00:00.000   22.434285491  114.335386216    65.1430   6   8   2.8174   3.2882   7.5007  -1.3000   1.0807  -1.2480   0.00    0.0
2026/01/15 00:00:30.000   22.434284419  114.335388511    65.3936   6   9   1.9947   2.3295   5.3091  -0.9201   0.7653  -0.8894   0.00    0.0
2026/01/15 00:01:00.000   22.434283057  114.335390035    65.4616   6  11   1.6283   1.9023   4.3159  -0.7506   0.6286  -0.7356   0.00    0.0
2026/01/15 00:01:30.000   22.434282152  114.335390812    65.5197   6  11   1.4086   1.6469   3.7106  -0.6484   0.5488  -0.6460   0.00    0.0
2026/01/15 00:02:00.000   22.434281643  114.335391283    65.4089   6  12   1.2576   1.4718   3.2864  -0.5781   0.4936  -0.5880   0.00    0.0
2026/01/15 00:02:30.000   22.434281281  114.335391374    65.3272   6  12   1.1453   1.3422   2.9653  -0.5250   0.4547  -0.5455   0.00    0.0
2026/01/15 00:03:00.000   22.434280988  114.335391030    65.3212   6  12   1.0572   1.2410   2.7082  -0.4829   0.4248  -0.5135   0.00    0.0
2026/01/15 00:03:30.000   22.434280892  114.335390696    65.3089   6  12   0.9855   1.1590   2.4946  -0.4482   0.4009  -0.4884   0.00    0.0
2026/01/15 00:04:00.000   22.434280897  114.335390585    65.3332   6   8   0.9266   1.0912   2.3176  -0.4206   0.3822  -0.4702   0.00    0.0
2026/01/15 00:04:30.000   22.434280864  114.335390648    65.3581   6   8   0.8764   1.0335   2.1639  -0.3968   0.3665  -0.4552   0.00    0.0
2026/01/15 00:05:00.000   22.434280794  114.335390686    65.3373   6   8   0.8328   0.9837   2.0286  -0.3759   0.3529  -0.4426   0.00    0.0
2026/01/15 00:05:30.000   22.434280735  114.335390793    65.2329   6  12   0.7915   0.9390   1.8966  -0.3535   0.3388  -0.4268   0.00    0.0
2026/01/15 00:06:00.000   22.434280726  114.335390801    65.1116   6  12   0.7550   0.8994   1.7803  -0.3337   0.3263  -0.4135   0.00    0.0
2026/01/15 00:06:30.000   22.434280806  114.335390790    64.9957   6  12   0.7223   0.8640   1.6763  -0.3160   0.3151  -0.4018   0.00    0.0
2026/01/15 00:07:00.000   22.434280863  114.335390783    64.9029   6   8   0.6951   0.8328   1.5904  -0.3031   0.3067  -0.3951   0.00    0.0
2026/01/15 00:07:30.000   22.434280812  114.335390843    64.8402   6   8   0.6701   0.8044   1.5114  -0.2911   0.2989  -0.3886   0.00    0.0
2026/01/15 00:08:00.000   22.434280726  114.335390876    64.7934   6   8   0.6471   0.7783   1.4385  -0.2799   0.2916  -0.3825   0.00    0.0
2026/01/15 00:08:30.000   22.434280683  114.335390765    64.7461   6   8   0.6258   0.7543   1.3710  -0.2694   0.2846  -0.3765   0.00    0.0
2026/01/15 00:09:00.000   22.434280664  114.335390579    64.7032   6   8   0.6060   0.7320   1.3085  -0.2596   0.2780  -0.3707   0.00    0.0
2026/01/15 00:09:30.000   22.434280677  114.335390429    64.6588   6   8   0.5874   0.7112   1.2503  -0.2502   0.2716  -0.3650   0.00    0.0
2026/01/15 00:10:00.000   22.434280637  114.335390242    64.6152   6   8   0.5700   0.6918   1.1961  -0.2413   0.2656  -0.3594   0.00    0.0
2026/01/15 00:10:30.000   22.434280569  114.335390049    64.5668   6   8   0.5537   0.6736   1.1456  -0.2328   0.2597  -0.3538   0.00    0.0
2026/01/15 00:11:00.000   22.434280490  114.335389828    64.5130   6   9   0.5382   0.6564   1.0983  -0.2247   0.2539  -0.3483   0.00    0.0
2026/01/15 00:11:30.000   22.434280418  114.335389617    64.4535   6   8   0.5236   0.6402   1.0541  -0.2170   0.2484  -0.3429   0.00    0.0
2026/01/15 00:12:00.000   22.434280398  114.335389502    64.3993   6   8   0.5097   0.6249   1.0127  -0.2095   0.2431  -0.3375   0.00    0.0
2026/01/15 00:12:30.000   22.434280370  114.335389433    64.3582   6   8   0.4965   0.6103   0.9738  -0.2024   0.2379  -0.3322   0.00    0.0
2026/01/15 00:13:00.000   22.434280368  114.335389380    64.3215   6   8   0.4839   0.5965   0.9372  -0.1955   0.2328  -0.3270   0.00    0.0
2026/01/15 00:13:30.000   22.434280389  114.335389301    64.2835   6   8   0.4719   0.5832   0.9028  -0.1889   0.2279  -0.3218   0.00    0.0
2026/01/15 00:14:00.000   22.434280357  114.335389232    64.2522   6   8   0.4604   0.5706   0.8704  -0.1825   0.2231  -0.3167   0.00    0.0
2026/01/15 00:14:30.000   22.434280269  114.335389144    64.2190   6   8   0.4494   0.5585   0.8399  -0.1763   0.2184  -0.3117   0.00    0.0
2026/01/15 00:15:00.000   22.434280169  114.335389008    64.1877   6   8   0.4388   0.5469   0.8110  -0.1703   0.2138  -0.3067   0.00    0.0
2026/01/15 00:15:30.000   22.434280097  114.335388853    64.1560   6   8   0.4287   0.5358   0.7838  -0.1645   0.2093  -0.3018   0.00    0.0
2026/01/15 00:16:00.000   22.434280049  114.335388717    64.1231   6   8   0.4190   0.5251   0.7580  -0.1589   0.2049  -0.2970   0.00    0.0
2026/01/15 00:16:30.000   22.434280048  114.335388600    64.0847   6   8   0.4096   0.5148   0.7336  -0.1534   0.2006  -0.2922   0.00    0.0
2026/01/15 00:17:00.000   22.434280045  114.335388522    64.0447   6   8   0.4006   0.5048   0.7105  -0.1481   0.1964  -0.2875   0.00    0.0
2026/01/15 00:17:30.000   22.434280081  114.335388414    64.0007   6   9   0.3920   0.4952   0.6885  -0.1430   0.1923  -0.2829   0.00    0.0
2026/01/15 00:18:00.000   22.434280190  114.335388250    63.9519   6   8   0.3836   0.4860   0.6677  -0.1380   0.1883  -0.2784   0.00    0.0
2026/01/15 00:18:30.000   22.434280346  114.335388122    63.8971   6   9   0.3755   0.4770   0.6478  -0.1331   0.1844  -0.2739   0.00    0.0
2026/01/15 00:19:00.000   22.434280482  114.335388077    63.8508   6   8   0.3677   0.4683   0.6290  -0.1283   0.1805  -0.2696   0.00    0.0
2026/01/15 00:19:30.000   22.434280557  114.335388034    63.8120   6   8   0.3602   0.4599   0.6110  -0.1237   0.1768  -0.2653   0.00    0.0
2026/01/15 00:20:00.000   22.434280633  114.335387948    63.7781   6   8   0.3529   0.4518   0.5939  -0.1191   0.1731  -0.2611   0.00    0.0
2026/01/15 00:20:30.000   22.434280685  114.335387885    63.7531   6   8   0.3458   0.4439   0.5776  -0.1147   0.1695  -0.2569   0.00    0.0
2026/01/15 00:21:00.000   22.434280721  114.335387841    63.7318   6   8   0.3390   0.4362   0.5620  -0.1104   0.1660  -0.2529   0.00    0.0
2026/01/15 00:21:30.000   22.434280706  114.335387833    63.7146   6   8   0.3323   0.4288   0.5472  -0.1061   0.1625  -0.2489   0.00    0.0
2026/01/15 00:22:00.000   22.434280651  114.335387818    63.7025   6   9   0.3259   0.4215   0.5329  -0.1020   0.1592  -0.2450   0.00    0.0
2026/01/15 00:22:30.000   22.434280607  114.335387773    63.6895   6   9   0.3197   0.4145   0.5193  -0.0979   0.1559  -0.2412   0.00    0.0
2026/01/15 00:23:00.000   22.434280582  114.335387708    63.6776   6   8   0.3137   0.4076   0.5063  -0.0940   0.1526  -0.2374   0.00    0.0
2026/01/15 00:23:30.000   22.434280552  114.335387672    63.6690   6   8   0.3078   0.4009   0.4938  -0.0901   0.1495  -0.2338   0.00    0.0
2026/01/15 00:24:00.000   22.434280508  114.335387647    63.6586   6   8   0.3020   0.3942   0.4816  -0.0856   0.1457  -0.2299   0.00    0.0
2026/01/15 00:24:30.000   22.434280429  114.335387658    63.6646   6   7   0.2968   0.3879   0.4737  -0.0820   0.1444  -0.2280   0.00    0.0
2026/01/15 00:25:00.000   22.434280353  114.335387648    63.6704   6   7   0.2917   0.3818   0.4660  -0.0784   0.1431  -0.2260   0.00    0.0
2026/01/15 00:25:30.000   22.434280292  114.335387634    63.6738   6   8   0.2867   0.3757   0.4582  -0.0744   0.1412  -0.2238   0.00    0.0
2026/01/15 00:26:00.000   22.434280260  114.335387610    63.6721   6   8   0.2817   0.3698   0.4506  -0.0706   0.1394  -0.2216   0.00    0.0
2026/01/15 00:26:30.000   22.434280241  114.335387554    63.6679   6   8   0.2770   0.3640   0.4431  -0.0668   0.1375  -0.2193   0.00    0.0
2026/01/15 00:27:00.000   22.434280228  114.335387487    63.6618   6   8   0.2723   0.3584   0.4359  -0.0631   0.1357  -0.2170   0.00    0.0
2026/01/15 00:27:30.000   22.434280215  114.335387405    63.6581   6   8   0.2678   0.3528   0.4287  -0.0595   0.1339  -0.2148   0.00    0.0
2026/01/15 00:28:00.000   22.434280216  114.335387312    63.6520   6  10   0.2634   0.3475   0.4217  -0.0559   0.1321  -0.2125   0.00    0.0
2026/01/15 00:28:30.000   22.434280234  114.335387232    63.6435   6   8   0.2591   0.3422   0.4149  -0.0524   0.1304  -0.2102   0.00    0.0
2026/01/15 00:29:00.000   22.434280278  114.335387171    63.6336   6   8   0.2549   0.3371   0.4082  -0.0490   0.1286  -0.2079   0.00    0.0
2026/01/15 00:29:30.000   22.434280326  114.335387124    63.6210   6   8   0.2508   0.3320   0.4017  -0.0456   0.1269  -0.2056   0.00    0.0
2026/01/15 00:30:00.000   22.434280365  114.335387087    63.6098   6   8   0.2468   0.3271   0.3953  -0.0422   0.1252  -0.2032   0.00    0.0
2026/01/15 00:30:30.000   22.434280399  114.335387041    63.5986   6   8   0.2429   0.3223   0.3890  -0.0388   0.1236  -0.2009   0.00    0.0
2026/01/15 00:31:00.000   22.434280426  114.335386989    63.5872   6   8   0.2391   0.3176   0.3829  -0.0354   0.1219  -0.1986   0.00    0.0
2026/01/15 00:31:30.000   22.434280465  114.335386937    63.5760   6   8   0.2354   0.3130   0.3768  -0.0320   0.1203  -0.1963   0.00    0.0
2026/01/15 00:32:00.000   22.434280493  114.335386878    63.5639   6   8   0.2317   0.3085   0.3709  -0.0285   0.1187  -0.1940   0.00    0.0
2026/01/15 00:32:30.000   22.434280520  114.335386822    63.5530   6   8   0.2282   0.3041   0.3652  -0.0249   0.1172  -0.1918   0.00    0.0
2026/01/15 00:33:00.000   22.434280525  114.335386782    63.5450   6   8   0.2247   0.2998   0.3595  -0.0211   0.1156  -0.1895   0.00    0.0
2026/01/15 00:33:30.000   22.434280528  114.335386778    63.5389   6   8   0.2213   0.2955   0.3540  -0.0168   0.1141  -0.1872   0.00    0.0
2026/01/15 00:34:00.000   22.434280531  114.335386782    63.5341   6   8   0.2179   0.2914   0.3486  -0.0115   0.1127  -0.1850   0.00    0.0
2026/01/15 00:34:30.000   22.434280529  114.335386810    63.5302   6   8   0.2147   0.2873   0.3433   0.0013   0.1112  -0.1827   0.00    0.0
2026/01/15 00:35:00.000   22.434280528  114.335386867    63.5286   6  10   0.2115   0.2833   0.3381   0.0111   0.1098  -0.1805   0.00    0.0
2026/01/15 00:35:30.000   22.434280522  114.335386923    63.5283   6   8   0.2083   0.2794   0.3330   0.0153   0.1084  -0.1783   0.00    0.0
2026/01/15 00:36:00.000   22.434280525  114.335386970    63.5309   6   8   0.2053   0.2757   0.3305   0.0182   0.1087  -0.1761   0.00    0.0
2026/01/15 00:36:30.000   22.434280529  114.335387000    63.5331   6   8   0.2023   0.2721   0.3281   0.0204   0.1090  -0.1741   0.00    0.0
2026/01/15 00:37:00.000   22.434280538  114.335387028    63.5334   6   8   0.1993   0.2685   0.3257   0.0222   0.1092  -0.1720   0.00    0.0
2026/01/15 00:37:30.000   22.434280552  114.335387064    63.5327   6   8   0.1964   0.2650   0.3232   0.0236   0.1094  -0.1700   0.00    0.0
2026/01/15 00:38:00.000   22.434280571  114.335387077    63.5304   6   8   0.1936   0.2616   0.3208   0.0248   0.1095  -0.1680   0.00    0.0
2026/01/15 00:38:30.000   22.434280593  114.335387072    63.5271   6   9   0.1908   0.2582   0.3184   0.0258   0.1096  -0.1660   0.00    0.0
2026/01/15 00:39:00.000   22.434280617  114.335387041    63.5233   6   8   0.1881   0.2549   0.3160   0.0266   0.1097  -0.1641   0.00    0.0
2026/01/15 00:39:30.000   22.434280639  114.335387009    63.5190   6   8   0.1854   0.2517   0.3136   0.0272   0.1098  -0.1622   0.00    0.0
2026/01/15 00:40:00.000   22.434280656  114.335386981    63.5140   6   8   0.1828   0.2485   0.3112   0.0278   0.1098  -0.1603   0.00    0.0
2026/01/15 00:40:30.000   22.434280665  114.335386958    63.5095   6   8   0.1802   0.2454   0.3088   0.0282   0.1098  -0.1585   0.00    0.0
2026/01/15 00:41:00.000   22.434280663  114.335386942    63.5064   6   8   0.1777   0.2423   0.3064   0.0285   0.1097  -0.1567   0.00    0.0
2026/01/15 00:41:30.000   22.434280646  114.335386938    63.5062   6   8   0.1753   0.2393   0.3040   0.0288   0.1096  -0.1549   0.00    0.0
2026/01/15 00:42:00.000   22.434280619  114.335386924    63.5083   6   8   0.1728   0.2363   0.3016   0.0290   0.1095  -0.1531   0.00    0.0
2026/01/15 00:42:30.000   22.434280594  114.335386924    63.5124   6   8   0.1705   0.2334   0.2993   0.0291   0.1093  -0.1514   0.00    0.0
2026/01/15 00:43:00.000   22.434280572  114.335386932    63.5168   6   9   0.1681   0.2305   0.2969   0.0292   0.1092  -0.1497   0.00    0.0
2026/01/15 00:43:30.000   22.434280551  114.335386943    63.5218   6   8   0.1659   0.2277   0.2946   0.0292   0.1089  -0.1480   0.00    0.0
2026/01/15 00:44:00.000   22.434280533  114.335386951    63.5266   6   8   0.1636   0.2249   0.2922   0.0292   0.1087  -0.1463   0.00    0.0
2026/01/15 00:44:30.000   22.434280523  114.335386960    63.5302   6   8   0.1614   0.2222   0.2899   0.0291   0.1084  -0.1447   0.00    0.0
2026/01/15 00:45:00.000   22.434280522  114.335386974    63.5321   6   8   0.1593   0.2195   0.2876   0.0290   0.1081  -0.1431   0.00    0.0
2026/01/15 00:45:30.000   22.434280524  114.335386979    63.5325   6   8   0.1571   0.2169   0.2853   0.0289   0.1078  -0.1415   0.00    0.0
2026/01/15 00:46:00.000   22.434280526  114.335386972    63.5329   6   8   0.1551   0.2143   0.2829   0.0287   0.1074  -0.1400   0.00    0.0
2026/01/15 00:46:30.000   22.434280529  114.335386967    63.5327   6   8   0.1530   0.2117   0.2807   0.0285   0.1071  -0.1384   0.00    0.0
2026/01/15 00:47:00.000   22.434280535  114.335386978    63.5322   6   8   0.1510   0.2092   0.2784   0.0283   0.1066  -0.1369   0.00    0.0
2026/01/15 00:47:30.000   22.434280543  114.335386998    63.5321   6   8   0.1491   0.2068   0.2761   0.0281   0.1062  -0.1354   0.00    0.0
2026/01/15 00:48:00.000   22.434280544  114.335387010    63.5327   6   8   0.1471   0.2043   0.2738   0.0278   0.1058  -0.1340   0.00    0.0
2026/01/15 00:48:30.000   22.434280537  114.335387014    63.5335   6   7   0.1452   0.2019   0.2716   0.0276   0.1053  -0.1325   0.00    0.0
2026/01/15 00:49:00.000   22.434280522  114.335387013    63.5354   6   7   0.1434   0.1996   0.2693   0.0273   0.1048  -0.1311   0.00    0.0
2026/01/15 00:49:30.000   22.434280504  114.335387015    63.5381   6   7   0.1416   0.1972   0.2671   0.0270   0.1043  -0.1297   0.00    0.0
2026/01/15 00:50:00.000   22.434280492  114.335387019    63.5404   6   7   0.1398   0.1950   0.2649   0.0267   0.1038  -0.1283   0.00    0.0
2026/01/15 00:50:30.000   22.434280485  114.335387035    63.5423   6   7   0.1380   0.1927   0.2627   0.0264   0.1032  -0.1269   0.00    0.0
2026/01/15 00:51:00.000   22.434280478  114.335387051    63.5443   6   7   0.1363   0.1905   0.2605   0.0261   0.1026  -0.1256   0.00    0.0
2026/01/15 00:51:30.000   22.434280470  114.335387063    63.5469   6   7   0.1346   0.1883   0.2583   0.0258   0.1021  -0.1242   0.00    0.0
2026/01/15 00:52:00.000   22.434280465  114.335387076    63.5478   6   7   0.1329   0.1861   0.2562   0.0255   0.1015  -0.1229   0.00    0.0
2026/01/15 00:52:30.000   22.434280462  114.335387087    63.5477   6   7   0.1313   0.1840   0.2540   0.0252   0.1009  -0.1216   0.00    0.0
2026/01/15 00:53:00.000   22.434280457  114.335387098    63.5474   6   7   0.1297   0.1819   0.2519   0.0248   0.1002  -0.1203   0.00    0.0
2026/01/15 00:53:30.000   22.434280454  114.335387105    63.5472   6   7   0.1281   0.1799   0.2497   0.0245   0.0996  -0.1191   0.00    0.0
2026/01/15 00:54:00.000   22.434280450  114.335387100    63.5465   6   7   0.1266   0.1778   0.2476   0.0242   0.0989  -0.1178   0.00    0.0
2026/01/15 00:54:30.000   22.434280444  114.335387081    63.5462   6   7   0.1250   0.1758   0.2455   0.0238   0.0983  -0.1166   0.00    0.0
2026/01/15 00:55:00.000   22.434280440  114.335387066    63.5454   6   7   0.1235   0.1739   0.2434   0.0235   0.0976  -0.1154   0.00    0.0
2026/01/15 00:55:30.000   22.434280436  114.335387050    63.5451   6   7   0.1221   0.1719   0.2414   0.0232   0.0969  -0.1142   0.00    0.0
2026/01/15 00:56:00.000   22.434280437  114.335387034    63.5446   6   7   0.1206   0.1700   0.2393   0.0228   0.0962  -0.1130   0.00    0.0
2026/01/15 00:56:30.000   22.434280440  114.335387015    63.5433   6   7   0.1192   0.1681   0.2373   0.0225   0.0955  -0.1119   0.00    0.0
2026/01/15 00:57:00.000   22.434280446  114.335386997    63.5413   6   7   0.1178   0.1663   0.2352   0.0222   0.0948  -0.1107   0.00    0.0
2026/01/15 00:57:30.000   22.434280454  114.335386987    63.5395   6   7   0.1164   0.1644   0.2332   0.0218   0.0940  -0.1096   0.00    0.0
2026/01/15 00:58:00.000   22.434280456  114.335386978    63.5386   6   7   0.1151   0.1626   0.2312   0.0215   0.0933  -0.1085   0.00    0.0
2026/01/15 00:58:30.000   22.434280453  114.335386963    63.5380   6   7   0.1138   0.1609   0.2293   0.0212   0.0926  -0.1074   0.00    0.0
2026/01/15 00:59:00.000   22.434280445  114.335386950    63.5375   6   7   0.1125   0.1591   0.2273   0.0209   0.0918  -0.1063   0.00    0.0
2026/01/15 00:59:30.000   22.434280436  114.335386942    63.5378   6   7   0.1112   0.1574   0.2253   0.0206   0.0911  -0.1053   0.00    0.0
2026/01/15 01:00:00.000   22.434280426  114.335386931    63.5374   6   7   0.1099   0.1557   0.2234   0.0203   0.0903  -0.1042   0.00    0.0
2026/01/15 01:00:30.000   22.434280414  114.335386925    63.5384   6   7   0.1087   0.1540   0.2215   0.0200   0.0895  -0.1032   0.00    0.0
2026/01/15 01:01:00.000   22.434280402  114.335386921    63.5393   6   7   0.1075   0.1523   0.2196   0.0197   0.0888  -0.1022   0.00    0.0
2026/01/15 01:01:30.000   22.434280397  114.335386919    63.5397   6   7   0.1063   0.1507   0.2177   0.0194   0.0880  -0.1011   0.00    0.0
2026/01/15 01:02:00.000   22.434280397  114.335386913    63.5391   6   7   0.1051   0.1491   0.2158   0.0191   0.0872  -0.1002   0.00    0.0
2026/01/15 01:02:30.000   22.434280394  114.335386900    63.5382   6   7   0.1039   0.1475   0.2140   0.0188   0.0864  -0.0992   0.00    0.0
2026/01/15 01:03:00.000   22.434280391  114.335386886    63.5372   6   7   0.1028   0.1459   0.2121   0.0185   0.0857  -0.0982   0.00    0.0
2026/01/15 01:03:30.000   22.434280384  114.335386875    63.5370   6   7   0.1017   0.1444   0.2103   0.0183   0.0849  -0.0972   0.00    0.0
2026/01/15 01:04:00.000   22.434280375  114.335386858    63.5369   6   7   0.1006   0.1429   0.2085   0.0180   0.0841  -0.0963   0.00    0.0
2026/01/15 01:04:30.000   22.434280363  114.335386842    63.5369   6   8   0.0995   0.1414   0.2067   0.0178   0.0833  -0.0954   0.00    0.0
2026/01/15 01:05:00.000   22.434280350  114.335386834    63.5375   6   7   0.0984   0.1399   0.2049   0.0175   0.0825  -0.0945   0.00    0.0
2026/01/15 01:05:30.000   22.434280334  114.335386830    63.5390   6   7   0.0974   0.1384   0.2032   0.0173   0.0817  -0.0936   0.00    0.0
2026/01/15 01:06:00.000   22.434280316  114.335386822    63.5406   6   7   0.0963   0.1370   0.2014   0.0170   0.0809  -0.0927   0.00    0.0
2026/01/15 01:06:30.000   22.434280298  114.335386817    63.5428   6   7   0.0953   0.1356   0.1997   0.0168   0.0802  -0.0918   0.00    0.0
2026/01/15 01:07:00.000   22.434280282  114.335386805    63.5447   6   7   0.0943   0.1342   0.1980   0.0166   0.0794  -0.0909   0.00    0.0
2026/01/15 01:07:30.000   22.434280272  114.335386796    63.5462   6   8   0.0933   0.1328   0.1963   0.0163   0.0786  -0.0900   0.00    0.0
2026/01/15 01:08:00.000   22.434280260  114.335386794    63.5480   6   7   0.0924   0.1315   0.1946   0.0161   0.0778  -0.0892   0.00    0.0
2026/01/15 01:08:30.000   22.434280250  114.335386787    63.5494   6   7   0.0914   0.1301   0.1929   0.0159   0.0770  -0.0884   0.00    0.0
2026/01/15 01:09:00.000   22.434280239  114.335386781    63.5505   6   8   0.0905   0.1288   0.1913   0.0157   0.0762  -0.0875   0.00    0.0
2026/01/15 01:09:30.000   22.434280232  114.335386771    63.5506   6   8   0.0895   0.1275   0.1897   0.0155   0.0754  -0.0867   0.00    0.0
2026/01/15 01:10:00.000   22.434280224  114.335386763    63.5508   6   7   0.0886   0.1262   0.1881   0.0153   0.0746  -0.0859   0.00    0.0
2026/01/15 01:10:30.000   22.434280221  114.335386751    63.5503   6   7   0.0877   0.1250   0.1865   0.0151   0.0739  -0.0851   0.00    0.0
2026/01/15 01:11:00.000   22.434280218  114.335386742    63.5502   6   7   0.0869   0.1237   0.1849   0.0149   0.0731  -0.0843   0.00    0.0
2026/01/15 01:11:30.000   22.434280212  114.335386733    63.5509   6   7   0.0860   0.1225   0.1833   0.0147   0.0723  -0.0836   0.00    0.0
2026/01/15 01:12:00.000   22.434280207  114.335386722    63.5514   6   7   0.0851   0.1213   0.1818   0.0146   0.0715  -0.0828   0.00    0.0
2026/01/15 01:12:30.000   22.434280199  114.335386707    63.5522   6   7   0.0843   0.1201   0.1802   0.0144   0.0708  -0.0820   0.00    0.0
2026/01/15 01:13:00.000   22.434280192  114.335386698    63.5531   6   7   0.0835   0.1189   0.1787   0.0143   0.0700  -0.0813   0.00    0.0
2026/01/15 01:13:30.000   22.434280188  114.335386688    63.5542   6   8   0.0826   0.1177   0.1772   0.0141   0.0692  -0.0806   0.00    0.0
2026/01/15 01:14:00.000   22.434280183  114.335386677    63.5552   6   8   0.0818   0.1166   0.1757   0.0139   0.0685  -0.0798   0.00    0.0
2026/01/15 01:14:30.000   22.434280181  114.335386665    63.5553   6   8   0.0810   0.1154   0.1742   0.0138   0.0677  -0.0791   0.00    0.0
2026/01/15 01:15:00.000   22.434280180  114.335386654    63.5552   6   8   0.0803   0.1143   0.1728   0.0136   0.0670  -0.0784   0.00    0.0
2026/01/15 01:15:30.000   22.434280178  114.335386642    63.5546   6   8   0.0795   0.1132   0.1713   0.0135   0.0662  -0.0777   0.00    0.0
2026/01/15 01:16:00.000   22.434280179  114.335386627    63.5537   6   8   0.0787   0.1121   0.1699   0.0134   0.0654  -0.0770   0.00    0.0
2026/01/15 01:16:30.000   22.434280179  114.335386606    63.5526   6   8   0.0780   0.1111   0.1685   0.0133   0.0647  -0.0764   0.00    0.0
2026/01/15 01:17:00.000   22.434280178  114.335386582    63.5512   6   8   0.0773   0.1100   0.1671   0.0131   0.0640  -0.0757   0.00    0.0
2026/01/15 01:17:30.000   22.434280177  114.335386561    63.5500   6   8   0.0765   0.1090   0.1657   0.0130   0.0632  -0.0750   0.00    0.0
2026/01/15 01:18:00.000   22.434280176  114.335386541    63.5487   6   8   0.0758   0.1079   0.1643   0.0129   0.0625  -0.0744   0.00    0.0
2026/01/15 01:18:30.000   22.434280177  114.335386522    63.5471   6   8   0.0751   0.1069   0.1630   0.0128   0.0618  -0.0737   0.00    0.0
2026/01/15 01:19:00.000   22.434280178  114.335386508    63.5456   6   8   0.0744   0.1059   0.1616   0.0127   0.0610  -0.0731   0.00    0.0
2026/01/15 01:19:30.000   22.434280180  114.335386489    63.5434   6   8   0.0737   0.1049   0.1603   0.0126   0.0603  -0.0724   0.00    0.0
2026/01/15 01:20:00.000   22.434280182  114.335386473    63.5419   6   8   0.0731   0.1040   0.1590   0.0125   0.0596  -0.0718   0.00    0.0
2026/01/15 01:20:30.000   22.434280183  114.335386460    63.5404   6   8   0.0724   0.1030   0.1577   0.0124   0.0589  -0.0712   0.00    0.0
2026/01/15 01:21:00.000   22.434280184  114.335386445    63.5390   6   8   0.0717   0.1020   0.1564   0.0124   0.0582  -0.0706   0.00    0.0
2026/01/15 01:21:30.000   22.434280179  114.335386436    63.5387   6   7   0.0713   0.1014   0.1556   0.0106   0.0583  -0.0704   0.00    0.0
2026/01/15 01:22:00.000   22.434280174  114.335386428    63.5387   6   7   0.0708   0.1008   0.1548   0.0084   0.0585  -0.0703   0.00    0.0
2026/01/15 01:22:30.000   22.434280168  114.335386419    63.5389   6   7   0.0704   0.1002   0.1541   0.0057   0.0586  -0.0701   0.00    0.0
2026/01/15 01:23:00.000   22.434280162  114.335386407    63.5391   6   7   0.0699   0.0996   0.1533  -0.0022   0.0587  -0.0699   0.00    0.0
2026/01/15 01:23:30.000   22.434280158  114.335386397    63.5390   6   7   0.0695   0.0990   0.1525  -0.0064   0.0588  -0.0698   0.00    0.0
2026/01/15 01:24:00.000   22.434280156  114.335386384    63.5393   6   7   0.0690   0.0984   0.1518  -0.0087   0.0589  -0.0696   0.00    0.0
2026/01/15 01:24:30.000   22.434280155  114.335386372    63.5396   6   7   0.0686   0.0978   0.1510  -0.0104   0.0589  -0.0694   0.00    0.0
2026/01/15 01:25:00.000   22.434280154  114.335386359    63.5398   6   7   0.0682   0.0973   0.1503  -0.0119   0.0590  -0.0693   0.00    0.0
2026/01/15 01:25:30.000   22.434280152  114.335386347    63.5400   6   7   0.0677   0.0967   0.1495  -0.0131   0.0590  -0.0691   0.00    0.0
2026/01/15 01:26:00.000   22.434280149  114.335386338    63.5401   6   7   0.0673   0.0961   0.1488  -0.0142   0.0590  -0.0689   0.00    0.0
2026/01/15 01:26:30.000   22.434280147  114.335386334    63.5403   6   7   0.0669   0.0956   0.1480  -0.0152   0.0590  -0.0687   0.00    0.0
2026/01/15 01:27:00.000   22.434280145  114.335386332    63.5407   6   7   0.0665   0.0950   0.1473  -0.0161   0.0590  -0.0685   0.00    0.0
2026/01/15 01:27:30.000   22.434280142  114.335386328    63.5416   6   7   0.0661   0.0945   0.1465  -0.0169   0.0590  -0.0683   0.00    0.0
2026/01/15 01:28:00.000   22.434280139  114.335386327    63.5423   6   7   0.0657   0.0939   0.1458  -0.0176   0.0590  -0.0681   0.00    0.0
2026/01/15 01:28:30.000   22.434280136  114.335386329    63.5430   6   7   0.0653   0.0934   0.1450  -0.0183   0.0590  -0.0679   0.00    0.0
2026/01/15 01:29:00.000   22.434280132  114.335386327    63.5438   6   7   0.0649   0.0928   0.1443  -0.0189   0.0589  -0.0677   0.00    0.0
2026/01/15 01:29:30.000   22.434280129  114.335386323    63.5443   6   7   0.0645   0.0923   0.1436  -0.0195   0.0589  -0.0675   0.00    0.0
2026/01/15 01:30:00.000   22.434280127  114.335386318    63.5446   6   7   0.0641   0.0918   0.1428  -0.0200   0.0588  -0.0673   0.00    0.0
2026/01/15 01:30:30.000   22.434280125  114.335386314    63.5449   6   7   0.0637   0.0912   0.1421  -0.0205   0.0588  -0.0671   0.00    0.0
2026/01/15 01:31:00.000   22.434280124  114.335386313    63.5450   6   7   0.0633   0.0907   0.1414  -0.0210   0.0587  -0.0669   0.00    0.0
2026/01/15 01:31:30.000   22.434280123  114.335386311    63.5451   6   7   0.0630   0.0902   0.1406  -0.0214   0.0586  -0.0667   0.00    0.0
2026/01/15 01:32:00.000   22.434280120  114.335386307    63.5456   6   7   0.0626   0.0897   0.1399  -0.0218   0.0585  -0.0665   0.00    0.0
2026/01/15 01:32:30.000   22.434280117  114.335386301    63.5460   6   7   0.0622   0.0892   0.1392  -0.0222   0.0584  -0.0663   0.00    0.0
2026/01/15 01:33:00.000   22.434280113  114.335386294    63.5465   6   7   0.0619   0.0887   0.1385  -0.0226   0.0583  -0.0661   0.00    0.0
2026/01/15 01:33:30.000   22.434280109  114.335386288    63.5469   6   7   0.0615   0.0882   0.1377  -0.0229   0.0581  -0.0658   0.00    0.0
2026/01/15 01:34:00.000   22.434280108  114.335386282    63.5476   6   7   0.0611   0.0877   0.1370  -0.0232   0.0580  -0.0656   0.00    0.0
2026/01/15 01:34:30.000   22.434280104  114.335386277    63.5487   6   7   0.0608   0.0872   0.1363  -0.0235   0.0579  -0.0654   0.00    0.0
2026/01/15 01:35:00.000   22.434280100  114.335386274    63.5497   6   7   0.0604   0.0867   0.1356  -0.0238   0.0577  -0.0651   0.00    0.0
2026/01/15 01:35:30.000   22.434280095  114.335386274    63.5508   6   7   0.0601   0.0862   0.1348  -0.0241   0.0575  -0.0649   0.00    0.0
2026/01/15 01:36:00.000   22.434280090  114.335386275    63.5520   6   7   0.0597   0.0857   0.1341  -0.0243   0.0574  -0.0647   0.00    0.0
2026/01/15 01:36:30.000   22.434280085  114.335386278    63.5531   6   7   0.0594   0.0852   0.1334  -0.0245   0.0572  -0.0644   0.00    0.0
2026/01/15 01:37:00.000   22.434280082  114.335386282    63.5538   6   8   0.0591   0.0848   0.1327  -0.0247   0.0570  -0.0642   0.00    0.0
2026/01/15 01:37:30.000   22.434280079  114.335386286    63.5542   6   8   0.0587   0.0843   0.1320  -0.0249   0.0568  -0.0639   0.00    0.0
2026/01/15 01:38:00.000   22.434280076  114.335386288    63.5545   6   9   0.0584   0.0838   0.1313  -0.0251   0.0566  -0.0637   0.00    0.0
2026/01/15 01:38:30.000   22.434280073  114.335386288    63.5545   6   8   0.0580   0.0833   0.1305  -0.0252   0.0564  -0.0634   0.00    0.0
2026/01/15 01:39:00.000   22.434280069  114.335386286    63.5547   6   8   0.0577   0.0829   0.1298  -0.0254   0.0562  -0.0632   0.00    0.0
2026/01/15 01:39:30.000   22.434280065  114.335386279    63.5549   6   8   0.0574   0.0824   0.1291  -0.0255   0.0560  -0.0629   0.00    0.0
2026/01/15 01:40:00.000   22.434280060  114.335386272    63.5551   6   9   0.0571   0.0820   0.1284  -0.0256   0.0558  -0.0627   0.00    0.0
2026/01/15 01:40:30.000   22.434280058  114.335386265    63.5549   6   8   0.0567   0.0815   0.1277  -0.0258   0.0555  -0.0624   0.00    0.0
2026/01/15 01:41:00.000   22.434280056  114.335386260    63.5548   6   8   0.0564   0.0810   0.1270  -0.0259   0.0553  -0.0621   0.00    0.0
2026/01/15 01:41:30.000   22.434280053  114.335386256    63.5550   6   8   0.0561   0.0806   0.1262  -0.0260   0.0551  -0.0619   0.00    0.0
2026/01/15 01:42:00.000   22.434280048  114.335386252    63.5555   6   8   0.0558   0.0801   0.1255  -0.0260   0.0548  -0.0616   0.00    0.0
2026/01/15 01:42:30.000   22.434280044  114.335386250    63.5559   6   8   0.0555   0.0797   0.1248  -0.0261   0.0546  -0.0613   0.00    0.0
2026/01/15 01:43:00.000   22.434280041  114.335386248    63.5564   6   8   0.0551   0.0793   0.1241  -0.0262   0.0543  -0.0611   0.00    0.0
2026/01/15 01:43:30.000   22.434280036  114.335386249    63.5572   6   8   0.0548   0.0788   0.1234  -0.0262   0.0541  -0.0608   0.00    0.0
2026/01/15 01:44:00.000   22.434280032  114.335386248    63.5579   6   9   0.0545   0.0784   0.1227  -0.0263   0.0538  -0.0605   0.00    0.0
2026/01/15 01:44:30.000   22.434280028  114.335386247    63.5584   6   9   0.0542   0.0780   0.1220  -0.0263   0.0536  -0.0603   0.00    0.0
2026/01/15 01:45:00.000   22.434280025  114.335386243    63.5584   6   8   0.0539   0.0775   0.1213  -0.0264   0.0533  -0.0600   0.00    0.0
2026/01/15 01:45:30.000   22.434280022  114.335386239    63.5583   6   8   0.0536   0.0771   0.1206  -0.0264   0.0530  -0.0597   0.00    0.0
2026/01/15 01:46:00.000   22.434280019  114.335386234    63.5583   6   8   0.0533   0.0767   0.1199  -0.0264   0.0527  -0.0594   0.00    0.0
2026/01/15 01:46:30.000   22.434280015  114.335386229    63.5587   6   8   0.0530   0.0763   0.1192  -0.0264   0.0525  -0.0591   0.00    0.0
2026/01/15 01:47:00.000   22.434280009  114.335386221    63.5594   6   8   0.0527   0.0758   0.1185  -0.0264   0.0522  -0.0589   0.00    0.0
2026/01/15 01:47:30.000   22.434280005  114.335386214    63.5599   6   9   0.0524   0.0754   0.1178  -0.0264   0.0519  -0.0586   0.00    0.0
2026/01/15 01:48:00.000   22.434280000  114.335386206    63.5603   6   8   0.0521   0.0750   0.1171  -0.0264   0.0516  -0.0583   0.00    0.0
2026/01/15 01:48:30.000   22.434279996  114.335386198    63.5608   6   8   0.0518   0.0746   0.1164  -0.0264   0.0513  -0.0580   0.00    0.0
2026/01/15 01:49:00.000   22.434279992  114.335386192    63.5613   6   8   0.0515   0.0742   0.1157  -0.0264   0.0510  -0.0577   0.00    0.0
2026/01/15 01:49:30.000   22.434279987  114.335386188    63.5620   6   8   0.0512   0.0738   0.1150  -0.0264   0.0507  -0.0574   0.00    0.0
2026/01/15 01:50:00.000   22.434279983  114.335386187    63.5629   6   8   0.0510   0.0734   0.1143  -0.0264   0.0504  -0.0571   0.00    0.0
2026/01/15 01:50:30.000   22.434279978  114.335386185    63.5638   6   8   0.0507   0.0730   0.1136  -0.0263   0.0501  -0.0568   0.00    0.0
2026/01/15 01:51:00.000   22.434279973  114.335386184    63.5648   6   8   0.0504   0.0726   0.1129  -0.0263   0.0498  -0.0565   0.00    0.0
2026/01/15 01:51:30.000   22.434279968  114.335386185    63.5660   6   8   0.0501   0.0722   0.1123  -0.0263   0.0495  -0.0563   0.00    0.0
2026/01/15 01:52:00.000   22.434279962  114.335386187    63.5671   6   8   0.0498   0.0718   0.1116  -0.0262   0.0492  -0.0560   0.00    0.0
2026/01/15 01:52:30.000   22.434279957  114.335386188    63.5680   6   8   0.0495   0.0714   0.1109  -0.0262   0.0488  -0.0557   0.00    0.0
2026/01/15 01:53:00.000   22.434279952  114.335386188    63.5688   6  10   0.0493   0.0710   0.1102  -0.0261   0.0485  -0.0554   0.00    0.0
2026/01/15 01:53:30.000   22.434279947  114.335386187    63.5695   6   9   0.0490   0.0707   0.1095  -0.0261   0.0482  -0.0551   0.00    0.0
2026/01/15 01:54:00.000   22.434279943  114.335386185    63.5701   6   9   0.0487   0.0703   0.1089  -0.0260   0.0479  -0.0548   0.00    0.0
2026/01/15 01:54:30.000   22.434279938  114.335386183    63.5709   6   8   0.0484   0.0699   0.1082  -0.0260   0.0476  -0.0545   0.00    0.0
2026/01/15 01:55:00.000   22.434279933  114.335386181    63.5718   6   8   0.0482   0.0695   0.1075  -0.0259   0.0473  -0.0542   0.00    0.0
2026/01/15 01:55:30.000   22.434279928  114.335386179    63.5728   6   8   0.0479   0.0692   0.1068  -0.0258   0.0469  -0.0539   0.00    0.0
2026/01/15 01:56:00.000   22.434279924  114.335386174    63.5735   6  11   0.0476   0.0688   0.1062  -0.0258   0.0466  -0.0536   0.00    0.0
2026/01/15 01:56:30.000   22.434279921  114.335386172    63.5741   6   8   0.0474   0.0684   0.1055  -0.0257   0.0463  -0.0533   0.00    0.0
2026/01/15 01:57:00.000   22.434279920  114.335386168    63.5745   6   8   0.0471   0.0681   0.1049  -0.0256   0.0460  -0.0530   0.00    0.0
2026/01/15 01:57:30.000   22.434279918  114.335386164    63.5748   6   8   0.0469   0.0677   0.1042  -0.0256   0.0456  -0.0527   0.00    0.0
2026/01/15 01:58:00.000   22.434279915  114.335386159    63.5751   6   8   0.0466   0.0673   0.1035  -0.0255   0.0453  -0.0524   0.00    0.0
2026/01/15 01:58:30.000   22.434279911  114.335386154    63.5758   6   8   0.0463   0.0670   0.1029  -0.0254   0.0450  -0.0521   0.00    0.0
2026/01/15 01:59:00.000   22.434279906  114.335386149    63.5766   6   9   0.0461   0.0666   0.1022  -0.0253   0.0447  -0.0518   0.00    0.0
2026/01/15 01:59:30.000   22.434279900  114.335386145    63.5774   6   8   0.0458   0.0663   0.1016  -0.0252   0.0443  -0.0515   0.00    0.0
2026/01/15 02:00:00.000   22.434279895  114.335386142    63.5782   6   8   0.0456   0.0659   0.1010  -0.0251   0.0440  -0.0512   0.00    0.0
2026/01/15 02:00:30.000   22.434279888  114.335386139    63.5791   6   8   0.0453   0.0656   0.1003  -0.0251   0.0437  -0.0509   0.00    0.0
2026/01/15 02:01:00.000   22.434279883  114.335386135    63.5801   6   8   0.0451   0.0653   0.0997  -0.0250   0.0434  -0.0507   0.00    0.0
2026/01/15 02:01:30.000   22.434279878  114.335386132    63.5808   6   8   0.0448   0.0649   0.0990  -0.0249   0.0430  -0.0504   0.00    0.0
2026/01/15 02:02:00.000   22.434279873  114.335386130    63.5816   6   8   0.0446   0.0646   0.0984  -0.0248   0.0427  -0.0501   0.00    0.0
2026/01/15 02:02:30.000   22.434279870  114.335386126    63.5822   6   8   0.0443   0.0643   0.0978  -0.0247   0.0424  -0.0498   0.00    0.0
2026/01/15 02:03:00.000   22.434279866  114.335386123    63.5828   6   8   0.0441   0.0639   0.0972  -0.0246   0.0421  -0.0495   0.00    0.0
2026/01/15 02:03:30.000   22.434279862  114.335386121    63.5834   6   8   0.0438   0.0636   0.0965  -0.0245   0.0417  -0.0492   0.00    0.0
2026/01/15 02:04:00.000   22.434279857  114.335386122    63.5841   6   8   0.0436   0.0633   0.0959  -0.0244   0.0414  -0.0489   0.00    0.0
2026/01/15 02:04:30.000   22.434279853  114.335386122    63.5846   6   8   0.0433   0.0630   0.0953  -0.0243   0.0411  -0.0486   0.00    0.0
2026/01/15 02:05:00.000   22.434279848  114.335386123    63.5851   6   8   0.0431   0.0626   0.0947  -0.0242   0.0408  -0.0483   0.00    0.0
2026/01/15 02:05:30.000   22.434279843  114.335386123    63.5855   6   8   0.0429   0.0623   0.0941  -0.0241   0.0405  -0.0480   0.00    0.0
2026/01/15 02:06:00.000   22.434279840  114.335386121    63.5858   6   8   0.0426   0.0620   0.0935  -0.0240   0.0401  -0.0477   0.00    0.0
2026/01/15 02:06:30.000   22.434279836  114.335386117    63.5860   6   9   0.0424   0.0617   0.0929  -0.0239   0.0398  -0.0475   0.00    0.0
2026/01/15 02:07:00.000   22.434279833  114.335386113    63.5863   6   8   0.0422   0.0614   0.0923  -0.0238   0.0395  -0.0472   0.00    0.0
2026/01/15 02:07:30.000   22.434279829  114.335386111    63.5866   6  10   0.0419   0.0611   0.0917  -0.0237   0.0392  -0.0469   0.00    0.0
2026/01/15 02:08:00.000   22.434279826  114.335386111    63.5869   6   8   0.0417   0.0608   0.0911  -0.0236   0.0389  -0.0466   0.00    0.0
2026/01/15 02:08:30.000   22.434279822  114.335386110    63.5873   6   9   0.0415   0.0605   0.0905  -0.0235   0.0385  -0.0463   0.00    0.0
2026/01/15 02:09:00.000   22.434279819  114.335386110    63.5877   6   9   0.0413   0.0602   0.0899  -0.0234   0.0382  -0.0460   0.00    0.0
2026/01/15 02:09:30.000   22.434279815  114.335386108    63.5880   6  10   0.0410   0.0599   0.0893  -0.0233   0.0379  -0.0457   0.00    0.0
2026/01/15 02:10:00.000   22.434279811  114.335386105    63.5882   6   8   0.0408   0.0596   0.0888  -0.0232   0.0376  -0.0455   0.00    0.0
2026/01/15 02:10:30.000   22.434279807  114.335386103    63.5891   6   8   0.0406   0.0594   0.0885  -0.0231   0.0376  -0.0452   0.00    0.0
2026/01/15 02:11:00.000   22.434279803  114.335386102    63.5901   6   8   0.0404   0.0592   0.0881  -0.0230   0.0376  -0.0449   0.00    0.0
2026/01/15 02:11:30.000   22.434279798  114.335386104    63.5911   6   8   0.0401   0.0590   0.0878  -0.0229   0.0375  -0.0447   0.00    0.0
2026/01/15 02:12:00.000   22.434279794  114.335386108    63.5919   6   9   0.0399   0.0588   0.0875  -0.0228   0.0375  -0.0444   0.00    0.0
2026/01/15 02:12:30.000   22.434279790  114.335386110    63.5927   6   9   0.0397   0.0586   0.0872  -0.0227   0.0375  -0.0442   0.00    0.0
2026/01/15 02:13:00.000   22.434279787  114.335386113    63.5935   6   9   0.0395   0.0584   0.0869  -0.0226   0.0374  -0.0439   0.00    0.0
2026/01/15 02:13:30.000   22.434279784  114.335386115    63.5942   6   9   0.0393   0.0582   0.0865  -0.0225   0.0374  -0.0437   0.00    0.0
2026/01/15 02:14:00.000   22.434279781  114.335386117    63.5949   6   9   0.0391   0.0580   0.0862  -0.0225   0.0374  -0.0434   0.00    0.0
2026/01/15 02:14:30.000   22.434279777  114.335386118    63.5957   6   9   0.0389   0.0579   0.0859  -0.0224   0.0373  -0.0432   0.00    0.0
2026/01/15 02:15:00.000   22.434279774  114.335386118    63.5965   6   9   0.0387   0.0577   0.0856  -0.0223   0.0373  -0.0429   0.00    0.0
2026/01/15 02:15:30.000   22.434279772  114.335386118    63.5972   6   9   0.0385   0.0575   0.0853  -0.0222   0.0373  -0.0427   0.00    0.0
2026/01/15 02:16:00.000   22.434279769  114.335386117    63.5978   6   9   0.0383   0.0573   0.0850  -0.0221   0.0372  -0.0424   0.00    0.0
2026/01/15 02:16:30.000   22.434279766  114.335386117    63.5985   6   9   0.0380   0.0571   0.0847  -0.0220   0.0372  -0.0422   0.00    0.0
2026/01/15 02:17:00.000   22.434279764  114.335386117    63.5990   6   9   0.0378   0.0569   0.0843  -0.0219   0.0371  -0.0419   0.00    0.0
2026/01/15 02:17:30.000   22.434279762  114.335386117    63.5996   6   9   0.0376   0.0567   0.0840  -0.0218   0.0371  -0.0417   0.00    0.0
2026/01/15 02:18:00.000   22.434279759  114.335386117    63.6001   6   9   0.0374   0.0566   0.0837  -0.0218   0.0370  -0.0414   0.00    0.0
2026/01/15 02:18:30.000   22.434279756  114.335386117    63.6008   6   9   0.0373   0.0564   0.0834  -0.0217   0.0370  -0.0412   0.00    0.0
2026/01/15 02:19:00.000   22.434279752  114.335386117    63.6015   6   9   0.0371   0.0562   0.0831  -0.0216   0.0369  -0.0410   0.00    0.0
2026/01/15 02:19:30.000   22.434279749  114.335386117    63.6022   6   9   0.0369   0.0560   0.0828  -0.0215   0.0369  -0.0407   0.00    0.0
2026/01/15 02:20:00.000   22.434279745  114.335386117    63.6029   6   9   0.0367   0.0559   0.0825  -0.0214   0.0368  -0.0405   0.00    0.0
2026/01/15 02:20:30.000   22.434279741  114.335386117    63.6036   6   9   0.0365   0.0557   0.0822  -0.0213   0.0368  -0.0403   0.00    0.0
2026/01/15 02:21:00.000   22.434279737  114.335386118    63.6043   6   9   0.0363   0.0555   0.0818  -0.0212   0.0367  -0.0400   0.00    0.0
2026/01/15 02:21:30.000   22.434279734  114.335386116    63.6050   6   9   0.0361   0.0554   0.0815  -0.0212   0.0367  -0.0398   0.00    0.0
2026/01/15 02:22:00.000   22.434279729  114.335386117    63.6058   6   9   0.0359   0.0552   0.0812  -0.0211   0.0366  -0.0396   0.00    0.0
2026/01/15 02:22:30.000   22.434279724  114.335386116    63.6067   6   9   0.0357   0.0550   0.0809  -0.0210   0.0365  -0.0394   0.00    0.0
2026/01/15 02:23:00.000   22.434279719  114.335386117    63.6076   6   9   0.0355   0.0548   0.0806  -0.0209   0.0365  -0.0391   0.00    0.0
2026/01/15 02:23:30.000   22.434279715  114.335386116    63.6084   6   9   0.0354   0.0547   0.0803  -0.0208   0.0364  -0.0389   0.00    0.0
2026/01/15 02:24:00.000   22.434279712  114.335386117    63.6091   6   9   0.0352   0.0545   0.0800  -0.0207   0.0363  -0.0387   0.00    0.0
2026/01/15 02:24:30.000   22.434279708  114.335386117    63.6098   6   9   0.0350   0.0544   0.0797  -0.0207   0.0363  -0.0385   0.00    0.0
2026/01/15 02:25:00.000   22.434279704  114.335386115    63.6105   6   9   0.0348   0.0542   0.0794  -0.0206   0.0362  -0.0382   0.00    0.0
2026/01/15 02:25:30.000   22.434279700  114.335386113    63.6112   6  10   0.0346   0.0540   0.0791  -0.0205   0.0361  -0.0380   0.00    0.0
2026/01/15 02:26:00.000   22.434279697  114.335386113    63.6118   6   9   0.0345   0.0539   0.0788  -0.0204   0.0361  -0.0378   0.00    0.0
2026/01/15 02:26:30.000   22.434279693  114.335386112    63.6123   6   9   0.0343   0.0537   0.0785  -0.0203   0.0360  -0.0376   0.00    0.0
2026/01/15 02:27:00.000   22.434279690  114.335386111    63.6127   6   9   0.0341   0.0536   0.0782  -0.0203   0.0359  -0.0374   0.00    0.0
2026/01/15 02:27:30.000   22.434279687  114.335386109    63.6130   6  10   0.0339   0.0534   0.0779  -0.0202   0.0359  -0.0372   0.00    0.0
2026/01/15 02:28:00.000   22.434279684  114.335386107    63.6134   6  12   0.0338   0.0533   0.0775  -0.0201   0.0358  -0.0370   0.00    0.0
2026/01/15 02:28:30.000   22.434279681  114.335386104    63.6137   6  13   0.0336   0.0531   0.0772  -0.0200   0.0357  -0.0368   0.00    0.0
2026/01/15 02:29:00.000   22.434279679  114.335386103    63.6140   6  13   0.0334   0.0529   0.0769  -0.0199   0.0357  -0.0365   0.00    0.0
2026/01/15 02:29:30.000   22.434279675  114.335386102    63.6145   6  13   0.0333   0.0528   0.0766  -0.0199   0.0356  -0.0363   0.00    0.0
2026/01/15 02:30:00.000   22.434279672  114.335386102    63.6151   6   8   0.0331   0.0526   0.0763  -0.0198   0.0355  -0.0361   0.00    0.0
2026/01/15 02:30:30.000   22.434279668  114.335386102    63.6156   6   8   0.0329   0.0525   0.0760  -0.0197   0.0354  -0.0359   0.00    0.0
2026/01/15 02:31:00.000   22.434279664  114.335386104    63.6162   6   8   0.0328   0.0524   0.0757  -0.0196   0.0354  -0.0357   0.00    0.0
2026/01/15 02:31:30.000   22.434279660  114.335386107    63.6168   6   8   0.0326   0.0522   0.0754  -0.0196   0.0353  -0.0355   0.00    0.0
2026/01/15 02:32:00.000   22.434279655  114.335386109    63.6176   6   8   0.0324   0.0521   0.0752  -0.0195   0.0352  -0.0353   0.00    0.0
2026/01/15 02:32:30.000   22.434279651  114.335386110    63.6184   6   8   0.0323   0.0519   0.0749  -0.0194   0.0351  -0.0351   0.00    0.0
2026/01/15 02:33:00.000   22.434279647  114.335386111    63.6191   6   8   0.0321   0.0518   0.0746  -0.0194   0.0351  -0.0349   0.00    0.0
2026/01/15 02:33:30.000   22.434279642  114.335386112    63.6200   6  14   0.0320   0.0516   0.0743  -0.0193   0.0350  -0.0347   0.00    0.0
2026/01/15 02:34:00.000   22.434279637  114.335386114    63.6209   6  14   0.0318   0.0515   0.0740  -0.0192   0.0349  -0.0345   0.00    0.0
2026/01/15 02:34:30.000   22.434279633  114.335386116    63.6217   6  14   0.0317   0.0513   0.0737  -0.0191   0.0348  -0.0344   0.00    0.0
2026/01/15 02:35:00.000   22.434279628  114.335386117    63.6224   6  14   0.0315   0.0512   0.0734  -0.0191   0.0347  -0.0342   0.00    0.0
2026/01/15 02:35:30.000   22.434279625  114.335386115    63.6230   6  14   0.0314   0.0511   0.0731  -0.0190   0.0347  -0.0340   0.00    0.0
2026/01/15 02:36:00.000   22.434279621  114.335386112    63.6235   6  14   0.0312   0.0509   0.0728  -0.0189   0.0346  -0.0338   0.00    0.0
2026/01/15 02:36:30.000   22.434279619  114.335386110    63.6239   6  14   0.0311   0.0508   0.0725  -0.0189   0.0345  -0.0336   0.00    0.0
2026/01/15 02:37:00.000   22.434279616  114.335386106    63.6243   6  14   0.0309   0.0507   0.0722  -0.0188   0.0344  -0.0334   0.00    0.0
2026/01/15 02:37:30.000   22.434279613  114.335386101    63.6247   6  14   0.0308   0.0505   0.0719  -0.0187   0.0343  -0.0332   0.00    0.0
2026/01/15 02:38:00.000   22.434279611  114.335386096    63.6250   6  14   0.0306   0.0504   0.0716  -0.0187   0.0343  -0.0330   0.00    0.0
2026/01/15 02:38:30.000   22.434279608  114.335386093    63.6254   6  14   0.0305   0.0503   0.0713  -0.0186   0.0342  -0.0329   0.00    0.0
2026/01/15 02:39:00.000   22.434279604  114.335386089    63.6259   6  14   0.0303   0.0501   0.0710  -0.0185   0.0341  -0.0327   0.00    0.0
2026/01/15 02:39:30.000   22.434279600  114.335386087    63.6265   6  14   0.0302   0.0500   0.0707  -0.0185   0.0340  -0.0325   0.00    0.0
2026/01/15 02:40:00.000   22.434279597  114.335386083    63.6270   6  14   0.0300   0.0499   0.0705  -0.0184   0.0339  -0.0323   0.00    0.0
2026/01/15 02:40:30.000   22.434279593  114.335386081    63.6276   6  14   0.0299   0.0497   0.0702  -0.0183   0.0339  -0.0322   0.00    0.0
2026/01/15 02:41:00.000   22.434279589  114.335386078    63.6281   6  14   0.0297   0.0496   0.0699  -0.0183   0.0338  -0.0320   0.00    0.0
2026/01/15 02:41:30.000   22.434279586  114.335386077    63.6287   6  14   0.0296   0.0495   0.0696  -0.0182   0.0337  -0.0318   0.00    0.0
2026/01/15 02:42:00.000   22.434279582  114.335386077    63.6293   6  14   0.0295   0.0494   0.0693  -0.0181   0.0336  -0.0316   0.00    0.0
2026/01/15 02:42:30.000   22.434279579  114.335386076    63.6298   6  14   0.0293   0.0492   0.0690  -0.0181   0.0335  -0.0315   0.00    0.0
2026/01/15 02:43:00.000   22.434279575  114.335386074    63.6303   6  14   0.0292   0.0491   0.0687  -0.0180   0.0334  -0.0313   0.00    0.0
2026/01/15 02:43:30.000   22.434279571  114.335386073    63.6308   6  14   0.0291   0.0490   0.0685  -0.0180   0.0334  -0.0311   0.00    0.0
2026/01/15 02:44:00.000   22.434279567  114.335386072    63.6314   6  14   0.0289   0.0489   0.0682  -0.0179   0.0333  -0.0310   0.00    0.0
2026/01/15 02:44:30.000   22.434279563  114.335386072    63.6319   6  14   0.0288   0.0487   0.0679  -0.0178   0.0332  -0.0308   0.00    0.0
2026/01/15 02:45:00.000   22.434279560  114.335386071    63.6323   6  14   0.0287   0.0486   0.0676  -0.0178   0.0331  -0.0306   0.00    0.0
2026/01/15 02:45:30.000   22.434279557  114.335386069    63.6328   6  14   0.0285   0.0485   0.0673  -0.0177   0.0330  -0.0305   0.00    0.0
2026/01/15 02:46:00.000   22.434279553  114.335386067    63.6334   6  14   0.0284   0.0484   0.0671  -0.0177   0.0329  -0.0303   0.00    0.0
2026/01/15 02:46:30.000   22.434279549  114.335386066    63.6340   6  14   0.0283   0.0483   0.0668  -0.0176   0.0329  -0.0301   0.00    0.0
2026/01/15 02:47:00.000   22.434279544  114.335386065    63.6347   6  14   0.0281   0.0482   0.0665  -0.0176   0.0328  -0.0300   0.00    0.0
2026/01/15 02:47:30.000   22.434279539  114.335386064    63.6354   6  14   0.0280   0.0480   0.0662  -0.0175   0.0327  -0.0298   0.00    0.0
2026/01/15 02:48:00.000   22.434279534  114.335386062    63.6361   6  14   0.0279   0.0479   0.0659  -0.0174   0.0326  -0.0297   0.00    0.0
2026/01/15 02:48:30.000   22.434279529  114.335386061    63.6368   6  14   0.0278   0.0478   0.0657  -0.0174   0.0325  -0.0295   0.00    0.0
2026/01/15 02:49:00.000   22.434279525  114.335386059    63.6374   6  14   0.0276   0.0477   0.0654  -0.0173   0.0324  -0.0293   0.00    0.0
2026/01/15 02:49:30.000   22.434279521  114.335386056    63.6378   6  14   0.0275   0.0476   0.0651  -0.0173   0.0324  -0.0292   0.00    0.0
2026/01/15 02:50:00.000   22.434279516  114.335386053    63.6382   6  14   0.0274   0.0475   0.0648  -0.0172   0.0323  -0.0290   0.00    0.0
2026/01/15 02:50:30.000   22.434279512  114.335386051    63.6387   6  14   0.0273   0.0474   0.0646  -0.0172   0.0322  -0.0289   0.00    0.0
2026/01/15 02:51:00.000   22.434279509  114.335386047    63.6390   6  14   0.0271   0.0473   0.0643  -0.0171   0.0321  -0.0287   0.00    0.0
2026/01/15 02:51:30.000   22.434279504  114.335386045    63.6394   6  14   0.0270   0.0471   0.0640  -0.0171   0.0320  -0.0286   0.00    0.0
2026/01/15 02:52:00.000   22.434279500  114.335386042    63.6398   6  14   0.0269   0.0470   0.0638  -0.0170   0.0319  -0.0284   0.00    0.0
2026/01/15 02:52:30.000   22.434279496  114.335386039    63.6403   6  14   0.0268   0.0469   0.0635  -0.0170   0.0319  -0.0283   0.00    0.0
2026/01/15 02:53:00.000   22.434279492  114.335386036    63.6408   6  14   0.0267   0.0468   0.0632  -0.0169   0.0318  -0.0281   0.00    0.0
2026/01/15 02:53:30.000   22.434279488  114.335386033    63.6413   6  14   0.0266   0.0467   0.0630  -0.0169   0.0317  -0.0280   0.00    0.0
2026/01/15 02:54:00.000   22.434279484  114.335386030    63.6417   6  14   0.0264   0.0466   0.0627  -0.0168   0.0316  -0.0278   0.00    0.0
2026/01/15 02:54:30.000   22.434279480  114.335386027    63.6421   6  14   0.0263   0.0465   0.0624  -0.0168   0.0315  -0.0277   0.00    0.0
2026/01/15 02:55:00.000   22.434279476  114.335386024    63.6426   6  14   0.0262   0.0464   0.0622  -0.0167   0.0315  -0.0275   0.00    0.0
2026/01/15 02:55:30.000   22.434279473  114.335386022    63.6431   6  14   0.0261   0.0463   0.0619  -0.0167   0.0314  -0.0274   0.00    0.0
2026/01/15 02:56:00.000   22.434279469  114.335386020    63.6436   6  14   0.0260   0.0462   0.0616  -0.0166   0.0313  -0.0273   0.00    0.0
2026/01/15 02:56:30.000   22.434279465  114.335386018    63.6442   6  15   0.0259   0.0461   0.0614  -0.0166   0.0312  -0.0271   0.00    0.0
2026/01/15 02:57:00.000   22.434279462  114.335386016    63.6447   6  15   0.0258   0.0460   0.0611  -0.0165   0.0311  -0.0270   0.00    0.0
2026/01/15 02:57:30.000   22.434279458  114.335386014    63.6453   6  15   0.0256   0.0459   0.0609  -0.0165   0.0310  -0.0268   0.00    0.0
2026/01/15 02:58:00.000   22.434279454  114.335386013    63.6458   6  15   0.0255   0.0458   0.0606  -0.0165   0.0310  -0.0267   0.00    0.0
2026/01/15 02:58:30.000   22.434279450  114.335386009    63.6461   6  15   0.0254   0.0457   0.0603  -0.0164   0.0309  -0.0266   0.00    0.0
2026/01/15 02:59:00.000   22.434279447  114.335386007    63.6464   6  15   0.0253   0.0456   0.0601  -0.0164   0.0308  -0.0264   0.00    0.0
2026/01/15 02:59:30.000   22.434279443  114.335386005    63.6467   6  15   0.0252   0.0455   0.0598  -0.0163   0.0307  -0.0263   0.00    0.0
2026/01/15 03:00:00.000   22.434279439  114.335386001    63.6470   6  15   0.0251   0.0454   0.0596  -0.0163   0.0306  -0.0262   0.00    0.0
2026/01/15 03:00:30.000   22.434279435  114.335385997    63.6473   6  15   0.0250   0.0453   0.0593  -0.0162   0.0306  -0.0260   0.00    0.0
2026/01/15 03:01:00.000   22.434279431  114.335385993    63.6475   6  15   0.0249   0.0452   0.0591  -0.0162   0.0305  -0.0259   0.00    0.0
2026/01/15 03:01:30.000   22.434279427  114.335385989    63.6478   6  15   0.0248   0.0451   0.0588  -0.0162   0.0304  -0.0258   0.00    0.0
2026/01/15 03:02:00.000   22.434279423  114.335385987    63.6481   6  15   0.0247   0.0450   0.0586  -0.0161   0.0303  -0.0256   0.00    0.0
2026/01/15 03:02:30.000   22.434279419  114.335385984    63.6483   6  15   0.0246   0.0449   0.0583  -0.0161   0.0303  -0.0255   0.00    0.0
2026/01/15 03:03:00.000   22.434279415  114.335385981    63.6485   6  15   0.0245   0.0448   0.0581  -0.0160   0.0302  -0.0254   0.00    0.0
2026/01/15 03:03:30.000   22.434279411  114.335385977    63.6487   6  15   0.0244   0.0447   0.0578  -0.0160   0.0301  -0.0253   0.00    0.0
2026/01/15 03:04:00.000   22.434279408  114.335385974    63.6488   6  15   0.0243   0.0446   0.0576  -0.0160   0.0300  -0.0251   0.00    0.0
2026/01/15 03:04:30.000   22.434279404  114.335385970    63.6489   6  15   0.0242   0.0446   0.0573  -0.0159   0.0299  -0.0250   0.00    0.0
2026/01/15 03:05:00.000   22.434279400  114.335385966    63.6492   6  15   0.0241   0.0445   0.0571  -0.0159   0.0299  -0.0249   0.00    0.0
2026/01/15 03:05:30.000   22.434279396  114.335385962    63.6493   6  15   0.0240   0.0444   0.0568  -0.0158   0.0298  -0.0248   0.00    0.0
2026/01/15 03:06:00.000   22.434279393  114.335385959    63.6495   6  15   0.0239   0.0443   0.0566  -0.0158   0.0297  -0.0247   0.00    0.0
2026/01/15 03:06:30.000   22.434279390  114.335385954    63.6495   6  15   0.0238   0.0442   0.0564  -0.0158   0.0296  -0.0245   0.00    0.0
2026/01/15 03:07:00.000   22.434279386  114.335385949    63.6495   6  15   0.0237   0.0441   0.0561  -0.0157   0.0296  -0.0244   0.00    0.0
2026/01/15 03:07:30.000   22.434279383  114.335385943    63.6494   6  15   0.0236   0.0440   0.0559  -0.0157   0.0295  -0.0243   0.00    0.0
2026/01/15 03:08:00.000   22.434279379  114.335385937    63.6494   6  15   0.0235   0.0439   0.0556  -0.0157   0.0294  -0.0242   0.00    0.0
2026/01/15 03:08:30.000   22.434279376  114.335385931    63.6493   6  15   0.0234   0.0439   0.0554  -0.0156   0.0293  -0.0241   0.00    0.0
2026/01/15 03:09:00.000   22.434279373  114.335385924    63.6492   6  15   0.0233   0.0438   0.0552  -0.0156   0.0293  -0.0239   0.00    0.0
2026/01/15 03:09:30.000   22.434279369  114.335385917    63.6492   6  15   0.0232   0.0437   0.0549  -0.0156   0.0292  -0.0238   0.00    0.0
2026/01/15 03:10:00.000   22.434279366  114.335385910    63.6489   6  15   0.0231   0.0436   0.0547  -0.0155   0.0291  -0.0237   0.00    0.0
2026/01/15 03:10:30.000   22.434279363  114.335385903    63.6487   6  15   0.0230   0.0435   0.0545  -0.0155   0.0291  -0.0236   0.00    0.0
2026/01/15 03:11:00.000   22.434279359  114.335385896    63.6485   6  15   0.0229   0.0434   0.0543  -0.0155   0.0290  -0.0235   0.00    0.0
2026/01/15 03:11:30.000   22.434279356  114.335385890    63.6483   6  15   0.0228   0.0434   0.0541  -0.0155   0.0290  -0.0234   0.00    0.0
2026/01/15 03:12:00.000   22.434279353  114.335385883    63.6480   6  15   0.0228   0.0433   0.0538  -0.0154   0.0289  -0.0233   0.00    0.0
2026/01/15 03:12:30.000   22.434279349  114.335385876    63.6478   6  15   0.0227   0.0432   0.0536  -0.0154   0.0288  -0.0232   0.00    0.0
2026/01/15 03:13:00.000   22.434279347  114.335385877    63.6481   6  14   0.0226   0.0432   0.0534  -0.0153   0.0288  -0.0231   0.00    0.0
2026/01/15 03:13:30.000   22.434279345  114.335385878    63.6484   6  14   0.0225   0.0431   0.0532  -0.0153   0.0288  -0.0230   0.00    0.0
2026/01/15 03:14:00.000   22.434279343  114.335385879    63.6488   6  14   0.0224   0.0431   0.0530  -0.0152   0.0288  -0.0228   0.00    0.0
2026/01/15 03:14:30.000   22.434279340  114.335385881    63.6492   6  14   0.0223   0.0430   0.0528  -0.0152   0.0288  -0.0227   0.00    0.0
2026/01/15 03:15:00.000   22.434279338  114.335385883    63.6498   6  14   0.0223   0.0430   0.0526  -0.0151   0.0287  -0.0226   0.00    0.0
2026/01/15 03:15:30.000   22.434279335  114.335385886    63.6503   6  14   0.0222   0.0430   0.0525  -0.0151   0.0287  -0.0225   0.00    0.0
2026/01/15 03:16:00.000   22.434279332  114.335385889    63.6507   6  14   0.0221   0.0429   0.0523  -0.0150   0.0287  -0.0224   0.00    0.0
2026/01/15 03:16:30.000   22.434279331  114.335385891    63.6513   6  14   0.0220   0.0429   0.0521  -0.0150   0.0287  -0.0223   0.00    0.0
2026/01/15 03:17:00.000   22.434279329  114.335385893    63.6518   6  14   0.0220   0.0428   0.0519  -0.0149   0.0287  -0.0221   0.00    0.0
2026/01/15 03:17:30.000   22.434279327  114.335385895    63.6524   6  14   0.0219   0.0428   0.0517  -0.0149   0.0287  -0.0220   0.00    0.0
2026/01/15 03:18:00.000   22.434279326  114.335385895    63.6529   6  14   0.0218   0.0428   0.0516  -0.0148   0.0287  -0.0219   0.00    0.0
2026/01/15 03:18:30.000   22.434279324  114.335385896    63.6535   6  14   0.0217   0.0427   0.0514  -0.0148   0.0286  -0.0218   0.00    0.0
2026/01/15 03:19:00.000   22.434279323  114.335385898    63.6540   6  14   0.0217   0.0427   0.0513  -0.0147   0.0286  -0.0216   0.00    0.0
2026/01/15 03:19:30.000   22.434279321  114.335385899    63.6546   6  14   0.0216   0.0426   0.0511  -0.0147   0.0286  -0.0215   0.00    0.0
2026/01/15 03:20:00.000   22.434279320  114.335385900    63.6551   6  14   0.0215   0.0426   0.0509  -0.0146   0.0286  -0.0214   0.00    0.0
2026/01/15 03:20:30.000   22.434279318  114.335385901    63.6556   6  14   0.0215   0.0426   0.0508  -0.0146   0.0286  -0.0213   0.00    0.0
2026/01/15 03:21:00.000   22.434279317  114.335385901    63.6559   6  14   0.0214   0.0425   0.0506  -0.0145   0.0286  -0.0211   0.00    0.0
2026/01/15 03:21:30.000   22.434279316  114.335385901    63.6563   6  14   0.0213   0.0425   0.0504  -0.0145   0.0286  -0.0210   0.00    0.0
2026/01/15 03:22:00.000   22.434279314  114.335385902    63.6567   6  14   0.0213   0.0425   0.0503  -0.0144   0.0286  -0.0209   0.00    0.0
2026/01/15 03:22:30.000   22.434279313  114.335385902    63.6572   6  14   0.0212   0.0424   0.0501  -0.0144   0.0286  -0.0208   0.00    0.0
2026/01/15 03:23:00.000   22.434279312  114.335385903    63.6576   6  14   0.0211   0.0424   0.0500  -0.0143   0.0286  -0.0207   0.00    0.0
2026/01/15 03:23:30.000   22.434279311  114.335385903    63.6579   6  14   0.0211   0.0424   0.0498  -0.0143   0.0286  -0.0206   0.00    0.0
2026/01/15 03:24:00.000   22.434279310  114.335385902    63.6582   6  14   0.0210   0.0423   0.0497  -0.0142   0.0286  -0.0204   0.00    0.0
2026/01/15 03:24:30.000   22.434279309  114.335385901    63.6584   6   9   0.0210   0.0423   0.0495  -0.0142   0.0286  -0.0203   0.00    0.0
2026/01/15 03:25:00.000   22.434279309  114.335385901    63.6586   6   9   0.0209   0.0423   0.0494  -0.0141   0.0286  -0.0202   0.00    0.0
2026/01/15 03:25:30.000   22.434279308  114.335385901    63.6589   6   9   0.0208   0.0422   0.0493  -0.0141   0.0286  -0.0201   0.00    0.0
2026/01/15 03:26:00.000   22.434279307  114.335385902    63.6592   6   9   0.0208   0.0422   0.0491  -0.0140   0.0286  -0.0201   0.00    0.0
2026/01/15 03:26:30.000   22.434279306  114.335385903    63.6595   6   9   0.0207   0.0422   0.0490  -0.0140   0.0286  -0.0200   0.00    0.0
2026/01/15 03:27:00.000   22.434279305  114.335385904    63.6597   6   9   0.0207   0.0421   0.0489  -0.0140   0.0286  -0.0199   0.00    0.0
2026/01/15 03:27:30.000   22.434279305  114.335385905    63.6600   6   9   0.0206   0.0421   0.0488  -0.0139   0.0286  -0.0198   0.00    0.0
