% program   : RTKLIB ver.EX 2.5.0
% inp file  : C:\PPP_PROJECT\RTKLIB_work\runs\KIRU_EXP2_2B_20260508_132815\KIRU00SWE_R_20260150000_01D_30S_MO.rnx
% inp file  : C:\PPP_PROJECT\RTKLIB_work\runs\KIRU_EXP2_2B_20260508_132815\BRDC00IGS_R_20260150000_01D_MN.rnx
% inp file  : C:\PPP_PROJECT\RTKLIB_work\runs\KIRU_EXP2_2B_20260508_132815\COD0MGXFIN_20260150000_01D_05M_ORB.SP3
% inp file  : C:\PPP_PROJECT\RTKLIB_work\runs\KIRU_EXP2_2B_20260508_132815\COD0MGXFIN_20260150000_01D_30S_CLK.CLK
% inp file  : C:\PPP_PROJECT\RTKLIB_work\runs\KIRU_EXP2_2B_20260508_132815
% inp file  : C:\PPP_PROJECT\RTKLIB_work\runs\KIRU_EXP2_2B_20260508_132815
% obs start : 2026/01/15 00:00:00.0 GPST (week2401 345600.0s)
% obs end   : 2026/01/15 23:59:30.0 GPST (week2401 431970.0s)
% pos mode  : PPP Static
% freqs     : L1+L2/E5b
% solution  : Forward
% elev mask : 15.0 deg
% dynamics  : on
% tidecorr  :
% ionos opt : Iono-Free LC
% tropo opt : Saastamoinen
% ephemeris : Precise
% navi sys  : GPS Galileo
% antenna1  : SEPCHOKE_B3E6   SPKE  ( 0.0000  0.0000  0.0620)
%
% (lat/lon/height=WGS84/ellipsoidal,Q=1:fix,2:float,3:sbas,4:dgps,5:single,6:ppp,ns=# of satellites)
%  GPST                  latitude(deg) longitude(deg)  height(m)   Q  ns   sdn(m)   sde(m)   sdu(m)  sdne(m)  sdeu(m)  sdun(m) age(s)  ratio
2026/01/15 00:00:00.000   67.857350233   20.968478994   392.0268   6  15   2.9680   2.7905   7.2451  -0.7272  -1.3239   2.6394   0.00    0.0
2026/01/15 00:01:00.000   67.857350084   20.968471880   391.5858   6  16   1.6637   1.5019   4.0925   0.2264  -1.0071   1.5751   0.00    0.0
2026/01/15 00:01:30.000   67.857350796   20.968468332   391.8976   6   7   1.4356   1.2929   3.5286   0.2280  -0.8888   1.3589   0.00    0.0
2026/01/15 00:10:00.000   67.857351037   20.968467724   391.5088   6  16   0.5818   0.5592   1.3004   0.1454  -0.4163   0.3968   0.00    0.0
2026/01/15 00:10:30.000   67.857351128   20.968467378   391.4687   6  10   0.5586   0.5423   1.1971   0.1564  -0.3840   0.3348   0.00    0.0
2026/01/15 00:14:30.000   67.857351248   20.968466397   391.4672   6   5   0.4881   0.4651   1.0760   0.1070  -0.3435   0.3248   0.00    0.0
2026/01/15 00:15:30.000   67.857351050   20.968466570   391.3466   6  13   0.4607   0.4451   0.9416   0.1168  -0.3010   0.2438   0.00    0.0
2026/01/15 00:17:30.000   67.857350852   20.968467087   391.2644   6   9   0.4293   0.4193   0.8473   0.1070  -0.2772   0.1980   0.00    0.0
2026/01/15 00:18:00.000   67.857350814   20.968467136   391.2474   6   9   0.4187   0.4109   0.8020   0.1117  -0.2623   0.1541   0.00    0.0
2026/01/15 00:18:30.000   67.857350674   20.968466749   391.2161   6  18   0.4019   0.4008   0.7394   0.1095  -0.2491   0.0774   0.00    0.0
2026/01/15 00:19:00.000   67.857350584   20.968466642   391.2036   6   9   0.3950   0.3941   0.7153   0.1103  -0.2409   0.0156   0.00    0.0
2026/01/15 00:20:00.000   67.857350625   20.968466738   391.1821   6  11   0.3845   0.3833   0.6888   0.1078  -0.2316  -0.0570   0.00    0.0
2026/01/15 00:20:30.000   67.857350666   20.968466296   391.1602   6  18   0.3736   0.3754   0.6538   0.1047  -0.2231  -0.1003   0.00    0.0
2026/01/15 00:21:00.000   67.857350665   20.968466460   391.1495   6  10   0.3685   0.3701   0.6379   0.1046  -0.2176  -0.1122   0.00    0.0
2026/01/15 00:21:30.000   67.857350651   20.968466403   391.1278   6   9   0.3637   0.3660   0.6241   0.1032  -0.2142  -0.1200   0.00    0.0
2026/01/15 00:22:00.000   67.857350651   20.968466331   391.1131   6  17   0.3572   0.3595   0.6023   0.0994  -0.2079  -0.1347   0.00    0.0
2026/01/15 00:22:30.000   67.857350652   20.968466555   391.0952   6   9   0.3530   0.3557   0.5908   0.0980  -0.2050  -0.1385   0.00    0.0
2026/01/15 00:23:00.000   67.857350732   20.968466630   391.0822   6   9   0.3488   0.3510   0.5793   0.0979  -0.2005  -0.1426   0.00    0.0
2026/01/15 00:25:00.000   67.857350554   20.968465989   391.0880   6  16   0.3327   0.3353   0.5504   0.0902  -0.1905  -0.1439   0.00    0.0
2026/01/15 00:25:30.000   67.857350644   20.968466071   391.0845   6  14   0.3268   0.3308   0.5346   0.0903  -0.1850  -0.1502   0.00    0.0
2026/01/15 00:26:00.000   67.857350698   20.968466136   391.0782   6   8   0.3236   0.3267   0.5251   0.0905  -0.1805  -0.1513   0.00    0.0
2026/01/15 00:26:30.000   67.857350759   20.968466181   391.0661   6  14   0.3197   0.3227   0.5117   0.0901  -0.1759  -0.1551   0.00    0.0
2026/01/15 00:27:00.000   67.857350800   20.968466161   391.0607   6  15   0.3148   0.3192   0.4998   0.0899  -0.1716  -0.1580   0.00    0.0
2026/01/15 00:27:30.000   67.857350782   20.968466214   391.0584   6   8   0.3119   0.3159   0.4918   0.0900  -0.1678  -0.1581   0.00    0.0
2026/01/15 00:28:00.000   67.857350707   20.968466179   391.0533   6  11   0.3086   0.3127   0.4810   0.0896  -0.1640  -0.1600   0.00    0.0
2026/01/15 00:28:30.000   67.857350777   20.968465948   391.0491   6  14   0.3041   0.3095   0.4710   0.0891  -0.1605  -0.1615   0.00    0.0
2026/01/15 00:29:00.000   67.857350816   20.968465854   391.0451   6  15   0.3001   0.3064   0.4617   0.0885  -0.1572  -0.1625   0.00    0.0
2026/01/15 00:29:30.000   67.857350817   20.968465564   391.0356   6  15   0.2963   0.3035   0.4528   0.0880  -0.1540  -0.1631   0.00    0.0
2026/01/15 00:30:00.000   67.857350840   20.968465592   391.0243   6  16   0.2927   0.3005   0.4444   0.0874  -0.1510  -0.1635   0.00    0.0
2026/01/15 00:30:30.000   67.857350977   20.968465702   391.0169   6  15   0.2893   0.2977   0.4392   0.0867  -0.1483  -0.1628   0.00    0.0
2026/01/15 00:31:00.000   67.857351013   20.968465718   391.0196   6  15   0.2861   0.2949   0.4342   0.0860  -0.1456  -0.1620   0.00    0.0
2026/01/15 00:31:30.000   67.857350973   20.968465663   391.0336   6  15   0.2831   0.2922   0.4292   0.0855  -0.1430  -0.1613   0.00    0.0
2026/01/15 00:32:00.000   67.857351034   20.968465691   391.0335   6  16   0.2802   0.2895   0.4244   0.0849  -0.1404  -0.1605   0.00    0.0
2026/01/15 00:32:30.000   67.857351048   20.968465528   391.0413   6  16   0.2773   0.2868   0.4196   0.0843  -0.1379  -0.1597   0.00    0.0
2026/01/15 00:33:00.000   67.857351091   20.968465513   391.0458   6  16   0.2746   0.2842   0.4148   0.0837  -0.1355  -0.1590   0.00    0.0
2026/01/15 00:33:30.000   67.857351123   20.968465460   391.0509   6  15   0.2722   0.2818   0.4102   0.0823  -0.1330  -0.1584   0.00    0.0
2026/01/15 00:34:00.000   67.857351158   20.968465323   391.0506   6  16   0.2698   0.2794   0.4056   0.0809  -0.1305  -0.1578   0.00    0.0
2026/01/15 00:34:30.000   67.857351163   20.968465352   391.0569   6  16   0.2676   0.2770   0.4010   0.0795  -0.1280  -0.1572   0.00    0.0
2026/01/15 00:35:00.000   67.857351195   20.968465275   391.0582   6  16   0.2654   0.2747   0.3965   0.0782  -0.1255  -0.1566   0.00    0.0
2026/01/15 00:35:30.000   67.857351221   20.968465360   391.0612   6  16   0.2632   0.2724   0.3920   0.0769  -0.1231  -0.1561   0.00    0.0
2026/01/15 00:36:00.000   67.857351209   20.968465386   391.0644   6  15   0.2611   0.2702   0.3877   0.0756  -0.1209  -0.1556   0.00    0.0
2026/01/15 00:36:30.000   67.857351186   20.968465138   391.0680   6  14   0.2590   0.2679   0.3833   0.0743  -0.1187  -0.1551   0.00    0.0
2026/01/15 00:37:00.000   67.857351158   20.968464974   391.0700   6  15   0.2570   0.2658   0.3790   0.0730  -0.1166  -0.1546   0.00    0.0
2026/01/15 00:37:30.000   67.857351171   20.968464939   391.0684   6  15   0.2549   0.2636   0.3748   0.0717  -0.1145  -0.1542   0.00    0.0
2026/01/15 00:38:00.000   67.857351194   20.968464956   391.0644   6   8   0.2536   0.2615   0.3718   0.0711  -0.1123  -0.1533   0.00    0.0
2026/01/15 00:38:30.000   67.857351216   20.968464917   391.0610   6  15   0.2515   0.2594   0.3675   0.0698  -0.1103  -0.1529   0.00    0.0
2026/01/15 00:39:00.000   67.857351220   20.968464800   391.0620   6  15   0.2497   0.2573   0.3633   0.0688  -0.1086  -0.1529   0.00    0.0
2026/01/15 00:39:30.000   67.857351265   20.968464743   391.0558   6  15   0.2478   0.2552   0.3592   0.0678  -0.1070  -0.1528   0.00    0.0
2026/01/15 00:40:00.000   67.857351290   20.968464708   391.0555   6  16   0.2460   0.2531   0.3552   0.0669  -0.1054  -0.1528   0.00    0.0
2026/01/15 00:40:30.000   67.857351261   20.968464614   391.0544   6  16   0.2442   0.2511   0.3511   0.0659  -0.1038  -0.1527   0.00    0.0
2026/01/15 00:41:00.000   67.857351256   20.968464528   391.0538   6  16   0.2424   0.2490   0.3471   0.0649  -0.1023  -0.1525   0.00    0.0
2026/01/15 00:41:30.000   67.857351284   20.968464447   391.0495   6  16   0.2407   0.2470   0.3432   0.0639  -0.1009  -0.1525   0.00    0.0
2026/01/15 00:42:00.000   67.857351286   20.968464549   391.0524   6  14   0.2389   0.2454   0.3394   0.0627  -0.0988  -0.1524   0.00    0.0
2026/01/15 00:42:30.000   67.857351295   20.968464546   391.0501   6  14   0.2372   0.2438   0.3357   0.0615  -0.0966  -0.1523   0.00    0.0
2026/01/15 00:43:00.000   67.857351315   20.968464474   391.0466   6  15   0.2356   0.2422   0.3320   0.0603  -0.0946  -0.1523   0.00    0.0
2026/01/15 00:43:30.000   67.857351358   20.968464578   391.0449   6  15   0.2339   0.2407   0.3284   0.0590  -0.0925  -0.1522   0.00    0.0
2026/01/15 00:44:00.000   67.857351388   20.968464511   391.0423   6  14   0.2322   0.2392   0.3248   0.0577  -0.0905  -0.1521   0.00    0.0
2026/01/15 00:44:30.000   67.857351401   20.968464558   391.0395   6  13   0.2306   0.2377   0.3212   0.0566  -0.0885  -0.1519   0.00    0.0
2026/01/15 00:45:00.000   67.857351378   20.968464488   391.0380   6  16   0.2289   0.2363   0.3177   0.0554  -0.0866  -0.1517   0.00    0.0
2026/01/15 00:45:30.000   67.857351369   20.968464462   391.0378   6  16   0.2272   0.2349   0.3142   0.0542  -0.0846  -0.1514   0.00    0.0
2026/01/15 00:46:00.000   67.857351351   20.968464527   391.0371   6  14   0.2255   0.2335   0.3107   0.0530  -0.0827  -0.1512   0.00    0.0
2026/01/15 00:46:30.000   67.857351409   20.968464528   391.0351   6  13   0.2239   0.2322   0.3079   0.0519  -0.0803  -0.1508   0.00    0.0
2026/01/15 00:47:00.000   67.857351427   20.968464604   391.0401   6  16   0.2223   0.2310   0.3052   0.0509  -0.0778  -0.1504   0.00    0.0
2026/01/15 00:47:30.000   67.857351433   20.968464582   391.0445   6  14   0.2208   0.2298   0.3025   0.0498  -0.0752  -0.1500   0.00    0.0
2026/01/15 00:48:00.000   67.857351445   20.968464624   391.0502   6  15   0.2194   0.2286   0.2998   0.0491  -0.0728  -0.1497   0.00    0.0
2026/01/15 00:48:30.000   67.857351453   20.968464621   391.0512   6  15   0.2184   0.2274   0.2972   0.0484  -0.0703  -0.1493   0.00    0.0
2026/01/15 00:49:00.000   67.857351456   20.968464647   391.0553   6  14   0.2172   0.2263   0.2947   0.0474  -0.0677  -0.1492   0.00    0.0
2026/01/15 00:49:30.000   67.857351459   20.968464676   391.0595   6  13   0.2159   0.2252   0.2921   0.0465  -0.0652  -0.1491   0.00    0.0
2026/01/15 00:50:30.000   67.857351487   20.968464751   391.0590   6   7   0.2144   0.2233   0.2893   0.0450  -0.0620  -0.1478   0.00    0.0
2026/01/15 00:51:00.000   67.857351528   20.968464821   391.0611   6  15   0.2131   0.2222   0.2867   0.0439  -0.0593  -0.1478   0.00    0.0
2026/01/15 00:51:30.000   67.857351565   20.968464870   391.0632   6  15   0.2118   0.2212   0.2841   0.0429  -0.0566  -0.1478   0.00    0.0
2026/01/15 00:52:00.000   67.857351566   20.968464887   391.0676   6  13   0.2106   0.2201   0.2815   0.0417  -0.0538  -0.1478   0.00    0.0
2026/01/15 00:52:30.000   67.857351560   20.968464876   391.0717   6  13   0.2093   0.2191   0.2789   0.0406  -0.0510  -0.1477   0.00    0.0
2026/01/15 00:53:00.000   67.857351574   20.968464911   391.0729   6  13   0.2081   0.2180   0.2764   0.0394  -0.0482  -0.1476   0.00    0.0
2026/01/15 00:53:30.000   67.857351566   20.968464963   391.0754   6   7   0.2072   0.2170   0.2740   0.0387  -0.0450  -0.1471   0.00    0.0
2026/01/15 00:54:00.000   67.857351584   20.968465034   391.0778   6  14   0.2060   0.2160   0.2716   0.0372  -0.0419  -0.1470   0.00    0.0
2026/01/15 00:54:30.000   67.857351594   20.968464989   391.0790   6   9   0.2051   0.2151   0.2693   0.0361  -0.0384  -0.1466   0.00    0.0
2026/01/15 00:55:30.000   67.857351602   20.968464982   391.0830   6  13   0.2032   0.2134   0.2664   0.0337  -0.0344  -0.1459   0.00    0.0
2026/01/15 00:56:00.000   67.857351622   20.968464949   391.0848   6  14   0.2020   0.2124   0.2639   0.0320  -0.0305  -0.1459   0.00    0.0
2026/01/15 00:56:30.000   67.857351623   20.968464803   391.0859   6   8   0.2012   0.2115   0.2616   0.0309  -0.0256  -0.1454   0.00    0.0
2026/01/15 01:01:00.000   67.857351658   20.968464814   391.0791   6   5   0.1969   0.2058   0.2589   0.0237  -0.0218  -0.1405   0.00    0.0
2026/01/15 01:02:00.000   67.857351676   20.968464776   391.0755   6   4   0.1960   0.2046   0.2583   0.0219  -0.0209  -0.1394   0.00    0.0
2026/01/15 01:02:30.000   67.857351687   20.968464757   391.0738   6   5   0.1956   0.2040   0.2580   0.0209  -0.0204  -0.1389   0.00    0.0
2026/01/15 01:03:00.000   67.857351691   20.968464661   391.0760   6  15   0.1950   0.2031   0.2543   0.0203  -0.0079  -0.1391   0.00    0.0
2026/01/15 01:03:30.000   67.857351708   20.968464560   391.0764   6  12   0.1944   0.2024   0.2509   0.0197   0.0161  -0.1393   0.00    0.0
2026/01/15 01:04:00.000   67.857351712   20.968464557   391.0778   6  14   0.1938   0.2016   0.2476   0.0190   0.0236  -0.1395   0.00    0.0
2026/01/15 01:04:30.000   67.857351683   20.968464500   391.0823   6  14   0.1932   0.2009   0.2444   0.0183   0.0289  -0.1396   0.00    0.0
2026/01/15 01:05:00.000   67.857351697   20.968464465   391.0825   6   9   0.1927   0.2001   0.2417   0.0176   0.0331  -0.1393   0.00    0.0
2026/01/15 01:05:30.000   67.857351705   20.968464433   391.0827   6  14   0.1922   0.1994   0.2388   0.0168   0.0365  -0.1394   0.00    0.0
2026/01/15 01:06:00.000   67.857351718   20.968464484   391.0827   6  14   0.1916   0.1987   0.2360   0.0159   0.0394  -0.1394   0.00    0.0
2026/01/15 01:06:30.000   67.857351716   20.968464455   391.0837   6  11   0.1911   0.1980   0.2333   0.0150   0.0420  -0.1394   0.00    0.0
2026/01/15 01:07:00.000   67.857351727   20.968464366   391.0836   6  14   0.1906   0.1973   0.2307   0.0139   0.0442  -0.1394   0.00    0.0
2026/01/15 01:07:30.000   67.857351710   20.968464342   391.0864   6  11   0.1900   0.1967   0.2282   0.0128   0.0462  -0.1393   0.00    0.0
2026/01/15 01:08:00.000   67.857351695   20.968464282   391.0889   6  12   0.1895   0.1960   0.2257   0.0115   0.0480  -0.1393   0.00    0.0
2026/01/15 01:08:30.000   67.857351707   20.968464264   391.0897   6   7   0.1891   0.1954   0.2236   0.0102   0.0496  -0.1390   0.00    0.0
2026/01/15 01:09:00.000   67.857351695   20.968464266   391.0914   6  13   0.1886   0.1947   0.2213   0.0084   0.0511  -0.1389   0.00    0.0
2026/01/15 01:09:30.000   67.857351682   20.968464271   391.0937   6   7   0.1881   0.1941   0.2193   0.0065   0.0524  -0.1387   0.00    0.0
2026/01/15 01:10:00.000   67.857351670   20.968464240   391.0954   6  13   0.1876   0.1935   0.2171   0.0028   0.0536  -0.1386   0.00    0.0
2026/01/15 01:10:30.000   67.857351657   20.968464172   391.0977   6  15   0.1870   0.1928   0.2149  -0.0052   0.0547  -0.1385   0.00    0.0
2026/01/15 01:11:00.000   67.857351647   20.968464174   391.0989   6  15   0.1865   0.1922   0.2129  -0.0079   0.0557  -0.1384   0.00    0.0
2026/01/15 01:11:30.000   67.857351650   20.968464141   391.0990   6  15   0.1860   0.1916   0.2109  -0.0099   0.0566  -0.1382   0.00    0.0
2026/01/15 01:12:00.000   67.857351676   20.968464144   391.0971   6   9   0.1855   0.1910   0.2091  -0.0112   0.0575  -0.1379   0.00    0.0
2026/01/15 01:12:30.000   67.857351649   20.968464113   391.0989   6  15   0.1850   0.1904   0.2071  -0.0129   0.0582  -0.1378   0.00    0.0
2026/01/15 01:13:00.000   67.857351666   20.968464124   391.0979   6   8   0.1845   0.1898   0.2055  -0.0141   0.0589  -0.1375   0.00    0.0
2026/01/15 01:13:30.000   67.857351651   20.968464070   391.0990   6  15   0.1840   0.1892   0.2036  -0.0156   0.0595  -0.1373   0.00    0.0
2026/01/15 01:14:00.000   67.857351664   20.968464094   391.0982   6  15   0.1834   0.1887   0.2017  -0.0169   0.0601  -0.1371   0.00    0.0
2026/01/15 01:14:30.000   67.857351675   20.968464047   391.0970   6  15   0.1828   0.1881   0.2000  -0.0182   0.0606  -0.1369   0.00    0.0
2026/01/15 01:15:00.000   67.857351687   20.968464039   391.0963   6  15   0.1822   0.1875   0.1982  -0.0193   0.0611  -0.1366   0.00    0.0
2026/01/15 01:15:30.000   67.857351692   20.968464017   391.0950   6  15   0.1816   0.1870   0.1965  -0.0205   0.0615  -0.1364   0.00    0.0
2026/01/15 01:16:00.000   67.857351689   20.968464028   391.0955   6  15   0.1810   0.1864   0.1948  -0.0215   0.0619  -0.1361   0.00    0.0
2026/01/15 01:16:30.000   67.857351684   20.968464053   391.0962   6  15   0.1804   0.1858   0.1931  -0.0225   0.0622  -0.1358   0.00    0.0
2026/01/15 01:17:00.000   67.857351696   20.968464023   391.0948   6  15   0.1798   0.1853   0.1915  -0.0235   0.0625  -0.1355   0.00    0.0
2026/01/15 01:17:30.000   67.857351691   20.968464018   391.0945   6  15   0.1791   0.1847   0.1899  -0.0245   0.0628  -0.1352   0.00    0.0
2026/01/15 01:18:00.000   67.857351697   20.968464008   391.0944   6  15   0.1785   0.1841   0.1883  -0.0254   0.0630  -0.1349   0.00    0.0
2026/01/15 01:18:30.000   67.857351698   20.968464050   391.0945   6  15   0.1778   0.1836   0.1868  -0.0263   0.0632  -0.1345   0.00    0.0
2026/01/15 01:19:00.000   67.857351690   20.968463973   391.0947   6  15   0.1771   0.1830   0.1852  -0.0272   0.0634  -0.1341   0.00    0.0
2026/01/15 01:19:30.000   67.857351701   20.968464013   391.0939   6  15   0.1764   0.1824   0.1837  -0.0280   0.0636  -0.1337   0.00    0.0
2026/01/15 01:20:00.000   67.857351716   20.968463992   391.0923   6  15   0.1757   0.1818   0.1822  -0.0288   0.0637  -0.1333   0.00    0.0
2026/01/15 01:20:30.000   67.857351722   20.968463932   391.0910   6  16   0.1749   0.1812   0.1806  -0.0296   0.0638  -0.1328   0.00    0.0
2026/01/15 01:21:00.000   67.857351728   20.968463946   391.0902   6  16   0.1741   0.1806   0.1791  -0.0303   0.0638  -0.1323   0.00    0.0
2026/01/15 01:21:30.000   67.857351744   20.968463918   391.0891   6  17   0.1733   0.1800   0.1776  -0.0310   0.0638  -0.1317   0.00    0.0
2026/01/15 01:22:00.000   67.857351761   20.968463833   391.0872   6  17   0.1725   0.1794   0.1761  -0.0317   0.0638  -0.1312   0.00    0.0
2026/01/15 01:22:30.000   67.857351787   20.968463762   391.0844   6  17   0.1716   0.1788   0.1746  -0.0324   0.0638  -0.1306   0.00    0.0
2026/01/15 01:23:00.000   67.857351798   20.968463710   391.0828   6  17   0.1708   0.1782   0.1732  -0.0330   0.0637  -0.1300   0.00    0.0
2026/01/15 01:23:30.000   67.857351813   20.968463702   391.0813   6  17   0.1699   0.1775   0.1717  -0.0336   0.0637  -0.1294   0.00    0.0
2026/01/15 01:24:00.000   67.857351836   20.968463625   391.0793   6  17   0.1690   0.1769   0.1703  -0.0342   0.0636  -0.1288   0.00    0.0
2026/01/15 01:24:30.000   67.857351859   20.968463562   391.0771   6  15   0.1682   0.1763   0.1690  -0.0348   0.0634  -0.1283   0.00    0.0
2026/01/15 01:25:00.000   67.857351872   20.968463482   391.0758   6  16   0.1673   0.1756   0.1676  -0.0354   0.0633  -0.1277   0.00    0.0
2026/01/15 01:25:30.000   67.857351879   20.968463437   391.0753   6  15   0.1665   0.1750   0.1663  -0.0361   0.0633  -0.1270   0.00    0.0
2026/01/15 01:26:00.000   67.857351870   20.968463331   391.0757   6  15   0.1655   0.1744   0.1649  -0.0367   0.0632  -0.1264   0.00    0.0
2026/01/15 01:26:30.000   67.857351867   20.968463314   391.0753   6  15   0.1646   0.1738   0.1636  -0.0374   0.0631  -0.1257   0.00    0.0
2026/01/15 01:27:00.000   67.857351876   20.968463283   391.0743   6  15   0.1637   0.1732   0.1622  -0.0380   0.0629  -0.1250   0.00    0.0
2026/01/15 01:27:30.000   67.857351890   20.968463296   391.0732   6  14   0.1627   0.1726   0.1608  -0.0387   0.0628  -0.1243   0.00    0.0
2026/01/15 01:28:00.000   67.857351910   20.968463235   391.0712   6  15   0.1617   0.1720   0.1595  -0.0393   0.0627  -0.1236   0.00    0.0
2026/01/15 01:28:30.000   67.857351928   20.968463206   391.0693   6  15   0.1608   0.1714   0.1581  -0.0399   0.0625  -0.1229   0.00    0.0
2026/01/15 01:29:00.000   67.857351923   20.968463146   391.0694   6  14   0.1598   0.1707   0.1568  -0.0405   0.0624  -0.1222   0.00    0.0
2026/01/15 01:29:30.000   67.857351923   20.968463106   391.0689   6  14   0.1587   0.1701   0.1555  -0.0411   0.0622  -0.1214   0.00    0.0
2026/01/15 01:30:00.000   67.857351936   20.968463075   391.0675   6  13   0.1577   0.1695   0.1541  -0.0416   0.0620  -0.1207   0.00    0.0
2026/01/15 01:30:30.000   67.857351966   20.968463030   391.0642   6  14   0.1567   0.1689   0.1528  -0.0422   0.0619  -0.1199   0.00    0.0
2026/01/15 01:31:00.000   67.857351985   20.968463039   391.0622   6   7   0.1559   0.1683   0.1517  -0.0425   0.0617  -0.1193   0.00    0.0
2026/01/15 01:31:30.000   67.857352003   20.968462981   391.0604   6  15   0.1548   0.1676   0.1504  -0.0430   0.0615  -0.1184   0.00    0.0
2026/01/15 01:32:00.000   67.857352014   20.968462942   391.0590   6  14   0.1538   0.1670   0.1491  -0.0436   0.0613  -0.1176   0.00    0.0
2026/01/15 01:32:30.000   67.857352032   20.968462936   391.0568   6  13   0.1527   0.1664   0.1478  -0.0441   0.0610  -0.1168   0.00    0.0
2026/01/15 01:33:00.000   67.857352058   20.968462906   391.0538   6  13   0.1516   0.1657   0.1465  -0.0447   0.0608  -0.1159   0.00    0.0
2026/01/15 01:33:30.000   67.857352085   20.968462863   391.0513   6  13   0.1505   0.1651   0.1452  -0.0452   0.0606  -0.1151   0.00    0.0
2026/01/15 01:34:00.000   67.857352097   20.968462801   391.0497   6  13   0.1494   0.1644   0.1439  -0.0457   0.0604  -0.1142   0.00    0.0
2026/01/15 01:34:30.000   67.857352112   20.968462848   391.0480   6  14   0.1483   0.1638   0.1426  -0.0462   0.0601  -0.1134   0.00    0.0
2026/01/15 01:35:00.000   67.857352112   20.968462802   391.0471   6  14   0.1471   0.1631   0.1413  -0.0467   0.0599  -0.1125   0.00    0.0
2026/01/15 01:35:30.000   67.857352122   20.968462858   391.0459   6  15   0.1460   0.1625   0.1401  -0.0472   0.0596  -0.1116   0.00    0.0
2026/01/15 01:36:00.000   67.857352138   20.968462793   391.0438   6  15   0.1449   0.1618   0.1388  -0.0477   0.0594  -0.1107   0.00    0.0
2026/01/15 01:36:30.000   67.857352137   20.968462763   391.0432   6  15   0.1440   0.1612   0.1378  -0.0486   0.0594  -0.1101   0.00    0.0
2026/01/15 01:37:00.000   67.857352149   20.968462751   391.0418   6   7   0.1435   0.1607   0.1370  -0.0492   0.0595  -0.1097   0.00    0.0
2026/01/15 01:37:30.000   67.857352145   20.968462712   391.0414   6  15   0.1426   0.1602   0.1359  -0.0502   0.0595  -0.1091   0.00    0.0
2026/01/15 01:38:00.000   67.857352142   20.968462749   391.0411   6  16   0.1417   0.1596   0.1349  -0.0511   0.0596  -0.1085   0.00    0.0
2026/01/15 01:38:30.000   67.857352144   20.968462731   391.0398   6  16   0.1409   0.1590   0.1338  -0.0519   0.0596  -0.1079   0.00    0.0
2026/01/15 01:39:00.000   67.857352147   20.968462682   391.0386   6  16   0.1400   0.1584   0.1328  -0.0528   0.0597  -0.1072   0.00    0.0
2026/01/15 01:39:30.000   67.857352154   20.968462613   391.0369   6  16   0.1391   0.1579   0.1317  -0.0536   0.0597  -0.1066   0.00    0.0
2026/01/15 01:40:00.000   67.857352167   20.968462633   391.0350   6  16   0.1383   0.1573   0.1307  -0.0544   0.0598  -0.1059   0.00    0.0
2026/01/15 01:40:30.000   67.857352177   20.968462575   391.0332   6  16   0.1374   0.1567   0.1297  -0.0552   0.0598  -0.1053   0.00    0.0
2026/01/15 01:41:00.000   67.857352169   20.968462565   391.0326   6  16   0.1365   0.1561   0.1287  -0.0559   0.0598  -0.1046   0.00    0.0
2026/01/15 01:41:30.000   67.857352163   20.968462539   391.0322   6  16   0.1356   0.1555   0.1277  -0.0566   0.0598  -0.1040   0.00    0.0
2026/01/15 01:42:00.000   67.857352179   20.968462534   391.0299   6  16   0.1348   0.1550   0.1267  -0.0573   0.0598  -0.1033   0.00    0.0
2026/01/15 01:42:30.000   67.857352188   20.968462540   391.0283   6  16   0.1339   0.1544   0.1257  -0.0580   0.0598  -0.1027   0.00    0.0
2026/01/15 01:43:00.000   67.857352196   20.968462535   391.0272   6  16   0.1330   0.1538   0.1247  -0.0586   0.0598  -0.1020   0.00    0.0
2026/01/15 01:43:30.000   67.857352200   20.968462560   391.0257   6  16   0.1322   0.1532   0.1237  -0.0592   0.0598  -0.1013   0.00    0.0
2026/01/15 01:44:00.000   67.857352200   20.968462574   391.0249   6  16   0.1313   0.1526   0.1227  -0.0598   0.0597  -0.1007   0.00    0.0
2026/01/15 01:44:30.000   67.857352214   20.968462568   391.0228   6  16   0.1304   0.1520   0.1217  -0.0604   0.0597  -0.1000   0.00    0.0
2026/01/15 01:45:00.000   67.857352230   20.968462537   391.0203   6  16   0.1295   0.1514   0.1208  -0.0610   0.0596  -0.0993   0.00    0.0
2026/01/15 01:45:30.000   67.857352239   20.968462502   391.0184   6  15   0.1287   0.1509   0.1198  -0.0615   0.0596  -0.0986   0.00    0.0
2026/01/15 01:46:00.000   67.857352251   20.968462454   391.0166   6  16   0.1278   0.1503   0.1188  -0.0620   0.0595  -0.0980   0.00    0.0
2026/01/15 01:46:30.000   67.857352259   20.968462408   391.0148   6  15   0.1270   0.1497   0.1179  -0.0626   0.0595  -0.0973   0.00    0.0
2026/01/15 01:47:00.000   67.857352263   20.968462420   391.0132   6  15   0.1262   0.1492   0.1170  -0.0631   0.0595  -0.0966   0.00    0.0
2026/01/15 01:47:30.000   67.857352265   20.968462411   391.0123   6   7   0.1257   0.1487   0.1163  -0.0634   0.0594  -0.0962   0.00    0.0
2026/01/15 01:48:00.000   67.857352271   20.968462401   391.0109   6  15   0.1249   0.1482   0.1154  -0.0640   0.0594  -0.0956   0.00    0.0
2026/01/15 01:48:30.000   67.857352281   20.968462350   391.0093   6   7   0.1244   0.1477   0.1148  -0.0643   0.0593  -0.0952   0.00    0.0
2026/01/15 01:49:00.000   67.857352288   20.968462326   391.0073   6  15   0.1236   0.1472   0.1138  -0.0649   0.0593  -0.0945   0.00    0.0
2026/01/15 01:49:30.000   67.857352288   20.968462326   391.0066   6   9   0.1230   0.1467   0.1132  -0.0652   0.0592  -0.0941   0.00    0.0
2026/01/15 01:50:00.000   67.857352298   20.968462301   391.0046   6  16   0.1222   0.1462   0.1123  -0.0657   0.0592  -0.0934   0.00    0.0
2026/01/15 01:50:30.000   67.857352302   20.968462297   391.0035   6   8   0.1217   0.1457   0.1116  -0.0660   0.0591  -0.0930   0.00    0.0
2026/01/15 01:51:00.000   67.857352314   20.968462274   391.0015   6  16   0.1209   0.1452   0.1107  -0.0665   0.0590  -0.0923   0.00    0.0
2026/01/15 01:51:30.000   67.857352326   20.968462249   390.9995   6  16   0.1200   0.1446   0.1098  -0.0669   0.0589  -0.0916   0.00    0.0
2026/01/15 01:52:00.000   67.857352343   20.968462189   390.9968   6  16   0.1192   0.1441   0.1088  -0.0673   0.0588  -0.0909   0.00    0.0
2026/01/15 01:52:30.000   67.857352346   20.968462153   390.9953   6  16   0.1184   0.1435   0.1079  -0.0677   0.0587  -0.0902   0.00    0.0
2026/01/15 01:53:00.000   67.857352357   20.968462139   390.9931   6  16   0.1176   0.1430   0.1070  -0.0681   0.0586  -0.0895   0.00    0.0
2026/01/15 01:53:30.000   67.857352367   20.968462100   390.9907   6  17   0.1168   0.1424   0.1061  -0.0685   0.0585  -0.0888   0.00    0.0
2026/01/15 01:54:00.000   67.857352381   20.968462084   390.9881   6  17   0.1160   0.1419   0.1052  -0.0688   0.0584  -0.0882   0.00    0.0
2026/01/15 01:54:30.000   67.857352390   20.968462021   390.9863   6   8   0.1156   0.1414   0.1047  -0.0690   0.0583  -0.0878   0.00    0.0
2026/01/15 01:55:00.000   67.857352404   20.968462026   390.9840   6  17   0.1148   0.1409   0.1038  -0.0693   0.0582  -0.0871   0.00    0.0
2026/01/15 01:55:30.000   67.857352416   20.968461992   390.9818   6  17   0.1140   0.1403   0.1029  -0.0696   0.0580  -0.0864   0.00    0.0
2026/01/15 01:56:00.000   67.857352421   20.968461969   390.9806   6   8   0.1135   0.1399   0.1023  -0.0698   0.0579  -0.0860   0.00    0.0
2026/01/15 01:56:30.000   67.857352429   20.968461963   390.9788   6  17   0.1128   0.1393   0.1014  -0.0701   0.0577  -0.0853   0.00    0.0
2026/01/15 01:57:00.000   67.857352445   20.968461934   390.9762   6  17   0.1120   0.1388   0.1006  -0.0704   0.0576  -0.0846   0.00    0.0
2026/01/15 01:57:30.000   67.857352449   20.968461932   390.9750   6   6   0.1117   0.1385   0.1002  -0.0702   0.0575  -0.0843   0.00    0.0
2026/01/15 01:58:00.000   67.857352461   20.968461890   390.9725   6  18   0.1109   0.1379   0.0993  -0.0705   0.0573  -0.0836   0.00    0.0
2026/01/15 01:58:30.000   67.857352466   20.968461866   390.9714   6   9   0.1105   0.1374   0.0987  -0.0706   0.0571  -0.0832   0.00    0.0
2026/01/15 01:59:00.000   67.857352466   20.968461846   390.9703   6   9   0.1100   0.1369   0.0982  -0.0707   0.0569  -0.0828   0.00    0.0
2026/01/15 02:00:00.000   67.857352471   20.968461830   390.9681   6  17   0.1091   0.1361   0.0972  -0.0707   0.0566  -0.0819   0.00    0.0
2026/01/15 02:00:30.000   67.857352489   20.968461765   390.9658   6   9   0.1086   0.1356   0.0967  -0.0708   0.0563  -0.0815   0.00    0.0
2026/01/15 02:01:00.000   67.857352503   20.968461709   390.9637   6  10   0.1082   0.1351   0.0961  -0.0709   0.0561  -0.0811   0.00    0.0
2026/01/15 02:01:30.000   67.857352521   20.968461669   390.9605   6  16   0.1073   0.1344   0.0952  -0.0710   0.0559  -0.0804   0.00    0.0
2026/01/15 02:02:00.000   67.857352538   20.968461618   390.9573   6  16   0.1065   0.1338   0.0943  -0.0712   0.0556  -0.0796   0.00    0.0
2026/01/15 02:02:30.000   67.857352549   20.968461592   390.9551   6   9   0.1061   0.1333   0.0938  -0.0712   0.0554  -0.0792   0.00    0.0
2026/01/15 02:03:00.000   67.857352560   20.968461561   390.9528   6   9   0.1056   0.1328   0.0932  -0.0712   0.0551  -0.0788   0.00    0.0
2026/01/15 02:03:30.000   67.857352568   20.968461527   390.9508   6   9   0.1052   0.1322   0.0927  -0.0713   0.0549  -0.0784   0.00    0.0
2026/01/15 02:04:30.000   67.857352592   20.968461467   390.9470   6  16   0.1043   0.1313   0.0918  -0.0712   0.0545  -0.0776   0.00    0.0
2026/01/15 02:05:00.000   67.857352599   20.968461438   390.9445   6  18   0.1035   0.1307   0.0910  -0.0712   0.0541  -0.0769   0.00    0.0
2026/01/15 02:05:30.000   67.857352603   20.968461422   390.9428   6  10   0.1031   0.1301   0.0904  -0.0712   0.0539  -0.0765   0.00    0.0
2026/01/15 02:06:00.000   67.857352604   20.968461407   390.9415   6  10   0.1026   0.1296   0.0899  -0.0712   0.0536  -0.0760   0.00    0.0
2026/01/15 02:07:00.000   67.857352610   20.968461363   390.9388   6  19   0.1017   0.1287   0.0890  -0.0711   0.0531  -0.0752   0.00    0.0
2026/01/15 02:07:30.000   67.857352628   20.968461280   390.9354   6  19   0.1009   0.1279   0.0882  -0.0710   0.0528  -0.0745   0.00    0.0
2026/01/15 02:08:00.000   67.857352646   20.968461200   390.9318   6  19   0.1002   0.1272   0.0873  -0.0710   0.0524  -0.0738   0.00    0.0
2026/01/15 02:08:30.000   67.857352664   20.968461128   390.9282   6  19   0.0995   0.1265   0.0866  -0.0710   0.0521  -0.0732   0.00    0.0
2026/01/15 02:09:00.000   67.857352669   20.968461098   390.9261   6  13   0.0991   0.1260   0.0861  -0.0710   0.0519  -0.0728   0.00    0.0
2026/01/15 02:10:00.000   67.857352684   20.968461010   390.9212   6  20   0.0982   0.1250   0.0852  -0.0708   0.0515  -0.0722   0.00    0.0
2026/01/15 02:11:00.000   67.857352678   20.968461013   390.9185   6  10   0.0978   0.1244   0.0847  -0.0708   0.0512  -0.0717   0.00    0.0
2026/01/15 02:11:30.000   67.857352703   20.968460939   390.9128   6  20   0.0971   0.1237   0.0839  -0.0708   0.0510  -0.0711   0.00    0.0
2026/01/15 02:12:00.000   67.857352715   20.968460886   390.9114   6  19   0.0965   0.1231   0.0834  -0.0709   0.0508  -0.0706   0.00    0.0
2026/01/15 02:12:30.000   67.857352724   20.968460832   390.9103   6  19   0.0959   0.1225   0.0829  -0.0710   0.0507  -0.0701   0.00    0.0
2026/01/15 02:13:00.000   67.857352731   20.968460784   390.9093   6  19   0.0953   0.1219   0.0824  -0.0711   0.0506  -0.0696   0.00    0.0
2026/01/15 02:13:30.000   67.857352736   20.968460774   390.9083   6  19   0.0947   0.1213   0.0819  -0.0711   0.0505  -0.0692   0.00    0.0
2026/01/15 02:14:00.000   67.857352739   20.968460753   390.9074   6  18   0.0942   0.1207   0.0814  -0.0712   0.0504  -0.0687   0.00    0.0
2026/01/15 02:14:30.000   67.857352743   20.968460724   390.9064   6  18   0.0936   0.1201   0.0809  -0.0712   0.0503  -0.0683   0.00    0.0
2026/01/15 02:15:00.000   67.857352742   20.968460727   390.9055   6  18   0.0931   0.1195   0.0805  -0.0712   0.0501  -0.0678   0.00    0.0
2026/01/15 02:15:30.000   67.857352751   20.968460673   390.9041   6  18   0.0925   0.1189   0.0800  -0.0712   0.0500  -0.0674   0.00    0.0
2026/01/15 02:16:00.000   67.857352747   20.968460678   390.9039   6  13   0.0923   0.1185   0.0798  -0.0713   0.0500  -0.0672   0.00    0.0
2026/01/15 02:16:30.000   67.857352760   20.968460624   390.9022   6  18   0.0917   0.1179   0.0793  -0.0712   0.0498  -0.0668   0.00    0.0
2026/01/15 02:17:00.000   67.857352771   20.968460588   390.9006   6  18   0.0912   0.1173   0.0788  -0.0712   0.0497  -0.0663   0.00    0.0
2026/01/15 02:17:30.000   67.857352781   20.968460571   390.8990   6  18   0.0907   0.1167   0.0784  -0.0712   0.0495  -0.0659   0.00    0.0
2026/01/15 02:18:00.000   67.857352786   20.968460545   390.8977   6  18   0.0902   0.1161   0.0779  -0.0712   0.0494  -0.0655   0.00    0.0
2026/01/15 02:18:30.000   67.857352797   20.968460485   390.8959   6  18   0.0897   0.1156   0.0775  -0.0711   0.0492  -0.0651   0.00    0.0
2026/01/15 02:19:00.000   67.857352801   20.968460469   390.8947   6  18   0.0892   0.1150   0.0771  -0.0711   0.0490  -0.0647   0.00    0.0
2026/01/15 02:19:30.000   67.857352800   20.968460482   390.8947   6   9   0.0890   0.1146   0.0769  -0.0711   0.0490  -0.0645   0.00    0.0
2026/01/15 02:20:00.000   67.857352801   20.968460478   390.8936   6  15   0.0887   0.1141   0.0765  -0.0710   0.0488  -0.0642   0.00    0.0
2026/01/15 02:20:30.000   67.857352796   20.968460482   390.8938   6  10   0.0885   0.1138   0.0764  -0.0710   0.0488  -0.0640   0.00    0.0
2026/01/15 02:21:00.000   67.857352789   20.968460491   390.8943   6   8   0.0882   0.1134   0.0762  -0.0711   0.0487  -0.0639   0.00    0.0
2026/01/15 02:21:30.000   67.857352794   20.968460454   390.8931   6  17   0.0877   0.1129   0.0757  -0.0710   0.0486  -0.0635   0.00    0.0
2026/01/15 02:22:00.000   67.857352806   20.968460414   390.8911   6  17   0.0873   0.1123   0.0753  -0.0709   0.0484  -0.0631   0.00    0.0
2026/01/15 02:22:30.000   67.857352816   20.968460371   390.8891   6  17   0.0868   0.1118   0.0749  -0.0708   0.0483  -0.0627   0.00    0.0
2026/01/15 02:23:30.000   67.857352819   20.968460360   390.8874   6  16   0.0863   0.1110   0.0744  -0.0706   0.0480  -0.0622   0.00    0.0
2026/01/15 02:24:00.000   67.857352829   20.968460317   390.8856   6  17   0.0858   0.1105   0.0740  -0.0705   0.0478  -0.0618   0.00    0.0
2026/01/15 02:24:30.000   67.857352838   20.968460264   390.8838   6  18   0.0853   0.1099   0.0735  -0.0704   0.0477  -0.0614   0.00    0.0
2026/01/15 02:25:00.000   67.857352846   20.968460216   390.8822   6  18   0.0849   0.1094   0.0731  -0.0702   0.0475  -0.0611   0.00    0.0
2026/01/15 02:25:30.000   67.857352850   20.968460187   390.8807   6  18   0.0844   0.1088   0.0727  -0.0701   0.0473  -0.0607   0.00    0.0
2026/01/15 02:26:00.000   67.857352860   20.968460137   390.8790   6  17   0.0840   0.1082   0.0723  -0.0700   0.0471  -0.0603   0.00    0.0
2026/01/15 02:26:30.000   67.857352873   20.968460071   390.8770   6  17   0.0836   0.1077   0.0718  -0.0698   0.0469  -0.0600   0.00    0.0
2026/01/15 02:27:00.000   67.857352882   20.968460017   390.8752   6  16   0.0832   0.1071   0.0715  -0.0697   0.0467  -0.0596   0.00    0.0
2026/01/15 02:27:30.000   67.857352886   20.968459988   390.8741   6  16   0.0828   0.1066   0.0711  -0.0695   0.0466  -0.0593   0.00    0.0
2026/01/15 02:28:00.000   67.857352881   20.968459994   390.8744   6  10   0.0825   0.1062   0.0709  -0.0695   0.0465  -0.0591   0.00    0.0
2026/01/15 02:28:30.000   67.857352886   20.968459941   390.8733   6  16   0.0821   0.1057   0.0706  -0.0693   0.0463  -0.0588   0.00    0.0
2026/01/15 02:29:00.000   67.857352883   20.968459904   390.8724   6  15   0.0819   0.1051   0.0702  -0.0692   0.0462  -0.0586   0.00    0.0
2026/01/15 02:29:30.000   67.857352887   20.968459875   390.8724   6  15   0.0815   0.1046   0.0700  -0.0690   0.0460  -0.0583   0.00    0.0
2026/01/15 02:30:00.000   67.857352891   20.968459854   390.8725   6  16   0.0811   0.1041   0.0697  -0.0688   0.0459  -0.0580   0.00    0.0
2026/01/15 02:30:30.000   67.857352892   20.968459847   390.8724   6   8   0.0809   0.1038   0.0695  -0.0688   0.0459  -0.0578   0.00    0.0
2026/01/15 02:31:00.000   67.857352901   20.968459817   390.8722   6  16   0.0805   0.1032   0.0692  -0.0686   0.0457  -0.0575   0.00    0.0
2026/01/15 02:31:30.000   67.857352911   20.968459784   390.8720   6  16   0.0801   0.1027   0.0689  -0.0684   0.0456  -0.0572   0.00    0.0
2026/01/15 02:32:00.000   67.857352916   20.968459758   390.8719   6  16   0.0797   0.1022   0.0686  -0.0682   0.0455  -0.0569   0.00    0.0
2026/01/15 02:32:30.000   67.857352913   20.968459763   390.8721   6   9   0.0795   0.1018   0.0685  -0.0681   0.0454  -0.0567   0.00    0.0
2026/01/15 02:33:00.000   67.857352918   20.968459737   390.8721   6  16   0.0791   0.1013   0.0682  -0.0679   0.0453  -0.0564   0.00    0.0
2026/01/15 02:33:30.000   67.857352924   20.968459701   390.8720   6  16   0.0787   0.1007   0.0679  -0.0677   0.0451  -0.0562   0.00    0.0
2026/01/15 02:34:00.000   67.857352926   20.968459683   390.8722   6  16   0.0783   0.1002   0.0676  -0.0675   0.0450  -0.0559   0.00    0.0
2026/01/15 02:34:30.000   67.857352936   20.968459634   390.8718   6  16   0.0779   0.0997   0.0673  -0.0672   0.0448  -0.0556   0.00    0.0
2026/01/15 02:35:00.000   67.857352946   20.968459580   390.8716   6  16   0.0775   0.0991   0.0670  -0.0670   0.0447  -0.0553   0.00    0.0
2026/01/15 02:35:30.000   67.857352954   20.968459541   390.8714   6  16   0.0772   0.0986   0.0668  -0.0667   0.0445  -0.0550   0.00    0.0
2026/01/15 02:36:00.000   67.857352960   20.968459511   390.8712   6  16   0.0768   0.0980   0.0665  -0.0665   0.0444  -0.0547   0.00    0.0
2026/01/15 02:36:30.000   67.857352965   20.968459480   390.8711   6  16   0.0764   0.0975   0.0662  -0.0663   0.0442  -0.0544   0.00    0.0
2026/01/15 02:37:00.000   67.857352972   20.968459451   390.8710   6  16   0.0760   0.0970   0.0659  -0.0660   0.0440  -0.0541   0.00    0.0
2026/01/15 02:37:30.000   67.857352980   20.968459411   390.8708   6  16   0.0756   0.0964   0.0656  -0.0657   0.0439  -0.0539   0.00    0.0
2026/01/15 02:38:00.000   67.857352992   20.968459364   390.8704   6  16   0.0753   0.0959   0.0654  -0.0655   0.0437  -0.0536   0.00    0.0
2026/01/15 02:38:30.000   67.857352998   20.968459329   390.8702   6  16   0.0749   0.0953   0.0651  -0.0652   0.0435  -0.0533   0.00    0.0
2026/01/15 02:39:00.000   67.857353004   20.968459300   390.8702   6  16   0.0745   0.0948   0.0648  -0.0649   0.0433  -0.0530   0.00    0.0
2026/01/15 02:39:30.000   67.857353012   20.968459258   390.8698   6  16   0.0741   0.0942   0.0645  -0.0647   0.0432  -0.0527   0.00    0.0
2026/01/15 02:40:00.000   67.857353020   20.968459211   390.8697   6  16   0.0738   0.0937   0.0643  -0.0644   0.0430  -0.0525   0.00    0.0
2026/01/15 02:40:30.000   67.857353029   20.968459168   390.8694   6  16   0.0734   0.0932   0.0640  -0.0641   0.0428  -0.0522   0.00    0.0
2026/01/15 02:41:00.000   67.857353037   20.968459137   390.8692   6  16   0.0730   0.0926   0.0637  -0.0638   0.0426  -0.0519   0.00    0.0
2026/01/15 02:41:30.000   67.857353045   20.968459095   390.8688   6  16   0.0726   0.0921   0.0635  -0.0635   0.0424  -0.0517   0.00    0.0
2026/01/15 02:42:00.000   67.857353050   20.968459063   390.8686   6  16   0.0723   0.0915   0.0632  -0.0632   0.0422  -0.0514   0.00    0.0
2026/01/15 02:42:30.000   67.857353057   20.968459030   390.8680   6  10   0.0721   0.0912   0.0630  -0.0631   0.0421  -0.0512   0.00    0.0
2026/01/15 02:43:00.000   67.857353064   20.968458988   390.8678   6  16   0.0717   0.0906   0.0628  -0.0628   0.0419  -0.0509   0.00    0.0
2026/01/15 02:43:30.000   67.857353071   20.968458948   390.8675   6  16   0.0713   0.0901   0.0625  -0.0625   0.0417  -0.0507   0.00    0.0
2026/01/15 02:44:00.000   67.857353080   20.968458914   390.8670   6  16   0.0709   0.0895   0.0622  -0.0622   0.0415  -0.0504   0.00    0.0
2026/01/15 02:44:30.000   67.857353085   20.968458875   390.8668   6  16   0.0706   0.0890   0.0619  -0.0618   0.0413  -0.0501   0.00    0.0
2026/01/15 02:45:00.000   67.857353089   20.968458851   390.8665   6  16   0.0702   0.0884   0.0617  -0.0615   0.0411  -0.0499   0.00    0.0
2026/01/15 02:45:30.000   67.857353098   20.968458810   390.8662   6  16   0.0698   0.0879   0.0614  -0.0612   0.0408  -0.0496   0.00    0.0
2026/01/15 02:46:00.000   67.857353109   20.968458772   390.8658   6  16   0.0695   0.0873   0.0611  -0.0609   0.0406  -0.0493   0.00    0.0
2026/01/15 02:46:30.000   67.857353122   20.968458713   390.8652   6  16   0.0691   0.0868   0.0609  -0.0606   0.0404  -0.0491   0.00    0.0
2026/01/15 02:47:00.000   67.857353131   20.968458679   390.8647   6  16   0.0687   0.0863   0.0606  -0.0602   0.0402  -0.0488   0.00    0.0
2026/01/15 02:47:30.000   67.857353143   20.968458627   390.8640   6  16   0.0684   0.0857   0.0603  -0.0599   0.0400  -0.0485   0.00    0.0
2026/01/15 02:48:00.000   67.857353152   20.968458582   390.8635   6  16   0.0680   0.0852   0.0601  -0.0596   0.0398  -0.0483   0.00    0.0
2026/01/15 02:48:30.000   67.857353163   20.968458524   390.8629   6  16   0.0676   0.0846   0.0598  -0.0593   0.0395  -0.0480   0.00    0.0
2026/01/15 02:49:00.000   67.857353172   20.968458481   390.8623   6  15   0.0673   0.0841   0.0595  -0.0589   0.0393  -0.0477   0.00    0.0
2026/01/15 02:49:30.000   67.857353185   20.968458426   390.8616   6  16   0.0669   0.0836   0.0593  -0.0586   0.0391  -0.0475   0.00    0.0
2026/01/15 02:50:00.000   67.857353190   20.968458381   390.8611   6  14   0.0666   0.0830   0.0590  -0.0583   0.0389  -0.0472   0.00    0.0
2026/01/15 02:50:30.000   67.857353190   20.968458371   390.8609   6   9   0.0664   0.0827   0.0589  -0.0581   0.0387  -0.0471   0.00    0.0
2026/01/15 02:51:00.000   67.857353195   20.968458337   390.8606   6  15   0.0661   0.0821   0.0586  -0.0577   0.0385  -0.0468   0.00    0.0
2026/01/15 02:51:30.000   67.857353203   20.968458295   390.8600   6  15   0.0657   0.0816   0.0583  -0.0574   0.0382  -0.0465   0.00    0.0
2026/01/15 02:52:00.000   67.857353212   20.968458248   390.8595   6  15   0.0653   0.0810   0.0581  -0.0570   0.0380  -0.0463   0.00    0.0
2026/01/15 02:52:30.000   67.857353223   20.968458196   390.8587   6  15   0.0650   0.0805   0.0578  -0.0567   0.0378  -0.0460   0.00    0.0
2026/01/15 02:53:00.000   67.857353227   20.968458168   390.8585   6  14   0.0647   0.0800   0.0576  -0.0564   0.0376  -0.0458   0.00    0.0
2026/01/15 02:53:30.000   67.857353236   20.968458132   390.8579   6  14   0.0643   0.0796   0.0573  -0.0561   0.0374  -0.0456   0.00    0.0
2026/01/15 02:54:00.000   67.857353245   20.968458095   390.8572   6  14   0.0640   0.0791   0.0571  -0.0558   0.0373  -0.0453   0.00    0.0
2026/01/15 02:54:30.000   67.857353246   20.968458088   390.8567   6   9   0.0639   0.0788   0.0569  -0.0557   0.0372  -0.0452   0.00    0.0
2026/01/15 02:55:00.000   67.857353249   20.968458069   390.8563   6  15   0.0636   0.0783   0.0567  -0.0554   0.0370  -0.0450   0.00    0.0
2026/01/15 02:55:30.000   67.857353256   20.968458037   390.8557   6  15   0.0632   0.0779   0.0565  -0.0551   0.0368  -0.0448   0.00    0.0
2026/01/15 02:56:00.000   67.857353262   20.968458005   390.8552   6  15   0.0629   0.0774   0.0562  -0.0548   0.0366  -0.0446   0.00    0.0
2026/01/15 02:56:30.000   67.857353264   20.968457985   390.8548   6   9   0.0628   0.0771   0.0561  -0.0547   0.0365  -0.0444   0.00    0.0
2026/01/15 02:57:00.000   67.857353271   20.968457949   390.8540   6  15   0.0624   0.0767   0.0558  -0.0544   0.0363  -0.0442   0.00    0.0
2026/01/15 02:57:30.000   67.857353275   20.968457925   390.8534   6  16   0.0621   0.0762   0.0556  -0.0541   0.0361  -0.0440   0.00    0.0
2026/01/15 02:58:00.000   67.857353282   20.968457889   390.8528   6  16   0.0618   0.0757   0.0554  -0.0538   0.0360  -0.0438   0.00    0.0
2026/01/15 02:58:30.000   67.857353287   20.968457870   390.8523   6  17   0.0615   0.0752   0.0551  -0.0535   0.0358  -0.0435   0.00    0.0
2026/01/15 02:59:00.000   67.857353290   20.968457852   390.8520   6  17   0.0612   0.0748   0.0549  -0.0532   0.0356  -0.0433   0.00    0.0
2026/01/15 02:59:30.000   67.857353299   20.968457811   390.8512   6  18   0.0609   0.0743   0.0546  -0.0529   0.0354  -0.0431   0.00    0.0
2026/01/15 03:00:00.000   67.857353303   20.968457787   390.8508   6  18   0.0606   0.0738   0.0544  -0.0526   0.0352  -0.0429   0.00    0.0
2026/01/15 03:00:30.000   67.857353310   20.968457747   390.8501   6  17   0.0603   0.0734   0.0542  -0.0523   0.0350  -0.0427   0.00    0.0
2026/01/15 03:01:00.000   67.857353318   20.968457703   390.8493   6  17   0.0600   0.0729   0.0539  -0.0520   0.0348  -0.0424   0.00    0.0
2026/01/15 03:01:30.000   67.857353316   20.968457694   390.8488   6   9   0.0598   0.0726   0.0538  -0.0518   0.0347  -0.0423   0.00    0.0
2026/01/15 03:02:00.000   67.857353325   20.968457653   390.8479   6  17   0.0595   0.0722   0.0535  -0.0515   0.0345  -0.0421   0.00    0.0
2026/01/15 03:02:30.000   67.857353332   20.968457623   390.8471   6  17   0.0592   0.0717   0.0533  -0.0512   0.0343  -0.0419   0.00    0.0
2026/01/15 03:03:00.000   67.857353337   20.968457601   390.8465   6  17   0.0589   0.0713   0.0531  -0.0509   0.0341  -0.0417   0.00    0.0
2026/01/15 03:03:30.000   67.857353344   20.968457564   390.8456   6  17   0.0586   0.0708   0.0528  -0.0506   0.0339  -0.0414   0.00    0.0
2026/01/15 03:04:00.000   67.857353348   20.968457536   390.8448   6  16   0.0583   0.0703   0.0526  -0.0503   0.0337  -0.0412   0.00    0.0
2026/01/15 03:04:30.000   67.857353352   20.968457510   390.8440   6  16   0.0579   0.0699   0.0524  -0.0500   0.0335  -0.0410   0.00    0.0
2026/01/15 03:05:00.000   67.857353357   20.968457484   390.8432   6  16   0.0576   0.0694   0.0521  -0.0496   0.0333  -0.0408   0.00    0.0
2026/01/15 03:05:30.000   67.857353364   20.968457449   390.8423   6  17   0.0573   0.0690   0.0519  -0.0493   0.0331  -0.0406   0.00    0.0
2026/01/15 03:06:00.000   67.857353369   20.968457422   390.8415   6  16   0.0570   0.0686   0.0517  -0.0490   0.0329  -0.0404   0.00    0.0
2026/01/15 03:06:30.000   67.857353373   20.968457399   390.8407   6  17   0.0567   0.0681   0.0514  -0.0487   0.0327  -0.0402   0.00    0.0
2026/01/15 03:07:00.000   67.857353375   20.968457377   390.8400   6   9   0.0566   0.0678   0.0513  -0.0486   0.0326  -0.0400   0.00    0.0
2026/01/15 03:07:30.000   67.857353382   20.968457342   390.8392   6  18   0.0563   0.0674   0.0511  -0.0482   0.0324  -0.0398   0.00    0.0
2026/01/15 03:08:00.000   67.857353383   20.968457330   390.8386   6  18   0.0560   0.0671   0.0509  -0.0481   0.0322  -0.0397   0.00    0.0
2026/01/15 03:08:30.000   67.857353381   20.968457327   390.8381   6  18   0.0558   0.0668   0.0506  -0.0479   0.0321  -0.0395   0.00    0.0
2026/01/15 03:09:00.000   67.857353383   20.968457308   390.8372   6  18   0.0556   0.0665   0.0504  -0.0477   0.0320  -0.0393   0.00    0.0
2026/01/15 03:09:30.000   67.857353387   20.968457287   390.8364   6  17   0.0554   0.0662   0.0502  -0.0475   0.0319  -0.0392   0.00    0.0
2026/01/15 03:10:00.000   67.857353390   20.968457263   390.8354   6  11   0.0552   0.0659   0.0500  -0.0473   0.0317  -0.0390   0.00    0.0
2026/01/15 03:10:30.000   67.857353393   20.968457257   390.8352   6  16   0.0550   0.0656   0.0498  -0.0471   0.0316  -0.0388   0.00    0.0
2026/01/15 03:11:00.000   67.857353397   20.968457246   390.8350   6  17   0.0547   0.0653   0.0496  -0.0469   0.0315  -0.0387   0.00    0.0
2026/01/15 03:11:30.000   67.857353399   20.968457243   390.8350   6  17   0.0545   0.0650   0.0495  -0.0467   0.0314  -0.0385   0.00    0.0
2026/01/15 03:12:00.000   67.857353401   20.968457238   390.8349   6  17   0.0543   0.0647   0.0493  -0.0465   0.0313  -0.0383   0.00    0.0
2026/01/15 03:12:30.000   67.857353406   20.968457225   390.8348   6  17   0.0541   0.0644   0.0491  -0.0463   0.0312  -0.0382   0.00    0.0
2026/01/15 03:13:00.000   67.857353407   20.968457223   390.8348   6  18   0.0539   0.0641   0.0489  -0.0461   0.0311  -0.0380   0.00    0.0
2026/01/15 03:13:30.000   67.857353410   20.968457217   390.8347   6  17   0.0536   0.0638   0.0488  -0.0459   0.0310  -0.0378   0.00    0.0
2026/01/15 03:14:00.000   67.857353414   20.968457203   390.8345   6  18   0.0534   0.0635   0.0486  -0.0457   0.0309  -0.0377   0.00    0.0
2026/01/15 03:14:30.000   67.857353418   20.968457192   390.8343   6  18   0.0532   0.0632   0.0484  -0.0455   0.0308  -0.0375   0.00    0.0
2026/01/15 03:15:00.000   67.857353422   20.968457182   390.8341   6  18   0.0530   0.0629   0.0482  -0.0453   0.0307  -0.0373   0.00    0.0
2026/01/15 03:15:30.000   67.857353425   20.968457175   390.8339   6  18   0.0527   0.0626   0.0480  -0.0451   0.0305  -0.0372   0.00    0.0
2026/01/15 03:16:00.000   67.857353429   20.968457158   390.8337   6  18   0.0525   0.0623   0.0479  -0.0449   0.0304  -0.0370   0.00    0.0
2026/01/15 03:16:30.000   67.857353435   20.968457140   390.8333   6  18   0.0523   0.0620   0.0477  -0.0447   0.0303  -0.0368   0.00    0.0
2026/01/15 03:17:00.000   67.857353441   20.968457122   390.8330   6  18   0.0521   0.0617   0.0475  -0.0445   0.0302  -0.0367   0.00    0.0
2026/01/15 03:17:30.000   67.857353447   20.968457106   390.8326   6  18   0.0519   0.0614   0.0473  -0.0443   0.0301  -0.0365   0.00    0.0
2026/01/15 03:18:00.000   67.857353451   20.968457099   390.8323   6  18   0.0516   0.0611   0.0472  -0.0441   0.0300  -0.0363   0.00    0.0
2026/01/15 03:18:30.000   67.857353457   20.968457075   390.8318   6  12   0.0514   0.0609   0.0470  -0.0439   0.0298  -0.0362   0.00    0.0
2026/01/15 03:19:00.000   67.857353462   20.968457063   390.8315   6  18   0.0512   0.0606   0.0468  -0.0437   0.0297  -0.0360   0.00    0.0
2026/01/15 03:19:30.000   67.857353465   20.968457054   390.8314   6  18   0.0510   0.0603   0.0467  -0.0435   0.0296  -0.0358   0.00    0.0
2026/01/15 03:20:00.000   67.857353469   20.968457045   390.8311   6  18   0.0508   0.0600   0.0465  -0.0433   0.0295  -0.0357   0.00    0.0
2026/01/15 03:20:30.000   67.857353473   20.968457037   390.8306   6  18   0.0506   0.0597   0.0463  -0.0431   0.0293  -0.0355   0.00    0.0
2026/01/15 03:21:00.000   67.857353475   20.968457034   390.8304   6  18   0.0503   0.0594   0.0461  -0.0428   0.0292  -0.0354   0.00    0.0
2026/01/15 03:21:30.000   67.857353481   20.968457024   390.8299   6  18   0.0501   0.0591   0.0460  -0.0426   0.0291  -0.0352   0.00    0.0
2026/01/15 03:22:00.000   67.857353485   20.968457012   390.8294   6  18   0.0499   0.0588   0.0458  -0.0424   0.0290  -0.0350   0.00    0.0
2026/01/15 03:22:30.000   67.857353491   20.968456998   390.8290   6  17   0.0497   0.0585   0.0456  -0.0422   0.0288  -0.0349   0.00    0.0
2026/01/15 03:23:00.000   67.857353495   20.968456986   390.8286   6  18   0.0495   0.0582   0.0454  -0.0420   0.0287  -0.0347   0.00    0.0
2026/01/15 03:23:30.000   67.857353500   20.968456973   390.8281   6  18   0.0492   0.0579   0.0453  -0.0418   0.0286  -0.0346   0.00    0.0
2026/01/15 03:24:00.000   67.857353507   20.968456952   390.8275   6  18   0.0490   0.0576   0.0451  -0.0416   0.0284  -0.0344   0.00    0.0
2026/01/15 03:24:30.000   67.857353511   20.968456943   390.8270   6  18   0.0488   0.0573   0.0449  -0.0413   0.0283  -0.0342   0.00    0.0
2026/01/15 03:25:00.000   67.857353515   20.968456931   390.8265   6  17   0.0486   0.0571   0.0448  -0.0411   0.0282  -0.0341   0.00    0.0
2026/01/15 03:25:30.000   67.857353520   20.968456920   390.8260   6  17   0.0484   0.0568   0.0446  -0.0409   0.0280  -0.0339   0.00    0.0
2026/01/15 03:26:00.000   67.857353524   20.968456911   390.8254   6  18   0.0481   0.0565   0.0444  -0.0407   0.0279  -0.0337   0.00    0.0
2026/01/15 03:26:30.000   67.857353529   20.968456900   390.8249   6  18   0.0479   0.0562   0.0442  -0.0405   0.0278  -0.0336   0.00    0.0
2026/01/15 03:27:00.000   67.857353535   20.968456888   390.8242   6  19   0.0477   0.0559   0.0441  -0.0402   0.0276  -0.0334   0.00    0.0
2026/01/15 03:27:30.000   67.857353541   20.968456869   390.8236   6  18   0.0475   0.0556   0.0439  -0.0400   0.0275  -0.0333   0.00    0.0
2026/01/15 03:28:00.000   67.857353548   20.968456855   390.8227   6  18   0.0473   0.0553   0.0437  -0.0398   0.0274  -0.0331   0.00    0.0
2026/01/15 03:28:30.000   67.857353556   20.968456837   390.8218   6  19   0.0470   0.0550   0.0435  -0.0396   0.0272  -0.0329   0.00    0.0
2026/01/15 03:29:00.000   67.857353562   20.968456823   390.8210   6  19   0.0468   0.0548   0.0434  -0.0394   0.0271  -0.0328   0.00    0.0
2026/01/15 03:29:30.000   67.857353568   20.968456811   390.8201   6  19   0.0466   0.0545   0.0432  -0.0391   0.0269  -0.0326   0.00    0.0
2026/01/15 03:30:00.000   67.857353577   20.968456790   390.8189   6  19   0.0464   0.0542   0.0430  -0.0389   0.0268  -0.0325   0.00    0.0
2026/01/15 03:30:30.000   67.857353585   20.968456772   390.8179   6  18   0.0462   0.0539   0.0429  -0.0387   0.0267  -0.0323   0.00    0.0
2026/01/15 03:31:00.000   67.857353593   20.968456753   390.8168   6  18   0.0460   0.0536   0.0427  -0.0385   0.0265  -0.0321   0.00    0.0
2026/01/15 03:31:30.000   67.857353601   20.968456737   390.8157   6  17   0.0457   0.0534   0.0425  -0.0383   0.0264  -0.0320   0.00    0.0
2026/01/15 03:32:00.000   67.857353608   20.968456726   390.8146   6  17   0.0455   0.0531   0.0424  -0.0381   0.0262  -0.0318   0.00    0.0
2026/01/15 03:32:30.000   67.857353615   20.968456712   390.8135   6  17   0.0453   0.0528   0.0422  -0.0378   0.0261  -0.0317   0.00    0.0
2026/01/15 03:33:00.000   67.857353623   20.968456695   390.8124   6  17   0.0451   0.0525   0.0420  -0.0376   0.0260  -0.0315   0.00    0.0
2026/01/15 03:33:30.000   67.857353629   20.968456683   390.8113   6  17   0.0449   0.0523   0.0419  -0.0374   0.0258  -0.0314   0.00    0.0
2026/01/15 03:34:00.000   67.857353637   20.968456666   390.8102   6  17   0.0447   0.0520   0.0417  -0.0372   0.0257  -0.0312   0.00    0.0
2026/01/15 03:34:30.000   67.857353644   20.968456649   390.8093   6  17   0.0445   0.0518   0.0416  -0.0370   0.0256  -0.0311   0.00    0.0
2026/01/15 03:35:00.000   67.857353650   20.968456631   390.8088   6   9   0.0443   0.0515   0.0415  -0.0368   0.0255  -0.0309   0.00    0.0
2026/01/15 03:35:30.000   67.857353656   20.968456612   390.8083   6  16   0.0441   0.0513   0.0414  -0.0366   0.0254  -0.0308   0.00    0.0
2026/01/15 03:36:00.000   67.857353660   20.968456595   390.8078   6  16   0.0439   0.0511   0.0412  -0.0364   0.0253  -0.0307   0.00    0.0
2026/01/15 03:36:30.000   67.857353663   20.968456578   390.8074   6  16   0.0437   0.0508   0.0411  -0.0362   0.0252  -0.0306   0.00    0.0
2026/01/15 03:37:00.000   67.857353668   20.968456563   390.8070   6  16   0.0435   0.0506   0.0410  -0.0360   0.0251  -0.0304   0.00    0.0
2026/01/15 03:37:30.000   67.857353674   20.968456544   390.8064   6  16   0.0433   0.0503   0.0409  -0.0358   0.0250  -0.0303   0.00    0.0
2026/01/15 03:38:00.000   67.857353679   20.968456523   390.8059   6  16   0.0431   0.0501   0.0408  -0.0356   0.0249  -0.0302   0.00    0.0
2026/01/15 03:38:30.000   67.857353684   20.968456503   390.8053   6  16   0.0429   0.0498   0.0406  -0.0353   0.0248  -0.0300   0.00    0.0
2026/01/15 03:39:00.000   67.857353683   20.968456500   390.8050   6  15   0.0428   0.0497   0.0405  -0.0353   0.0248  -0.0300   0.00    0.0
2026/01/15 03:39:30.000   67.857353685   20.968456488   390.8045   6  15   0.0427   0.0496   0.0404  -0.0352   0.0247  -0.0299   0.00    0.0
2026/01/15 03:40:00.000   67.857353685   20.968456484   390.8042   6  15   0.0426   0.0495   0.0403  -0.0352   0.0247  -0.0298   0.00    0.0
2026/01/15 03:40:30.000   67.857353685   20.968456480   390.8039   6  15   0.0425   0.0494   0.0402  -0.0351   0.0247  -0.0297   0.00    0.0
2026/01/15 03:41:00.000   67.857353688   20.968456470   390.8033   6  15   0.0424   0.0493   0.0401  -0.0351   0.0247  -0.0297   0.00    0.0
2026/01/15 03:41:30.000   67.857353691   20.968456460   390.8027   6  15   0.0423   0.0492   0.0400  -0.0350   0.0247  -0.0296   0.00    0.0
2026/01/15 03:42:00.000   67.857353692   20.968456455   390.8022   6  15   0.0422   0.0490   0.0399  -0.0349   0.0246  -0.0295   0.00    0.0
2026/01/15 03:42:30.000   67.857353693   20.968456451   390.8018   6  15   0.0421   0.0489   0.0398  -0.0349   0.0246  -0.0295   0.00    0.0
2026/01/15 03:43:00.000   67.857353696   20.968456439   390.8012   6  15   0.0420   0.0488   0.0397  -0.0348   0.0246  -0.0294   0.00    0.0
2026/01/15 03:43:30.000   67.857353701   20.968456425   390.8005   6  15   0.0419   0.0487   0.0396  -0.0348   0.0246  -0.0293   0.00    0.0
2026/01/15 03:44:00.000   67.857353704   20.968456414   390.7998   6  15   0.0418   0.0486   0.0395  -0.0347   0.0245  -0.0293   0.00    0.0
2026/01/15 03:44:30.000   67.857353708   20.968456401   390.7988   6  15   0.0417   0.0485   0.0394  -0.0346   0.0245  -0.0292   0.00    0.0
2026/01/15 03:45:00.000   67.857353713   20.968456384   390.7979   6  15   0.0416   0.0484   0.0393  -0.0346   0.0245  -0.0291   0.00    0.0
2026/01/15 03:45:30.000   67.857353718   20.968456368   390.7970   6  15   0.0415   0.0483   0.0392  -0.0345   0.0245  -0.0290   0.00    0.0
2026/01/15 03:46:00.000   67.857353723   20.968456356   390.7961   6  15   0.0414   0.0481   0.0391  -0.0344   0.0244  -0.0290   0.00    0.0
2026/01/15 03:46:30.000   67.857353727   20.968456350   390.7952   6  15   0.0413   0.0480   0.0390  -0.0344   0.0244  -0.0289   0.00    0.0
2026/01/15 03:47:00.000   67.857353732   20.968456335   390.7942   6  15   0.0412   0.0479   0.0389  -0.0343   0.0244  -0.0288   0.00    0.0
2026/01/15 03:47:30.000   67.857353737   20.968456319   390.7933   6  15   0.0411   0.0478   0.0388  -0.0342   0.0243  -0.0287   0.00    0.0
2026/01/15 03:48:00.000   67.857353743   20.968456299   390.7922   6  15   0.0410   0.0477   0.0387  -0.0341   0.0243  -0.0287   0.00    0.0
2026/01/15 03:48:30.000   67.857353749   20.968456282   390.7910   6  15   0.0409   0.0476   0.0386  -0.0341   0.0242  -0.0286   0.00    0.0
2026/01/15 03:49:00.000   67.857353757   20.968456263   390.7897   6  15   0.0408   0.0475   0.0385  -0.0340   0.0242  -0.0285   0.00    0.0
2026/01/15 03:49:30.000   67.857353763   20.968456253   390.7884   6  15   0.0407   0.0473   0.0384  -0.0339   0.0242  -0.0284   0.00    0.0
2026/01/15 03:50:00.000   67.857353763   20.968456244   390.7883   6  14   0.0406   0.0472   0.0383  -0.0339   0.0241  -0.0284   0.00    0.0
2026/01/15 03:50:30.000   67.857353764   20.968456231   390.7882   6  14   0.0405   0.0471   0.0383  -0.0338   0.0241  -0.0284   0.00    0.0
2026/01/15 03:51:00.000   67.857353766   20.968456216   390.7879   6  14   0.0405   0.0470   0.0382  -0.0337   0.0241  -0.0284   0.00    0.0
2026/01/15 03:51:30.000   67.857353768   20.968456201   390.7877   6  14   0.0404   0.0469   0.0382  -0.0337   0.0241  -0.0283   0.00    0.0
2026/01/15 03:52:00.000   67.857353768   20.968456191   390.7876   6  15   0.0403   0.0468   0.0381  -0.0336   0.0240  -0.0283   0.00    0.0
