% program   : RTKPOST-EX 2.5.0
% inp file  : C:\PPP_PROJECT\New_Data\obs\RNXDATA\KIRU00SWE_R_20260150000_01D_30S_MO.rnx
% inp file  : C:\PPP_PROJECT\New_Data\nav\BRDC00IGS_R_20260150000_01D_MN.rnx
% inp file  : C:\PPP_PROJECT\New_Data\DATA_FINAL_ANT_EXTRA\COD0MGXFIN_20260150000_01D_05M_ORB.SP3
% inp file  : C:\PPP_PROJECT\New_Data\DATA_FINAL_ANT_EXTRA\COD0MGXFIN_20260150000_01D_30S_CLK.CLK
% obs start : 2026/01/15 00:00:00.0 GPST (week2401 345600.0s)
% obs end   : 2026/01/15 23:59:30.0 GPST (week2401 431970.0s)
% pos mode  : PPP Static
% freqs     : L1+L2/E5b
% solution  : Forward
% elev mask : 15.0 deg
% dynamics  : on
% tidecorr  :
% ionos opt : Iono-Free LC
% tropo opt : Saastamoinen
% ephemeris : Precise
% navi sys  : GPS Galileo
% antenna1  :                       ( 0.0000  0.0000  0.0000)
%
% (lat/lon/height=WGS84/ellipsoidal,Q=1:fix,2:float,3:sbas,4:dgps,5:single,6:ppp,ns=# of satellites)
%  GPST                  latitude(deg) longitude(deg)  height(m)   Q  ns   sdn(m)   sde(m)   sdu(m)  sdne(m)  sdeu(m)  sdun(m) age(s)  ratio
2026/01/15 00:00:00.000   67.857350251   20.968478968   392.1886   6  15   2.9680   2.7905   7.2451  -0.7272  -1.3239   2.6394   0.00    0.0
2026/01/15 00:01:00.000   67.857350103   20.968471856   391.7494   6  16   1.6637   1.5019   4.0925   0.2264  -1.0071   1.5751   0.00    0.0
2026/01/15 00:01:30.000   67.857350815   20.968468307   392.0613   6   7   1.4356   1.2929   3.5286   0.2280  -0.8888   1.3589   0.00    0.0
2026/01/15 00:10:00.000   67.857351055   20.968467701   391.6718   6  16   0.5818   0.5592   1.3004   0.1454  -0.4163   0.3968   0.00    0.0
2026/01/15 00:10:30.000   67.857351145   20.968467355   391.6315   6  10   0.5586   0.5423   1.1971   0.1564  -0.3840   0.3348   0.00    0.0
2026/01/15 00:14:30.000   67.857351265   20.968466374   391.6300   6   5   0.4881   0.4651   1.0760   0.1070  -0.3435   0.3248   0.00    0.0
2026/01/15 00:15:30.000   67.857351027   20.968466482   391.5050   6  14   0.4584   0.4442   0.9406   0.1112  -0.3031   0.2395   0.00    0.0
2026/01/15 00:17:30.000   67.857350837   20.968467009   391.4241   6   9   0.4275   0.4186   0.8466   0.1024  -0.2787   0.1946   0.00    0.0
2026/01/15 00:18:00.000   67.857350802   20.968467060   391.4078   6   9   0.4171   0.4101   0.8015   0.1077  -0.2637   0.1507   0.00    0.0
2026/01/15 00:18:30.000   67.857350681   20.968466707   391.3785   6  18   0.4013   0.4005   0.7393   0.1080  -0.2494   0.0756   0.00    0.0
2026/01/15 00:19:00.000   67.857350591   20.968466601   391.3662   6   9   0.3943   0.3939   0.7152   0.1090  -0.2412   0.0027   0.00    0.0
2026/01/15 00:20:00.000   67.857350633   20.968466698   391.3448   6  11   0.3840   0.3831   0.6888   0.1065  -0.2319  -0.0587   0.00    0.0
2026/01/15 00:20:30.000   67.857350680   20.968466266   391.3232   6  18   0.3734   0.3754   0.6538   0.1043  -0.2232  -0.1008   0.00    0.0
2026/01/15 00:21:00.000   67.857350679   20.968466430   391.3126   6  10   0.3682   0.3701   0.6379   0.1042  -0.2177  -0.1126   0.00    0.0
2026/01/15 00:21:30.000   67.857350665   20.968466373   391.2910   6   9   0.3635   0.3659   0.6241   0.1028  -0.2143  -0.1204   0.00    0.0
2026/01/15 00:22:00.000   67.857350668   20.968466305   391.2763   6  17   0.3571   0.3595   0.6023   0.0994  -0.2080  -0.1349   0.00    0.0
2026/01/15 00:22:30.000   67.857350684   20.968466410   391.2637   6  10   0.3528   0.3548   0.5902   0.0991  -0.2035  -0.1395   0.00    0.0
2026/01/15 00:23:00.000   67.857350762   20.968466507   391.2498   6   9   0.3487   0.3503   0.5788   0.0986  -0.1992  -0.1433   0.00    0.0
2026/01/15 00:25:00.000   67.857350582   20.968465892   391.2547   6  16   0.3326   0.3348   0.5501   0.0908  -0.1896  -0.1443   0.00    0.0
2026/01/15 00:25:30.000   67.857350669   20.968465989   391.2504   6  14   0.3268   0.3304   0.5343   0.0907  -0.1843  -0.1505   0.00    0.0
2026/01/15 00:26:00.000   67.857350721   20.968466064   391.2437   6   8   0.3236   0.3264   0.5249   0.0908  -0.1800  -0.1515   0.00    0.0
2026/01/15 00:26:30.000   67.857350781   20.968466117   391.2312   6  14   0.3197   0.3224   0.5116   0.0903  -0.1755  -0.1552   0.00    0.0
2026/01/15 00:27:00.000   67.857350822   20.968466103   391.2255   6  15   0.3147   0.3190   0.4997   0.0900  -0.1713  -0.1580   0.00    0.0
2026/01/15 00:27:30.000   67.857350803   20.968466162   391.2226   6   9   0.3119   0.3157   0.4917   0.0901  -0.1676  -0.1582   0.00    0.0
2026/01/15 00:28:00.000   67.857350727   20.968466131   391.2174   6  11   0.3085   0.3125   0.4809   0.0896  -0.1639  -0.1600   0.00    0.0
2026/01/15 00:28:30.000   67.857350796   20.968465904   391.2131   6  14   0.3041   0.3094   0.4710   0.0891  -0.1604  -0.1614   0.00    0.0
2026/01/15 00:29:00.000   67.857350835   20.968465813   391.2090   6  15   0.3000   0.3063   0.4616   0.0885  -0.1571  -0.1624   0.00    0.0
2026/01/15 00:29:30.000   67.857350836   20.968465526   391.1995   6  15   0.2962   0.3034   0.4528   0.0879  -0.1540  -0.1631   0.00    0.0
2026/01/15 00:30:00.000   67.857350859   20.968465556   391.1882   6  16   0.2926   0.3005   0.4444   0.0873  -0.1510  -0.1635   0.00    0.0
2026/01/15 00:30:30.000   67.857350995   20.968465668   391.1807   6  15   0.2892   0.2976   0.4392   0.0866  -0.1482  -0.1628   0.00    0.0
2026/01/15 00:31:00.000   67.857351031   20.968465685   391.1834   6  15   0.2860   0.2948   0.4341   0.0858  -0.1456  -0.1620   0.00    0.0
2026/01/15 00:31:30.000   67.857350991   20.968465631   391.1973   6  15   0.2830   0.2921   0.4292   0.0852  -0.1430  -0.1612   0.00    0.0
2026/01/15 00:32:00.000   67.857351051   20.968465660   391.1972   6  16   0.2801   0.2894   0.4243   0.0846  -0.1404  -0.1604   0.00    0.0
2026/01/15 00:32:30.000   67.857351066   20.968465498   391.2050   6  16   0.2772   0.2868   0.4195   0.0840  -0.1379  -0.1597   0.00    0.0
2026/01/15 00:33:00.000   67.857351108   20.968465483   391.2094   6  16   0.2744   0.2841   0.4148   0.0834  -0.1355  -0.1589   0.00    0.0
2026/01/15 00:33:30.000   67.857351141   20.968465431   391.2145   6  15   0.2720   0.2817   0.4101   0.0820  -0.1329  -0.1583   0.00    0.0
2026/01/15 00:34:00.000   67.857351175   20.968465295   391.2142   6  16   0.2697   0.2793   0.4055   0.0806  -0.1304  -0.1578   0.00    0.0
2026/01/15 00:34:30.000   67.857351180   20.968465324   391.2205   6  16   0.2674   0.2770   0.4009   0.0792  -0.1279  -0.1572   0.00    0.0
2026/01/15 00:35:00.000   67.857351212   20.968465247   391.2218   6  16   0.2652   0.2747   0.3963   0.0779  -0.1254  -0.1566   0.00    0.0
2026/01/15 00:35:30.000   67.857351238   20.968465332   391.2248   6  16   0.2631   0.2723   0.3918   0.0765  -0.1230  -0.1561   0.00    0.0
2026/01/15 00:36:00.000   67.857351226   20.968465358   391.2280   6  15   0.2609   0.2701   0.3875   0.0752  -0.1208  -0.1556   0.00    0.0
2026/01/15 00:36:30.000   67.857351203   20.968465111   391.2316   6  14   0.2588   0.2679   0.3831   0.0739  -0.1186  -0.1551   0.00    0.0
2026/01/15 00:37:00.000   67.857351174   20.968464948   391.2337   6  15   0.2567   0.2657   0.3788   0.0726  -0.1164  -0.1547   0.00    0.0
2026/01/15 00:37:30.000   67.857351188   20.968464912   391.2320   6  15   0.2547   0.2635   0.3745   0.0714  -0.1144  -0.1542   0.00    0.0
2026/01/15 00:38:00.000   67.857351211   20.968464930   391.2280   6   8   0.2534   0.2615   0.3715   0.0707  -0.1121  -0.1533   0.00    0.0
2026/01/15 00:38:30.000   67.857351233   20.968464892   391.2246   6  15   0.2513   0.2593   0.3672   0.0694  -0.1101  -0.1530   0.00    0.0
2026/01/15 00:39:00.000   67.857351237   20.968464774   391.2257   6  15   0.2495   0.2572   0.3630   0.0685  -0.1084  -0.1529   0.00    0.0
2026/01/15 00:39:30.000   67.857351281   20.968464717   391.2195   6  15   0.2476   0.2551   0.3589   0.0675  -0.1067  -0.1529   0.00    0.0
2026/01/15 00:40:00.000   67.857351306   20.968464683   391.2192   6  16   0.2458   0.2530   0.3548   0.0666  -0.1051  -0.1528   0.00    0.0
2026/01/15 00:40:30.000   67.857351277   20.968464590   391.2181   6  16   0.2440   0.2510   0.3508   0.0656  -0.1036  -0.1528   0.00    0.0
2026/01/15 00:41:00.000   67.857351273   20.968464504   391.2175   6  16   0.2422   0.2489   0.3468   0.0646  -0.1020  -0.1527   0.00    0.0
2026/01/15 00:41:30.000   67.857351301   20.968464423   391.2132   6  16   0.2405   0.2469   0.3428   0.0636  -0.1005  -0.1526   0.00    0.0
2026/01/15 00:42:00.000   67.857351303   20.968464525   391.2162   6  14   0.2387   0.2453   0.3390   0.0624  -0.0984  -0.1525   0.00    0.0
2026/01/15 00:42:30.000   67.857351312   20.968464522   391.2138   6  14   0.2370   0.2437   0.3353   0.0612  -0.0963  -0.1525   0.00    0.0
2026/01/15 00:43:00.000   67.857351332   20.968464450   391.2103   6  15   0.2354   0.2422   0.3316   0.0600  -0.0942  -0.1524   0.00    0.0
2026/01/15 00:43:30.000   67.857351375   20.968464555   391.2087   6  15   0.2337   0.2406   0.3280   0.0588  -0.0921  -0.1523   0.00    0.0
2026/01/15 00:44:00.000   67.857351405   20.968464489   391.2060   6  14   0.2321   0.2391   0.3244   0.0575  -0.0901  -0.1523   0.00    0.0
2026/01/15 00:44:30.000   67.857351418   20.968464536   391.2033   6  13   0.2304   0.2376   0.3208   0.0563  -0.0881  -0.1521   0.00    0.0
2026/01/15 00:45:00.000   67.857351396   20.968464465   391.2018   6  16   0.2287   0.2362   0.3172   0.0552  -0.0862  -0.1518   0.00    0.0
2026/01/15 00:45:30.000   67.857351387   20.968464440   391.2017   6  16   0.2270   0.2348   0.3137   0.0540  -0.0842  -0.1516   0.00    0.0
2026/01/15 00:46:00.000   67.857351368   20.968464505   391.2010   6  14   0.2254   0.2334   0.3102   0.0528  -0.0823  -0.1514   0.00    0.0
2026/01/15 00:46:30.000   67.857351427   20.968464506   391.1990   6  13   0.2237   0.2321   0.3074   0.0517  -0.0798  -0.1509   0.00    0.0
2026/01/15 00:47:00.000   67.857351445   20.968464583   391.2039   6  16   0.2222   0.2309   0.3047   0.0507  -0.0773  -0.1506   0.00    0.0
2026/01/15 00:47:30.000   67.857351451   20.968464561   391.2083   6  14   0.2206   0.2297   0.3020   0.0496  -0.0747  -0.1502   0.00    0.0
2026/01/15 00:48:00.000   67.857351463   20.968464604   391.2139   6  15   0.2193   0.2285   0.2993   0.0489  -0.0723  -0.1499   0.00    0.0
2026/01/15 00:48:30.000   67.857351471   20.968464601   391.2149   6  15   0.2183   0.2274   0.2967   0.0482  -0.0697  -0.1495   0.00    0.0
2026/01/15 00:49:00.000   67.857351474   20.968464628   391.2190   6  14   0.2170   0.2262   0.2941   0.0473  -0.0671  -0.1494   0.00    0.0
2026/01/15 00:49:30.000   67.857351477   20.968464656   391.2232   6  13   0.2157   0.2251   0.2916   0.0463  -0.0645  -0.1493   0.00    0.0
2026/01/15 00:50:30.000   67.857351506   20.968464733   391.2228   6   9   0.2142   0.2232   0.2886   0.0447  -0.0615  -0.1481   0.00    0.0
2026/01/15 00:51:00.000   67.857351547   20.968464803   391.2248   6  15   0.2129   0.2221   0.2860   0.0436  -0.0588  -0.1481   0.00    0.0
2026/01/15 00:51:30.000   67.857351584   20.968464852   391.2269   6  15   0.2116   0.2211   0.2834   0.0426  -0.0560  -0.1481   0.00    0.0
2026/01/15 00:52:00.000   67.857351585   20.968464870   391.2313   6  13   0.2104   0.2200   0.2808   0.0415  -0.0532  -0.1480   0.00    0.0
2026/01/15 00:52:30.000   67.857351580   20.968464858   391.2353   6  13   0.2091   0.2190   0.2783   0.0403  -0.0504  -0.1480   0.00    0.0
2026/01/15 00:53:00.000   67.857351593   20.968464894   391.2365   6  13   0.2079   0.2179   0.2757   0.0392  -0.0475  -0.1479   0.00    0.0
2026/01/15 00:53:30.000   67.857351586   20.968464946   391.2389   6   7   0.2070   0.2169   0.2734   0.0384  -0.0443  -0.1473   0.00    0.0
2026/01/15 00:54:00.000   67.857351604   20.968465016   391.2414   6  14   0.2058   0.2159   0.2710   0.0370  -0.0411  -0.1473   0.00    0.0
2026/01/15 00:54:30.000   67.857351617   20.968464972   391.2426   6  11   0.2048   0.2150   0.2687   0.0358  -0.0375  -0.1469   0.00    0.0
2026/01/15 00:55:30.000   67.857351624   20.968464966   391.2466   6  13   0.2030   0.2133   0.2658   0.0334  -0.0335  -0.1462   0.00    0.0
2026/01/15 00:56:00.000   67.857351644   20.968464933   391.2483   6  14   0.2018   0.2123   0.2633   0.0317  -0.0294  -0.1461   0.00    0.0
2026/01/15 00:56:30.000   67.857351645   20.968464787   391.2495   6   8   0.2009   0.2114   0.2610   0.0307  -0.0243  -0.1456   0.00    0.0
2026/01/15 01:01:00.000   67.857351680   20.968464798   391.2427   6   5   0.1967   0.2057   0.2582   0.0234  -0.0204  -0.1407   0.00    0.0
2026/01/15 01:02:00.000   67.857351698   20.968464759   391.2390   6   4   0.1958   0.2045   0.2577   0.0216  -0.0194  -0.1397   0.00    0.0
2026/01/15 01:02:30.000   67.857351709   20.968464740   391.2374   6   5   0.1954   0.2039   0.2574   0.0207  -0.0189  -0.1391   0.00    0.0
2026/01/15 01:03:00.000   67.857351713   20.968464644   391.2396   6  15   0.1948   0.2031   0.2537   0.0200  -0.0021  -0.1394   0.00    0.0
2026/01/15 01:03:30.000   67.857351730   20.968464543   391.2400   6  12   0.1942   0.2023   0.2502   0.0194   0.0178  -0.1396   0.00    0.0
2026/01/15 01:04:00.000   67.857351734   20.968464540   391.2414   6  14   0.1936   0.2015   0.2470   0.0187   0.0248  -0.1397   0.00    0.0
2026/01/15 01:04:30.000   67.857351705   20.968464484   391.2459   6  14   0.1930   0.2008   0.2438   0.0180   0.0298  -0.1398   0.00    0.0
2026/01/15 01:05:00.000   67.857351720   20.968464448   391.2460   6   9   0.1926   0.2000   0.2412   0.0172   0.0339  -0.1396   0.00    0.0
2026/01/15 01:05:30.000   67.857351728   20.968464416   391.2462   6  14   0.1920   0.1993   0.2382   0.0164   0.0372  -0.1396   0.00    0.0
2026/01/15 01:06:00.000   67.857351741   20.968464468   391.2462   6  14   0.1914   0.1986   0.2354   0.0155   0.0400  -0.1396   0.00    0.0
2026/01/15 01:06:30.000   67.857351739   20.968464439   391.2472   6  11   0.1909   0.1979   0.2327   0.0145   0.0425  -0.1396   0.00    0.0
2026/01/15 01:07:00.000   67.857351749   20.968464349   391.2471   6  14   0.1904   0.1973   0.2301   0.0134   0.0447  -0.1396   0.00    0.0
2026/01/15 01:07:30.000   67.857351733   20.968464326   391.2499   6  11   0.1899   0.1966   0.2276   0.0122   0.0467  -0.1395   0.00    0.0
2026/01/15 01:08:00.000   67.857351718   20.968464266   391.2524   6  12   0.1893   0.1959   0.2252   0.0109   0.0484  -0.1395   0.00    0.0
2026/01/15 01:08:30.000   67.857351730   20.968464248   391.2531   6   7   0.1889   0.1953   0.2231   0.0095   0.0501  -0.1392   0.00    0.0
2026/01/15 01:09:00.000   67.857351718   20.968464250   391.2549   6  13   0.1884   0.1946   0.2208   0.0076   0.0515  -0.1391   0.00    0.0
2026/01/15 01:09:30.000   67.857351704   20.968464255   391.2571   6   7   0.1879   0.1940   0.2188   0.0054   0.0528  -0.1389   0.00    0.0
2026/01/15 01:10:00.000   67.857351693   20.968464224   391.2588   6  13   0.1874   0.1934   0.2166  -0.0023   0.0540  -0.1388   0.00    0.0
2026/01/15 01:10:30.000   67.857351680   20.968464156   391.2611   6  15   0.1869   0.1928   0.2145  -0.0063   0.0551  -0.1387   0.00    0.0
2026/01/15 01:11:00.000   67.857351670   20.968464157   391.2623   6  15   0.1863   0.1921   0.2124  -0.0087   0.0560  -0.1385   0.00    0.0
2026/01/15 01:11:30.000   67.857351673   20.968464125   391.2625   6  15   0.1858   0.1915   0.2104  -0.0105   0.0569  -0.1384   0.00    0.0
2026/01/15 01:12:00.000   67.857351698   20.968464128   391.2605   6   9   0.1854   0.1909   0.2086  -0.0118   0.0578  -0.1381   0.00    0.0
2026/01/15 01:12:30.000   67.857351672   20.968464097   391.2623   6  15   0.1848   0.1903   0.2067  -0.0134   0.0585  -0.1379   0.00    0.0
2026/01/15 01:13:00.000   67.857351689   20.968464108   391.2614   6   8   0.1844   0.1898   0.2050  -0.0146   0.0592  -0.1377   0.00    0.0
2026/01/15 01:13:30.000   67.857351674   20.968464054   391.2625   6  15   0.1838   0.1892   0.2031  -0.0160   0.0598  -0.1375   0.00    0.0
2026/01/15 01:14:00.000   67.857351687   20.968464078   391.2616   6  15   0.1832   0.1886   0.2013  -0.0173   0.0604  -0.1372   0.00    0.0
2026/01/15 01:14:30.000   67.857351698   20.968464031   391.2605   6  15   0.1826   0.1880   0.1995  -0.0185   0.0609  -0.1370   0.00    0.0
2026/01/15 01:15:00.000   67.857351710   20.968464023   391.2598   6  15   0.1820   0.1875   0.1978  -0.0196   0.0613  -0.1368   0.00    0.0
2026/01/15 01:15:30.000   67.857351715   20.968464001   391.2585   6  15   0.1814   0.1869   0.1961  -0.0207   0.0618  -0.1365   0.00    0.0
2026/01/15 01:16:00.000   67.857351712   20.968464012   391.2590   6  15   0.1808   0.1863   0.1944  -0.0218   0.0621  -0.1363   0.00    0.0
2026/01/15 01:16:30.000   67.857351707   20.968464036   391.2597   6  15   0.1802   0.1858   0.1928  -0.0228   0.0625  -0.1360   0.00    0.0
2026/01/15 01:17:00.000   67.857351719   20.968464006   391.2583   6  15   0.1796   0.1852   0.1911  -0.0238   0.0628  -0.1357   0.00    0.0
2026/01/15 01:17:30.000   67.857351714   20.968464002   391.2581   6  15   0.1790   0.1846   0.1895  -0.0247   0.0630  -0.1353   0.00    0.0
2026/01/15 01:18:00.000   67.857351721   20.968463992   391.2580   6  15   0.1783   0.1841   0.1879  -0.0256   0.0633  -0.1350   0.00    0.0
2026/01/15 01:18:30.000   67.857351721   20.968464033   391.2580   6  15   0.1776   0.1835   0.1864  -0.0265   0.0635  -0.1346   0.00    0.0
2026/01/15 01:19:00.000   67.857351713   20.968463957   391.2582   6  15   0.1770   0.1829   0.1848  -0.0274   0.0637  -0.1342   0.00    0.0
2026/01/15 01:19:30.000   67.857351725   20.968463996   391.2574   6  15   0.1763   0.1824   0.1833  -0.0282   0.0638  -0.1338   0.00    0.0
2026/01/15 01:20:00.000   67.857351740   20.968463975   391.2559   6  15   0.1755   0.1818   0.1818  -0.0290   0.0639  -0.1334   0.00    0.0
2026/01/15 01:20:30.000   67.857351745   20.968463915   391.2545   6  16   0.1748   0.1812   0.1803  -0.0298   0.0640  -0.1329   0.00    0.0
2026/01/15 01:21:00.000   67.857351751   20.968463929   391.2538   6  16   0.1740   0.1806   0.1787  -0.0305   0.0641  -0.1324   0.00    0.0
2026/01/15 01:21:30.000   67.857351767   20.968463901   391.2526   6  17   0.1732   0.1800   0.1773  -0.0312   0.0641  -0.1318   0.00    0.0
2026/01/15 01:22:00.000   67.857351784   20.968463817   391.2507   6  17   0.1723   0.1794   0.1758  -0.0318   0.0640  -0.1313   0.00    0.0
2026/01/15 01:22:30.000   67.857351810   20.968463746   391.2480   6  17   0.1715   0.1787   0.1743  -0.0325   0.0640  -0.1307   0.00    0.0
2026/01/15 01:23:00.000   67.857351821   20.968463693   391.2464   6  17   0.1706   0.1781   0.1729  -0.0331   0.0639  -0.1301   0.00    0.0
2026/01/15 01:23:30.000   67.857351836   20.968463685   391.2448   6  17   0.1698   0.1775   0.1714  -0.0338   0.0639  -0.1295   0.00    0.0
2026/01/15 01:24:00.000   67.857351859   20.968463608   391.2429   6  17   0.1689   0.1769   0.1700  -0.0344   0.0638  -0.1289   0.00    0.0
2026/01/15 01:24:30.000   67.857351882   20.968463545   391.2407   6  15   0.1681   0.1762   0.1687  -0.0349   0.0637  -0.1284   0.00    0.0
2026/01/15 01:25:00.000   67.857351895   20.968463465   391.2393   6  16   0.1672   0.1756   0.1673  -0.0355   0.0636  -0.1277   0.00    0.0
2026/01/15 01:25:30.000   67.857351902   20.968463419   391.2384   6  16   0.1663   0.1750   0.1659  -0.0362   0.0634  -0.1271   0.00    0.0
2026/01/15 01:26:00.000   67.857351893   20.968463314   391.2389   6  15   0.1654   0.1744   0.1646  -0.0368   0.0634  -0.1265   0.00    0.0
2026/01/15 01:26:30.000   67.857351889   20.968463297   391.2385   6  15   0.1645   0.1737   0.1632  -0.0375   0.0632  -0.1258   0.00    0.0
2026/01/15 01:27:00.000   67.857351899   20.968463266   391.2375   6  15   0.1635   0.1731   0.1618  -0.0381   0.0631  -0.1251   0.00    0.0
2026/01/15 01:27:30.000   67.857351913   20.968463279   391.2363   6  14   0.1626   0.1725   0.1605  -0.0387   0.0630  -0.1245   0.00    0.0
2026/01/15 01:28:00.000   67.857351932   20.968463218   391.2344   6  15   0.1616   0.1719   0.1592  -0.0394   0.0629  -0.1237   0.00    0.0
2026/01/15 01:28:30.000   67.857351950   20.968463189   391.2325   6  15   0.1606   0.1713   0.1578  -0.0400   0.0627  -0.1230   0.00    0.0
2026/01/15 01:29:00.000   67.857351946   20.968463129   391.2326   6  15   0.1596   0.1707   0.1565  -0.0406   0.0626  -0.1223   0.00    0.0
2026/01/15 01:29:30.000   67.857351946   20.968463089   391.2322   6  15   0.1586   0.1701   0.1552  -0.0411   0.0624  -0.1215   0.00    0.0
2026/01/15 01:30:00.000   67.857351958   20.968463058   391.2307   6  14   0.1576   0.1694   0.1539  -0.0417   0.0622  -0.1208   0.00    0.0
2026/01/15 01:30:30.000   67.857351989   20.968463013   391.2275   6  15   0.1566   0.1688   0.1525  -0.0423   0.0620  -0.1200   0.00    0.0
2026/01/15 01:31:00.000   67.857352008   20.968463021   391.2254   6   7   0.1558   0.1682   0.1515  -0.0425   0.0618  -0.1193   0.00    0.0
2026/01/15 01:31:30.000   67.857352026   20.968462963   391.2236   6  16   0.1547   0.1676   0.1501  -0.0431   0.0616  -0.1185   0.00    0.0
2026/01/15 01:32:00.000   67.857352037   20.968462923   391.2222   6  15   0.1537   0.1669   0.1488  -0.0436   0.0614  -0.1177   0.00    0.0
2026/01/15 01:32:30.000   67.857352055   20.968462917   391.2200   6  14   0.1526   0.1663   0.1475  -0.0442   0.0612  -0.1169   0.00    0.0
2026/01/15 01:33:00.000   67.857352081   20.968462886   391.2170   6  14   0.1515   0.1656   0.1462  -0.0447   0.0610  -0.1160   0.00    0.0
2026/01/15 01:33:30.000   67.857352109   20.968462841   391.2145   6  14   0.1504   0.1650   0.1449  -0.0452   0.0607  -0.1152   0.00    0.0
2026/01/15 01:34:00.000   67.857352120   20.968462778   391.2129   6  14   0.1493   0.1643   0.1437  -0.0457   0.0605  -0.1143   0.00    0.0
2026/01/15 01:34:30.000   67.857352136   20.968462822   391.2112   6  15   0.1482   0.1637   0.1424  -0.0462   0.0603  -0.1134   0.00    0.0
2026/01/15 01:35:00.000   67.857352136   20.968462775   391.2102   6  15   0.1470   0.1630   0.1411  -0.0467   0.0600  -0.1126   0.00    0.0
2026/01/15 01:35:30.000   67.857352145   20.968462831   391.2090   6  15   0.1459   0.1624   0.1398  -0.0472   0.0598  -0.1117   0.00    0.0
2026/01/15 01:36:00.000   67.857352162   20.968462766   391.2070   6  15   0.1448   0.1617   0.1386  -0.0476   0.0595  -0.1108   0.00    0.0
2026/01/15 01:36:30.000   67.857352161   20.968462736   391.2063   6  15   0.1439   0.1611   0.1375  -0.0486   0.0596  -0.1102   0.00    0.0
2026/01/15 01:37:00.000   67.857352173   20.968462724   391.2049   6   7   0.1434   0.1606   0.1367  -0.0492   0.0596  -0.1098   0.00    0.0
2026/01/15 01:37:30.000   67.857352169   20.968462686   391.2045   6  15   0.1425   0.1601   0.1357  -0.0501   0.0597  -0.1092   0.00    0.0
2026/01/15 01:38:00.000   67.857352166   20.968462723   391.2043   6  16   0.1417   0.1595   0.1346  -0.0510   0.0597  -0.1085   0.00    0.0
2026/01/15 01:38:30.000   67.857352168   20.968462706   391.2029   6  16   0.1408   0.1589   0.1336  -0.0519   0.0598  -0.1079   0.00    0.0
2026/01/15 01:39:00.000   67.857352171   20.968462656   391.2017   6  16   0.1399   0.1583   0.1326  -0.0527   0.0598  -0.1073   0.00    0.0
2026/01/15 01:39:30.000   67.857352178   20.968462588   391.2000   6  16   0.1390   0.1578   0.1316  -0.0536   0.0599  -0.1067   0.00    0.0
2026/01/15 01:40:00.000   67.857352191   20.968462608   391.1980   6  16   0.1382   0.1572   0.1305  -0.0543   0.0599  -0.1060   0.00    0.0
2026/01/15 01:40:30.000   67.857352201   20.968462550   391.1963   6  16   0.1373   0.1566   0.1295  -0.0551   0.0599  -0.1054   0.00    0.0
2026/01/15 01:41:00.000   67.857352194   20.968462540   391.1957   6  16   0.1364   0.1560   0.1285  -0.0559   0.0599  -0.1047   0.00    0.0
2026/01/15 01:41:30.000   67.857352188   20.968462515   391.1952   6  16   0.1356   0.1555   0.1275  -0.0566   0.0599  -0.1041   0.00    0.0
2026/01/15 01:42:00.000   67.857352204   20.968462509   391.1929   6  16   0.1347   0.1549   0.1265  -0.0573   0.0599  -0.1034   0.00    0.0
2026/01/15 01:42:30.000   67.857352212   20.968462515   391.1913   6  16   0.1338   0.1543   0.1255  -0.0579   0.0599  -0.1027   0.00    0.0
2026/01/15 01:43:00.000   67.857352220   20.968462511   391.1901   6  16   0.1329   0.1537   0.1245  -0.0586   0.0599  -0.1021   0.00    0.0
2026/01/15 01:43:30.000   67.857352225   20.968462536   391.1887   6  16   0.1321   0.1531   0.1235  -0.0592   0.0599  -0.1014   0.00    0.0
2026/01/15 01:44:00.000   67.857352224   20.968462550   391.1878   6  16   0.1312   0.1525   0.1225  -0.0598   0.0599  -0.1007   0.00    0.0
2026/01/15 01:44:30.000   67.857352239   20.968462543   391.1858   6  16   0.1303   0.1520   0.1216  -0.0604   0.0598  -0.1000   0.00    0.0
2026/01/15 01:45:00.000   67.857352254   20.968462512   391.1832   6  16   0.1295   0.1514   0.1206  -0.0609   0.0598  -0.0994   0.00    0.0
2026/01/15 01:45:30.000   67.857352264   20.968462477   391.1813   6  15   0.1286   0.1508   0.1196  -0.0615   0.0597  -0.0987   0.00    0.0
2026/01/15 01:46:00.000   67.857352275   20.968462429   391.1795   6  16   0.1278   0.1502   0.1187  -0.0620   0.0597  -0.0980   0.00    0.0
2026/01/15 01:46:30.000   67.857352283   20.968462383   391.1776   6  15   0.1269   0.1496   0.1177  -0.0625   0.0596  -0.0974   0.00    0.0
2026/01/15 01:47:00.000   67.857352288   20.968462396   391.1760   6  15   0.1261   0.1491   0.1168  -0.0630   0.0596  -0.0967   0.00    0.0
2026/01/15 01:47:30.000   67.857352290   20.968462386   391.1752   6   7   0.1256   0.1486   0.1162  -0.0634   0.0595  -0.0963   0.00    0.0
2026/01/15 01:48:00.000   67.857352296   20.968462376   391.1737   6  15   0.1248   0.1481   0.1152  -0.0639   0.0595  -0.0956   0.00    0.0
2026/01/15 01:48:30.000   67.857352305   20.968462325   391.1721   6   7   0.1243   0.1476   0.1146  -0.0643   0.0595  -0.0952   0.00    0.0
2026/01/15 01:49:00.000   67.857352313   20.968462301   391.1701   6  15   0.1235   0.1471   0.1137  -0.0648   0.0594  -0.0946   0.00    0.0
2026/01/15 01:49:30.000   67.857352313   20.968462301   391.1694   6   9   0.1230   0.1466   0.1131  -0.0652   0.0593  -0.0942   0.00    0.0
2026/01/15 01:50:00.000   67.857352323   20.968462276   391.1674   6  16   0.1221   0.1461   0.1121  -0.0657   0.0593  -0.0935   0.00    0.0
2026/01/15 01:50:30.000   67.857352327   20.968462272   391.1663   6   8   0.1216   0.1456   0.1115  -0.0660   0.0592  -0.0931   0.00    0.0
2026/01/15 01:51:00.000   67.857352339   20.968462249   391.1643   6  16   0.1208   0.1451   0.1106  -0.0664   0.0591  -0.0924   0.00    0.0
2026/01/15 01:51:30.000   67.857352351   20.968462223   391.1622   6  16   0.1200   0.1445   0.1096  -0.0669   0.0590  -0.0917   0.00    0.0
2026/01/15 01:52:00.000   67.857352368   20.968462164   391.1595   6  16   0.1192   0.1440   0.1087  -0.0673   0.0590  -0.0910   0.00    0.0
2026/01/15 01:52:30.000   67.857352371   20.968462128   391.1580   6  16   0.1183   0.1434   0.1078  -0.0677   0.0589  -0.0903   0.00    0.0
2026/01/15 01:53:00.000   67.857352382   20.968462113   391.1558   6  16   0.1175   0.1429   0.1069  -0.0681   0.0588  -0.0896   0.00    0.0
2026/01/15 01:53:30.000   67.857352392   20.968462074   391.1533   6  17   0.1167   0.1424   0.1060  -0.0684   0.0587  -0.0889   0.00    0.0
2026/01/15 01:54:00.000   67.857352406   20.968462058   391.1507   6  17   0.1159   0.1418   0.1051  -0.0688   0.0585  -0.0882   0.00    0.0
2026/01/15 01:54:30.000   67.857352415   20.968461995   391.1489   6   8   0.1155   0.1414   0.1045  -0.0690   0.0584  -0.0878   0.00    0.0
2026/01/15 01:55:00.000   67.857352429   20.968462000   391.1466   6  17   0.1147   0.1408   0.1036  -0.0693   0.0583  -0.0871   0.00    0.0
2026/01/15 01:55:30.000   67.857352442   20.968461966   391.1443   6  17   0.1139   0.1403   0.1028  -0.0696   0.0581  -0.0864   0.00    0.0
2026/01/15 01:56:00.000   67.857352448   20.968461942   391.1432   6   9   0.1135   0.1398   0.1022  -0.0698   0.0580  -0.0860   0.00    0.0
2026/01/15 01:56:30.000   67.857352456   20.968461935   391.1414   6  17   0.1127   0.1392   0.1013  -0.0700   0.0579  -0.0854   0.00    0.0
2026/01/15 01:57:00.000   67.857352472   20.968461906   391.1387   6  17   0.1119   0.1387   0.1005  -0.0703   0.0577  -0.0847   0.00    0.0
2026/01/15 01:57:30.000   67.857352475   20.968461895   391.1372   6   7   0.1116   0.1383   0.0999  -0.0702   0.0574  -0.0844   0.00    0.0
2026/01/15 01:58:00.000   67.857352487   20.968461855   391.1347   6  18   0.1108   0.1377   0.0991  -0.0704   0.0572  -0.0837   0.00    0.0
2026/01/15 01:58:30.000   67.857352492   20.968461831   391.1336   6   9   0.1104   0.1372   0.0985  -0.0705   0.0570  -0.0833   0.00    0.0
2026/01/15 01:59:00.000   67.857352492   20.968461812   391.1326   6   9   0.1100   0.1368   0.0980  -0.0707   0.0568  -0.0829   0.00    0.0
2026/01/15 02:00:00.000   67.857352498   20.968461796   391.1304   6  17   0.1090   0.1359   0.0970  -0.0707   0.0565  -0.0820   0.00    0.0
2026/01/15 02:00:30.000   67.857352515   20.968461731   391.1281   6   9   0.1086   0.1354   0.0965  -0.0708   0.0563  -0.0816   0.00    0.0
2026/01/15 02:01:00.000   67.857352530   20.968461675   391.1259   6  10   0.1081   0.1349   0.0959  -0.0709   0.0560  -0.0812   0.00    0.0
2026/01/15 02:01:30.000   67.857352548   20.968461636   391.1227   6  16   0.1073   0.1343   0.0950  -0.0710   0.0558  -0.0804   0.00    0.0
2026/01/15 02:02:00.000   67.857352564   20.968461584   391.1196   6  16   0.1065   0.1336   0.0941  -0.0711   0.0556  -0.0797   0.00    0.0
2026/01/15 02:02:30.000   67.857352575   20.968461559   391.1173   6   9   0.1060   0.1331   0.0936  -0.0712   0.0553  -0.0793   0.00    0.0
2026/01/15 02:03:00.000   67.857352586   20.968461527   391.1151   6   9   0.1056   0.1326   0.0930  -0.0712   0.0551  -0.0789   0.00    0.0
2026/01/15 02:03:30.000   67.857352595   20.968461493   391.1131   6   9   0.1051   0.1321   0.0925  -0.0712   0.0548  -0.0784   0.00    0.0
2026/01/15 02:04:30.000   67.857352618   20.968461434   391.1093   6  16   0.1042   0.1312   0.0916  -0.0712   0.0544  -0.0777   0.00    0.0
2026/01/15 02:05:00.000   67.857352625   20.968461405   391.1067   6  18   0.1035   0.1305   0.0908  -0.0712   0.0541  -0.0770   0.00    0.0
2026/01/15 02:05:30.000   67.857352629   20.968461389   391.1051   6  10   0.1030   0.1300   0.0903  -0.0712   0.0539  -0.0765   0.00    0.0
2026/01/15 02:06:00.000   67.857352631   20.968461374   391.1037   6  10   0.1025   0.1295   0.0897  -0.0712   0.0536  -0.0761   0.00    0.0
2026/01/15 02:07:00.000   67.857352636   20.968461330   391.1010   6  19   0.1017   0.1285   0.0888  -0.0710   0.0531  -0.0753   0.00    0.0
2026/01/15 02:07:30.000   67.857352655   20.968461247   391.0977   6  19   0.1009   0.1278   0.0880  -0.0710   0.0528  -0.0746   0.00    0.0
2026/01/15 02:08:00.000   67.857352673   20.968461167   391.0940   6  19   0.1001   0.1271   0.0872  -0.0710   0.0524  -0.0739   0.00    0.0
2026/01/15 02:08:30.000   67.857352690   20.968461096   391.0905   6  19   0.0994   0.1264   0.0864  -0.0710   0.0522  -0.0733   0.00    0.0
2026/01/15 02:09:00.000   67.857352696   20.968461066   391.0884   6  13   0.0990   0.1259   0.0859  -0.0709   0.0519  -0.0729   0.00    0.0
2026/01/15 02:10:00.000   67.857352711   20.968460977   391.0836   6  20   0.0982   0.1249   0.0850  -0.0708   0.0515  -0.0722   0.00    0.0
2026/01/15 02:11:00.000   67.857352705   20.968460981   391.0809   6  10   0.0977   0.1243   0.0845  -0.0707   0.0512  -0.0718   0.00    0.0
2026/01/15 02:11:30.000   67.857352730   20.968460906   391.0752   6  20   0.0971   0.1236   0.0838  -0.0708   0.0510  -0.0712   0.00    0.0
2026/01/15 02:12:00.000   67.857352742   20.968460853   391.0738   6  19   0.0965   0.1230   0.0832  -0.0709   0.0509  -0.0707   0.00    0.0
2026/01/15 02:12:30.000   67.857352750   20.968460800   391.0727   6  19   0.0959   0.1224   0.0827  -0.0709   0.0508  -0.0702   0.00    0.0
2026/01/15 02:13:00.000   67.857352758   20.968460751   391.0717   6  19   0.0953   0.1218   0.0822  -0.0710   0.0507  -0.0697   0.00    0.0
2026/01/15 02:13:30.000   67.857352762   20.968460741   391.0707   6  19   0.0947   0.1212   0.0818  -0.0711   0.0505  -0.0692   0.00    0.0
2026/01/15 02:14:00.000   67.857352765   20.968460720   391.0698   6  18   0.0941   0.1206   0.0813  -0.0711   0.0504  -0.0688   0.00    0.0
2026/01/15 02:14:30.000   67.857352769   20.968460691   391.0688   6  18   0.0936   0.1200   0.0808  -0.0711   0.0503  -0.0683   0.00    0.0
2026/01/15 02:15:00.000   67.857352769   20.968460694   391.0680   6  18   0.0930   0.1194   0.0803  -0.0712   0.0502  -0.0679   0.00    0.0
2026/01/15 02:15:30.000   67.857352778   20.968460639   391.0665   6  18   0.0925   0.1188   0.0799  -0.0712   0.0500  -0.0675   0.00    0.0
2026/01/15 02:16:00.000   67.857352774   20.968460645   391.0664   6  13   0.0922   0.1184   0.0796  -0.0712   0.0500  -0.0672   0.00    0.0
2026/01/15 02:16:30.000   67.857352786   20.968460591   391.0647   6  18   0.0917   0.1178   0.0792  -0.0712   0.0499  -0.0668   0.00    0.0
2026/01/15 02:17:00.000   67.857352797   20.968460555   391.0631   6  18   0.0912   0.1172   0.0787  -0.0712   0.0497  -0.0664   0.00    0.0
2026/01/15 02:17:30.000   67.857352807   20.968460537   391.0615   6  18   0.0907   0.1166   0.0783  -0.0711   0.0496  -0.0660   0.00    0.0
2026/01/15 02:18:00.000   67.857352812   20.968460512   391.0602   6  18   0.0901   0.1161   0.0778  -0.0711   0.0494  -0.0655   0.00    0.0
2026/01/15 02:18:30.000   67.857352823   20.968460452   391.0585   6  18   0.0897   0.1155   0.0774  -0.0710   0.0493  -0.0651   0.00    0.0
2026/01/15 02:19:00.000   67.857352827   20.968460436   391.0573   6  18   0.0892   0.1149   0.0769  -0.0710   0.0491  -0.0647   0.00    0.0
2026/01/15 02:19:30.000   67.857352826   20.968460449   391.0573   6   9   0.0889   0.1145   0.0768  -0.0710   0.0490  -0.0645   0.00    0.0
2026/01/15 02:20:00.000   67.857352827   20.968460444   391.0562   6  15   0.0886   0.1141   0.0764  -0.0710   0.0489  -0.0643   0.00    0.0
2026/01/15 02:20:30.000   67.857352823   20.968460451   391.0565   6  11   0.0884   0.1137   0.0762  -0.0710   0.0488  -0.0641   0.00    0.0
2026/01/15 02:21:00.000   67.857352816   20.968460460   391.0569   6   8   0.0882   0.1133   0.0761  -0.0710   0.0488  -0.0639   0.00    0.0
2026/01/15 02:21:30.000   67.857352820   20.968460423   391.0558   6  17   0.0877   0.1128   0.0756  -0.0709   0.0486  -0.0635   0.00    0.0
2026/01/15 02:22:00.000   67.857352832   20.968460383   391.0538   6  17   0.0872   0.1122   0.0752  -0.0708   0.0485  -0.0631   0.00    0.0
2026/01/15 02:22:30.000   67.857352842   20.968460341   391.0518   6  17   0.0868   0.1117   0.0747  -0.0707   0.0483  -0.0627   0.00    0.0
2026/01/15 02:23:30.000   67.857352845   20.968460329   391.0502   6  16   0.0862   0.1110   0.0743  -0.0705   0.0481  -0.0623   0.00    0.0
2026/01/15 02:24:00.000   67.857352854   20.968460286   391.0483   6  17   0.0858   0.1104   0.0738  -0.0704   0.0479  -0.0619   0.00    0.0
2026/01/15 02:24:30.000   67.857352864   20.968460233   391.0466   6  18   0.0853   0.1099   0.0734  -0.0703   0.0477  -0.0615   0.00    0.0
2026/01/15 02:25:00.000   67.857352871   20.968460185   391.0450   6  18   0.0849   0.1093   0.0730  -0.0702   0.0475  -0.0611   0.00    0.0
2026/01/15 02:25:30.000   67.857352875   20.968460156   391.0436   6  18   0.0844   0.1087   0.0726  -0.0701   0.0474  -0.0607   0.00    0.0
2026/01/15 02:26:00.000   67.857352886   20.968460106   391.0418   6  17   0.0840   0.1082   0.0721  -0.0699   0.0472  -0.0604   0.00    0.0
2026/01/15 02:26:30.000   67.857352898   20.968460041   391.0399   6  17   0.0835   0.1076   0.0717  -0.0698   0.0470  -0.0600   0.00    0.0
2026/01/15 02:27:00.000   67.857352908   20.968459986   391.0381   6  16   0.0831   0.1071   0.0713  -0.0696   0.0468  -0.0597   0.00    0.0
2026/01/15 02:27:30.000   67.857352911   20.968459957   391.0370   6  16   0.0827   0.1065   0.0710  -0.0695   0.0466  -0.0593   0.00    0.0
2026/01/15 02:28:00.000   67.857352906   20.968459963   391.0374   6  10   0.0825   0.1062   0.0708  -0.0694   0.0466  -0.0592   0.00    0.0
2026/01/15 02:28:30.000   67.857352911   20.968459911   391.0363   6  16   0.0821   0.1056   0.0705  -0.0693   0.0464  -0.0588   0.00    0.0
2026/01/15 02:29:00.000   67.857352917   20.968459867   391.0349   6  16   0.0817   0.1051   0.0701  -0.0691   0.0462  -0.0585   0.00    0.0
2026/01/15 02:29:30.000   67.857352921   20.968459839   391.0350   6  15   0.0813   0.1046   0.0698  -0.0689   0.0461  -0.0582   0.00    0.0
2026/01/15 02:30:00.000   67.857352924   20.968459817   391.0351   6  16   0.0809   0.1040   0.0695  -0.0687   0.0460  -0.0579   0.00    0.0
2026/01/15 02:30:30.000   67.857352926   20.968459811   391.0350   6   8   0.0807   0.1037   0.0694  -0.0687   0.0459  -0.0577   0.00    0.0
2026/01/15 02:31:00.000   67.857352934   20.968459781   391.0348   6  16   0.0803   0.1032   0.0691  -0.0685   0.0458  -0.0574   0.00    0.0
2026/01/15 02:31:30.000   67.857352943   20.968459748   391.0346   6  16   0.0799   0.1026   0.0688  -0.0683   0.0456  -0.0572   0.00    0.0
2026/01/15 02:32:00.000   67.857352948   20.968459722   391.0346   6  16   0.0795   0.1021   0.0685  -0.0681   0.0455  -0.0569   0.00    0.0
2026/01/15 02:32:30.000   67.857352945   20.968459727   391.0348   6   9   0.0793   0.1018   0.0683  -0.0680   0.0454  -0.0567   0.00    0.0
2026/01/15 02:33:00.000   67.857352950   20.968459701   391.0347   6  16   0.0789   0.1012   0.0680  -0.0678   0.0453  -0.0564   0.00    0.0
2026/01/15 02:33:30.000   67.857352955   20.968459665   391.0347   6  16   0.0785   0.1007   0.0678  -0.0676   0.0451  -0.0561   0.00    0.0
2026/01/15 02:34:00.000   67.857352957   20.968459647   391.0349   6  16   0.0782   0.1001   0.0675  -0.0674   0.0450  -0.0558   0.00    0.0
2026/01/15 02:34:30.000   67.857352967   20.968459599   391.0345   6  16   0.0778   0.0996   0.0672  -0.0671   0.0448  -0.0555   0.00    0.0
2026/01/15 02:35:00.000   67.857352976   20.968459545   391.0344   6  16   0.0774   0.0991   0.0669  -0.0669   0.0447  -0.0552   0.00    0.0
2026/01/15 02:35:30.000   67.857352984   20.968459506   391.0342   6  16   0.0770   0.0985   0.0666  -0.0667   0.0445  -0.0550   0.00    0.0
2026/01/15 02:36:00.000   67.857352991   20.968459477   391.0340   6  16   0.0766   0.0980   0.0664  -0.0664   0.0444  -0.0547   0.00    0.0
2026/01/15 02:36:30.000   67.857352995   20.968459445   391.0339   6  16   0.0763   0.0974   0.0661  -0.0662   0.0442  -0.0544   0.00    0.0
2026/01/15 02:37:00.000   67.857353002   20.968459417   391.0338   6  16   0.0759   0.0969   0.0658  -0.0659   0.0441  -0.0541   0.00    0.0
2026/01/15 02:37:30.000   67.857353010   20.968459377   391.0337   6  16   0.0755   0.0964   0.0655  -0.0657   0.0439  -0.0538   0.00    0.0
2026/01/15 02:38:00.000   67.857353021   20.968459330   391.0332   6  16   0.0751   0.0958   0.0652  -0.0654   0.0437  -0.0536   0.00    0.0
2026/01/15 02:38:30.000   67.857353027   20.968459295   391.0331   6  16   0.0748   0.0953   0.0650  -0.0651   0.0436  -0.0533   0.00    0.0
2026/01/15 02:39:00.000   67.857353032   20.968459266   391.0331   6  16   0.0744   0.0947   0.0647  -0.0649   0.0434  -0.0530   0.00    0.0
2026/01/15 02:39:30.000   67.857353041   20.968459225   391.0327   6  16   0.0740   0.0942   0.0644  -0.0646   0.0432  -0.0527   0.00    0.0
2026/01/15 02:40:00.000   67.857353048   20.968459177   391.0326   6  16   0.0736   0.0937   0.0642  -0.0643   0.0430  -0.0525   0.00    0.0
2026/01/15 02:40:30.000   67.857353058   20.968459135   391.0323   6  16   0.0733   0.0931   0.0639  -0.0640   0.0428  -0.0522   0.00    0.0
2026/01/15 02:41:00.000   67.857353065   20.968459104   391.0321   6  16   0.0729   0.0926   0.0636  -0.0638   0.0426  -0.0519   0.00    0.0
2026/01/15 02:41:30.000   67.857353073   20.968459062   391.0317   6  16   0.0725   0.0920   0.0633  -0.0635   0.0424  -0.0516   0.00    0.0
2026/01/15 02:42:00.000   67.857353078   20.968459030   391.0315   6  16   0.0722   0.0915   0.0631  -0.0632   0.0423  -0.0514   0.00    0.0
2026/01/15 02:42:30.000   67.857353084   20.968458997   391.0310   6  10   0.0720   0.0911   0.0629  -0.0630   0.0421  -0.0512   0.00    0.0
2026/01/15 02:43:00.000   67.857353091   20.968458955   391.0307   6  16   0.0716   0.0906   0.0626  -0.0627   0.0419  -0.0509   0.00    0.0
2026/01/15 02:43:30.000   67.857353098   20.968458916   391.0304   6  16   0.0712   0.0900   0.0624  -0.0624   0.0417  -0.0507   0.00    0.0
2026/01/15 02:44:00.000   67.857353107   20.968458882   391.0300   6  16   0.0709   0.0895   0.0621  -0.0621   0.0415  -0.0504   0.00    0.0
2026/01/15 02:44:30.000   67.857353112   20.968458843   391.0297   6  16   0.0705   0.0889   0.0618  -0.0618   0.0413  -0.0501   0.00    0.0
2026/01/15 02:45:00.000   67.857353116   20.968458818   391.0295   6  16   0.0701   0.0884   0.0616  -0.0615   0.0411  -0.0498   0.00    0.0
2026/01/15 02:45:30.000   67.857353125   20.968458777   391.0292   6  16   0.0698   0.0878   0.0613  -0.0612   0.0409  -0.0496   0.00    0.0
2026/01/15 02:46:00.000   67.857353135   20.968458740   391.0288   6  16   0.0694   0.0873   0.0610  -0.0608   0.0407  -0.0493   0.00    0.0
2026/01/15 02:46:30.000   67.857353148   20.968458681   391.0282   6  16   0.0690   0.0868   0.0608  -0.0605   0.0405  -0.0490   0.00    0.0
2026/01/15 02:47:00.000   67.857353157   20.968458647   391.0277   6  16   0.0687   0.0862   0.0605  -0.0602   0.0402  -0.0488   0.00    0.0
2026/01/15 02:47:30.000   67.857353169   20.968458595   391.0270   6  16   0.0683   0.0857   0.0602  -0.0599   0.0400  -0.0485   0.00    0.0
2026/01/15 02:48:00.000   67.857353177   20.968458550   391.0266   6  16   0.0679   0.0851   0.0600  -0.0595   0.0398  -0.0483   0.00    0.0
2026/01/15 02:48:30.000   67.857353188   20.968458493   391.0260   6  16   0.0676   0.0846   0.0597  -0.0592   0.0396  -0.0480   0.00    0.0
2026/01/15 02:49:00.000   67.857353198   20.968458449   391.0253   6  15   0.0672   0.0841   0.0594  -0.0589   0.0394  -0.0477   0.00    0.0
2026/01/15 02:49:30.000   67.857353210   20.968458395   391.0246   6  16   0.0669   0.0835   0.0592  -0.0585   0.0391  -0.0475   0.00    0.0
2026/01/15 02:50:00.000   67.857353218   20.968458348   391.0241   6  15   0.0665   0.0830   0.0589  -0.0582   0.0389  -0.0472   0.00    0.0
2026/01/15 02:50:30.000   67.857353217   20.968458338   391.0239   6  10   0.0663   0.0826   0.0588  -0.0580   0.0387  -0.0470   0.00    0.0
2026/01/15 02:51:00.000   67.857353223   20.968458304   391.0235   6  15   0.0659   0.0821   0.0585  -0.0577   0.0385  -0.0468   0.00    0.0
2026/01/15 02:51:30.000   67.857353231   20.968458262   391.0230   6  15   0.0656   0.0815   0.0582  -0.0573   0.0383  -0.0465   0.00    0.0
2026/01/15 02:52:00.000   67.857353239   20.968458215   391.0225   6  15   0.0652   0.0810   0.0580  -0.0570   0.0380  -0.0462   0.00    0.0
2026/01/15 02:52:30.000   67.857353250   20.968458163   391.0217   6  15   0.0648   0.0805   0.0577  -0.0566   0.0378  -0.0460   0.00    0.0
2026/01/15 02:53:00.000   67.857353254   20.968458136   391.0215   6  14   0.0645   0.0800   0.0575  -0.0563   0.0376  -0.0458   0.00    0.0
2026/01/15 02:53:30.000   67.857353263   20.968458100   391.0209   6  14   0.0642   0.0795   0.0572  -0.0561   0.0375  -0.0455   0.00    0.0
2026/01/15 02:54:00.000   67.857353271   20.968458063   391.0202   6  14   0.0639   0.0791   0.0570  -0.0558   0.0373  -0.0453   0.00    0.0
2026/01/15 02:54:30.000   67.857353272   20.968458056   391.0197   6   9   0.0637   0.0788   0.0568  -0.0556   0.0372  -0.0452   0.00    0.0
2026/01/15 02:55:00.000   67.857353275   20.968458037   391.0193   6  15   0.0634   0.0783   0.0566  -0.0554   0.0370  -0.0450   0.00    0.0
2026/01/15 02:55:30.000   67.857353282   20.968458005   391.0187   6  15   0.0631   0.0778   0.0564  -0.0551   0.0368  -0.0448   0.00    0.0
2026/01/15 02:56:00.000   67.857353288   20.968457974   391.0182   6  15   0.0628   0.0774   0.0561  -0.0548   0.0366  -0.0445   0.00    0.0
2026/01/15 02:56:30.000   67.857353289   20.968457954   391.0178   6   9   0.0627   0.0771   0.0560  -0.0546   0.0365  -0.0444   0.00    0.0
2026/01/15 02:57:00.000   67.857353296   20.968457918   391.0171   6  15   0.0623   0.0766   0.0557  -0.0543   0.0364  -0.0442   0.00    0.0
2026/01/15 02:57:30.000   67.857353301   20.968457894   391.0165   6  16   0.0620   0.0762   0.0555  -0.0541   0.0362  -0.0440   0.00    0.0
2026/01/15 02:58:00.000   67.857353307   20.968457858   391.0158   6  16   0.0617   0.0757   0.0553  -0.0538   0.0360  -0.0437   0.00    0.0
2026/01/15 02:58:30.000   67.857353312   20.968457839   391.0153   6  17   0.0614   0.0752   0.0550  -0.0535   0.0358  -0.0435   0.00    0.0
2026/01/15 02:59:00.000   67.857353315   20.968457821   391.0150   6  17   0.0611   0.0747   0.0548  -0.0532   0.0356  -0.0433   0.00    0.0
2026/01/15 02:59:30.000   67.857353324   20.968457781   391.0143   6  18   0.0608   0.0743   0.0545  -0.0528   0.0354  -0.0431   0.00    0.0
2026/01/15 03:00:00.000   67.857353327   20.968457757   391.0138   6  18   0.0605   0.0738   0.0543  -0.0525   0.0352  -0.0429   0.00    0.0
2026/01/15 03:00:30.000   67.857353334   20.968457717   391.0132   6  17   0.0602   0.0734   0.0541  -0.0522   0.0350  -0.0427   0.00    0.0
2026/01/15 03:01:00.000   67.857353342   20.968457673   391.0123   6  17   0.0599   0.0729   0.0538  -0.0519   0.0348  -0.0424   0.00    0.0
2026/01/15 03:01:30.000   67.857353340   20.968457664   391.0118   6  10   0.0597   0.0726   0.0537  -0.0518   0.0347  -0.0423   0.00    0.0
2026/01/15 03:02:00.000   67.857353349   20.968457624   391.0110   6  17   0.0594   0.0722   0.0535  -0.0515   0.0345  -0.0421   0.00    0.0
2026/01/15 03:02:30.000   67.857353356   20.968457593   391.0102   6  17   0.0591   0.0717   0.0532  -0.0512   0.0343  -0.0419   0.00    0.0
2026/01/15 03:03:00.000   67.857353361   20.968457572   391.0095   6  17   0.0588   0.0712   0.0530  -0.0508   0.0341  -0.0417   0.00    0.0
2026/01/15 03:03:30.000   67.857353368   20.968457535   391.0087   6  17   0.0585   0.0708   0.0528  -0.0505   0.0339  -0.0414   0.00    0.0
2026/01/15 03:04:00.000   67.857353371   20.968457507   391.0079   6  16   0.0582   0.0703   0.0525  -0.0502   0.0337  -0.0412   0.00    0.0
2026/01/15 03:04:30.000   67.857353376   20.968457481   391.0071   6  16   0.0579   0.0699   0.0523  -0.0499   0.0335  -0.0410   0.00    0.0
2026/01/15 03:05:00.000   67.857353380   20.968457456   391.0063   6  16   0.0576   0.0694   0.0521  -0.0496   0.0333  -0.0408   0.00    0.0
2026/01/15 03:05:30.000   67.857353387   20.968457420   391.0054   6  17   0.0573   0.0690   0.0518  -0.0493   0.0331  -0.0406   0.00    0.0
2026/01/15 03:06:00.000   67.857353392   20.968457394   391.0046   6  16   0.0570   0.0685   0.0516  -0.0490   0.0329  -0.0404   0.00    0.0
2026/01/15 03:06:30.000   67.857353395   20.968457371   391.0038   6  17   0.0567   0.0681   0.0514  -0.0487   0.0327  -0.0402   0.00    0.0
2026/01/15 03:07:00.000   67.857353398   20.968457349   391.0031   6   9   0.0565   0.0678   0.0512  -0.0485   0.0326  -0.0400   0.00    0.0
2026/01/15 03:07:30.000   67.857353405   20.968457315   391.0023   6  18   0.0562   0.0674   0.0510  -0.0482   0.0324  -0.0398   0.00    0.0
2026/01/15 03:08:00.000   67.857353405   20.968457303   391.0017   6  18   0.0560   0.0671   0.0508  -0.0480   0.0323  -0.0397   0.00    0.0
2026/01/15 03:08:30.000   67.857353403   20.968457300   391.0012   6  18   0.0558   0.0668   0.0506  -0.0478   0.0321  -0.0395   0.00    0.0
2026/01/15 03:09:00.000   67.857353406   20.968457281   391.0003   6  18   0.0555   0.0665   0.0503  -0.0477   0.0320  -0.0393   0.00    0.0
2026/01/15 03:09:30.000   67.857353409   20.968457260   390.9995   6  17   0.0553   0.0661   0.0501  -0.0475   0.0319  -0.0392   0.00    0.0
2026/01/15 03:10:00.000   67.857353412   20.968457235   390.9985   6  11   0.0551   0.0659   0.0499  -0.0473   0.0317  -0.0390   0.00    0.0
2026/01/15 03:10:30.000   67.857353415   20.968457230   390.9984   6  16   0.0549   0.0656   0.0498  -0.0471   0.0316  -0.0388   0.00    0.0
2026/01/15 03:11:00.000   67.857353419   20.968457219   390.9981   6  17   0.0547   0.0653   0.0496  -0.0469   0.0315  -0.0387   0.00    0.0
2026/01/15 03:11:30.000   67.857353421   20.968457216   390.9981   6  17   0.0545   0.0650   0.0494  -0.0467   0.0314  -0.0385   0.00    0.0
2026/01/15 03:12:00.000   67.857353423   20.968457212   390.9981   6  17   0.0542   0.0647   0.0492  -0.0465   0.0313  -0.0383   0.00    0.0
2026/01/15 03:12:30.000   67.857353428   20.968457198   390.9979   6  17   0.0540   0.0644   0.0490  -0.0463   0.0312  -0.0382   0.00    0.0
2026/01/15 03:13:00.000   67.857353429   20.968457196   390.9979   6  18   0.0538   0.0641   0.0489  -0.0461   0.0311  -0.0380   0.00    0.0
2026/01/15 03:13:30.000   67.857353431   20.968457191   390.9979   6  17   0.0536   0.0638   0.0487  -0.0459   0.0310  -0.0378   0.00    0.0
2026/01/15 03:14:00.000   67.857353435   20.968457177   390.9977   6  18   0.0534   0.0635   0.0485  -0.0457   0.0309  -0.0377   0.00    0.0
2026/01/15 03:14:30.000   67.857353440   20.968457166   390.9974   6  18   0.0531   0.0632   0.0483  -0.0455   0.0308  -0.0375   0.00    0.0
2026/01/15 03:15:00.000   67.857353443   20.968457156   390.9972   6  18   0.0529   0.0629   0.0482  -0.0453   0.0307  -0.0373   0.00    0.0
2026/01/15 03:15:30.000   67.857353446   20.968457149   390.9971   6  18   0.0527   0.0626   0.0480  -0.0451   0.0306  -0.0372   0.00    0.0
2026/01/15 03:16:00.000   67.857353450   20.968457132   390.9969   6  18   0.0525   0.0623   0.0478  -0.0449   0.0304  -0.0370   0.00    0.0
2026/01/15 03:16:30.000   67.857353456   20.968457115   390.9965   6  18   0.0522   0.0620   0.0476  -0.0447   0.0303  -0.0368   0.00    0.0
2026/01/15 03:17:00.000   67.857353462   20.968457097   390.9962   6  18   0.0520   0.0617   0.0475  -0.0445   0.0302  -0.0367   0.00    0.0
2026/01/15 03:17:30.000   67.857353468   20.968457081   390.9958   6  18   0.0518   0.0614   0.0473  -0.0443   0.0301  -0.0365   0.00    0.0
2026/01/15 03:18:00.000   67.857353472   20.968457075   390.9955   6  18   0.0516   0.0611   0.0471  -0.0441   0.0300  -0.0363   0.00    0.0
2026/01/15 03:18:30.000   67.857353478   20.968457051   390.9950   6  12   0.0514   0.0608   0.0469  -0.0439   0.0298  -0.0362   0.00    0.0
2026/01/15 03:19:00.000   67.857353483   20.968457039   390.9947   6  18   0.0512   0.0606   0.0468  -0.0437   0.0297  -0.0360   0.00    0.0
2026/01/15 03:19:30.000   67.857353485   20.968457031   390.9946   6  18   0.0510   0.0603   0.0466  -0.0435   0.0296  -0.0358   0.00    0.0
2026/01/15 03:20:00.000   67.857353490   20.968457021   390.9943   6  18   0.0507   0.0600   0.0464  -0.0432   0.0295  -0.0357   0.00    0.0
2026/01/15 03:20:30.000   67.857353493   20.968457014   390.9939   6  18   0.0505   0.0597   0.0462  -0.0430   0.0294  -0.0355   0.00    0.0
2026/01/15 03:21:00.000   67.857353496   20.968457010   390.9936   6  18   0.0503   0.0594   0.0461  -0.0428   0.0292  -0.0354   0.00    0.0
2026/01/15 03:21:30.000   67.857353501   20.968457001   390.9931   6  18   0.0501   0.0591   0.0459  -0.0426   0.0291  -0.0352   0.00    0.0
2026/01/15 03:22:00.000   67.857353506   20.968456989   390.9927   6  18   0.0499   0.0588   0.0457  -0.0424   0.0290  -0.0350   0.00    0.0
2026/01/15 03:22:30.000   67.857353511   20.968456975   390.9922   6  17   0.0496   0.0585   0.0456  -0.0422   0.0288  -0.0349   0.00    0.0
2026/01/15 03:23:00.000   67.857353515   20.968456963   390.9918   6  18   0.0494   0.0582   0.0454  -0.0420   0.0287  -0.0347   0.00    0.0
2026/01/15 03:23:30.000   67.857353520   20.968456951   390.9913   6  18   0.0492   0.0579   0.0452  -0.0418   0.0286  -0.0346   0.00    0.0
2026/01/15 03:24:00.000   67.857353527   20.968456929   390.9908   6  18   0.0490   0.0576   0.0450  -0.0415   0.0285  -0.0344   0.00    0.0
2026/01/15 03:24:30.000   67.857353531   20.968456921   390.9902   6  18   0.0488   0.0573   0.0449  -0.0413   0.0283  -0.0342   0.00    0.0
2026/01/15 03:25:00.000   67.857353535   20.968456909   390.9897   6  17   0.0485   0.0570   0.0447  -0.0411   0.0282  -0.0341   0.00    0.0
2026/01/15 03:25:30.000   67.857353539   20.968456898   390.9892   6  17   0.0483   0.0568   0.0445  -0.0409   0.0281  -0.0339   0.00    0.0
2026/01/15 03:26:00.000   67.857353543   20.968456890   390.9887   6  18   0.0481   0.0565   0.0443  -0.0407   0.0279  -0.0337   0.00    0.0
2026/01/15 03:26:30.000   67.857353548   20.968456878   390.9881   6  18   0.0479   0.0562   0.0442  -0.0405   0.0278  -0.0336   0.00    0.0
2026/01/15 03:27:00.000   67.857353554   20.968456866   390.9875   6  19   0.0477   0.0559   0.0440  -0.0402   0.0277  -0.0334   0.00    0.0
2026/01/15 03:27:30.000   67.857353560   20.968456847   390.9868   6  18   0.0474   0.0556   0.0438  -0.0400   0.0275  -0.0333   0.00    0.0
2026/01/15 03:28:00.000   67.857353567   20.968456833   390.9860   6  18   0.0472   0.0553   0.0437  -0.0398   0.0274  -0.0331   0.00    0.0
2026/01/15 03:28:30.000   67.857353575   20.968456816   390.9851   6  19   0.0470   0.0550   0.0435  -0.0396   0.0272  -0.0329   0.00    0.0
2026/01/15 03:29:00.000   67.857353581   20.968456802   390.9843   6  19   0.0468   0.0548   0.0433  -0.0394   0.0271  -0.0328   0.00    0.0
2026/01/15 03:29:30.000   67.857353586   20.968456791   390.9834   6  19   0.0466   0.0545   0.0431  -0.0391   0.0270  -0.0326   0.00    0.0
2026/01/15 03:30:00.000   67.857353596   20.968456769   390.9822   6  19   0.0464   0.0542   0.0430  -0.0389   0.0268  -0.0325   0.00    0.0
2026/01/15 03:30:30.000   67.857353604   20.968456751   390.9812   6  18   0.0461   0.0539   0.0428  -0.0387   0.0267  -0.0323   0.00    0.0
2026/01/15 03:31:00.000   67.857353612   20.968456732   390.9801   6  18   0.0459   0.0536   0.0426  -0.0385   0.0265  -0.0321   0.00    0.0
2026/01/15 03:31:30.000   67.857353620   20.968456716   390.9790   6  17   0.0457   0.0534   0.0425  -0.0383   0.0264  -0.0320   0.00    0.0
2026/01/15 03:32:00.000   67.857353627   20.968456705   390.9779   6  17   0.0455   0.0531   0.0423  -0.0380   0.0263  -0.0318   0.00    0.0
2026/01/15 03:32:30.000   67.857353633   20.968456692   390.9768   6  17   0.0453   0.0528   0.0421  -0.0378   0.0261  -0.0317   0.00    0.0
2026/01/15 03:33:00.000   67.857353641   20.968456675   390.9757   6  17   0.0451   0.0525   0.0420  -0.0376   0.0260  -0.0315   0.00    0.0
2026/01/15 03:33:30.000   67.857353647   20.968456663   390.9747   6  17   0.0449   0.0523   0.0418  -0.0374   0.0258  -0.0314   0.00    0.0
2026/01/15 03:34:00.000   67.857353655   20.968456646   390.9735   6  17   0.0447   0.0520   0.0417  -0.0372   0.0257  -0.0312   0.00    0.0
2026/01/15 03:34:30.000   67.857353662   20.968456629   390.9726   6  17   0.0445   0.0518   0.0415  -0.0370   0.0256  -0.0311   0.00    0.0
2026/01/15 03:35:00.000   67.857353668   20.968456610   390.9721   6   9   0.0443   0.0515   0.0414  -0.0368   0.0255  -0.0310   0.00    0.0
2026/01/15 03:35:30.000   67.857353674   20.968456592   390.9716   6  16   0.0441   0.0513   0.0413  -0.0366   0.0254  -0.0308   0.00    0.0
2026/01/15 03:36:00.000   67.857353678   20.968456575   390.9711   6  16   0.0439   0.0510   0.0412  -0.0364   0.0253  -0.0307   0.00    0.0
2026/01/15 03:36:30.000   67.857353681   20.968456558   390.9707   6  16   0.0437   0.0508   0.0411  -0.0362   0.0252  -0.0306   0.00    0.0
2026/01/15 03:37:00.000   67.857353686   20.968456542   390.9703   6  16   0.0435   0.0505   0.0410  -0.0360   0.0251  -0.0304   0.00    0.0
2026/01/15 03:37:30.000   67.857353691   20.968456524   390.9697   6  16   0.0433   0.0503   0.0408  -0.0357   0.0250  -0.0303   0.00    0.0
2026/01/15 03:38:00.000   67.857353697   20.968456502   390.9692   6  16   0.0431   0.0501   0.0407  -0.0355   0.0249  -0.0302   0.00    0.0
2026/01/15 03:38:30.000   67.857353702   20.968456482   390.9686   6  16   0.0429   0.0498   0.0406  -0.0353   0.0248  -0.0300   0.00    0.0
2026/01/15 03:39:00.000   67.857353701   20.968456480   390.9683   6  15   0.0428   0.0497   0.0405  -0.0353   0.0248  -0.0300   0.00    0.0
2026/01/15 03:39:30.000   67.857353703   20.968456467   390.9678   6  15   0.0427   0.0496   0.0404  -0.0352   0.0247  -0.0299   0.00    0.0
2026/01/15 03:40:00.000   67.857353703   20.968456463   390.9675   6  15   0.0426   0.0495   0.0403  -0.0352   0.0247  -0.0298   0.00    0.0
2026/01/15 03:40:30.000   67.857353703   20.968456458   390.9671   6  15   0.0425   0.0494   0.0402  -0.0351   0.0247  -0.0298   0.00    0.0
2026/01/15 03:41:00.000   67.857353706   20.968456448   390.9665   6  15   0.0424   0.0493   0.0401  -0.0351   0.0247  -0.0297   0.00    0.0
2026/01/15 03:41:30.000   67.857353708   20.968456438   390.9660   6  15   0.0423   0.0491   0.0400  -0.0350   0.0247  -0.0296   0.00    0.0
2026/01/15 03:42:00.000   67.857353709   20.968456434   390.9655   6  15   0.0422   0.0490   0.0399  -0.0349   0.0246  -0.0295   0.00    0.0
2026/01/15 03:42:30.000   67.857353710   20.968456429   390.9650   6  15   0.0421   0.0489   0.0398  -0.0349   0.0246  -0.0295   0.00    0.0
2026/01/15 03:43:00.000   67.857353714   20.968456417   390.9644   6  15   0.0420   0.0488   0.0397  -0.0348   0.0246  -0.0294   0.00    0.0
2026/01/15 03:43:30.000   67.857353718   20.968456403   390.9637   6  15   0.0419   0.0487   0.0396  -0.0347   0.0246  -0.0293   0.00    0.0
2026/01/15 03:44:00.000   67.857353721   20.968456392   390.9630   6  15   0.0418   0.0486   0.0395  -0.0347   0.0245  -0.0293   0.00    0.0
2026/01/15 03:44:30.000   67.857353725   20.968456379   390.9621   6  15   0.0417   0.0485   0.0394  -0.0346   0.0245  -0.0292   0.00    0.0
2026/01/15 03:45:00.000   67.857353730   20.968456362   390.9611   6  15   0.0416   0.0484   0.0393  -0.0346   0.0245  -0.0291   0.00    0.0
2026/01/15 03:45:30.000   67.857353735   20.968456346   390.9602   6  15   0.0415   0.0482   0.0392  -0.0345   0.0245  -0.0290   0.00    0.0
2026/01/15 03:46:00.000   67.857353740   20.968456333   390.9593   6  15   0.0414   0.0481   0.0391  -0.0344   0.0244  -0.0290   0.00    0.0
2026/01/15 03:46:30.000   67.857353745   20.968456327   390.9584   6  15   0.0413   0.0480   0.0389  -0.0343   0.0244  -0.0289   0.00    0.0
2026/01/15 03:47:00.000   67.857353750   20.968456311   390.9574   6  15   0.0412   0.0479   0.0388  -0.0343   0.0244  -0.0288   0.00    0.0
2026/01/15 03:47:30.000   67.857353755   20.968456295   390.9565   6  15   0.0411   0.0478   0.0387  -0.0342   0.0243  -0.0287   0.00    0.0
2026/01/15 03:48:00.000   67.857353760   20.968456275   390.9554   6  15   0.0410   0.0477   0.0386  -0.0341   0.0243  -0.0287   0.00    0.0
2026/01/15 03:48:30.000   67.857353766   20.968456258   390.9543   6  15   0.0409   0.0476   0.0385  -0.0341   0.0242  -0.0286   0.00    0.0
2026/01/15 03:49:00.000   67.857353775   20.968456239   390.9529   6  15   0.0408   0.0474   0.0384  -0.0340   0.0242  -0.0285   0.00    0.0
2026/01/15 03:49:30.000   67.857353780   20.968456229   390.9516   6  15   0.0407   0.0473   0.0383  -0.0339   0.0242  -0.0284   0.00    0.0
2026/01/15 03:50:00.000   67.857353780   20.968456220   390.9516   6  14   0.0406   0.0472   0.0383  -0.0339   0.0241  -0.0284   0.00    0.0
2026/01/15 03:50:30.000   67.857353782   20.968456207   390.9514   6  14   0.0405   0.0471   0.0382  -0.0338   0.0241  -0.0284   0.00    0.0
2026/01/15 03:51:00.000   67.857353783   20.968456191   390.9511   6  14   0.0404   0.0470   0.0382  -0.0337   0.0241  -0.0284   0.00    0.0
2026/01/15 03:51:30.000   67.857353785   20.968456176   390.9509   6  14   0.0403   0.0469   0.0381  -0.0336   0.0241  -0.0283   0.00    0.0
2026/01/15 03:52:00.000   67.857353785   20.968456166   390.9508   6  15   0.0403   0.0468   0.0381  -0.0336   0.0240  -0.0283   0.00    0.0
2026/01/15 03:52:30.000   67.857353785   20.968456151   390.9505   6  15   0.0402   0.0466   0.0380  -0.0335   0.0240  -0.0283   0.00    0.0
2026/01/15 03:53:00.000   67.857353786   20.968456146   390.9505   6   7   0.0401   0.0466   0.0380  -0.0335   0.0240  -0.0282   0.00    0.0
