% program   : RTKPOST-EX 2.5.0
% inp file  : C:\PPP_PROJECT\New_Data\obs\RNXDATA\KIRU00SWE_R_20260150000_01D_30S_MO.rnx
% inp file  : C:\PPP_PROJECT\New_Data\nav\BRDC00IGS_R_20260150000_01D_MN.rnx
% inp file  : C:\PPP_PROJECT\New_Data\DATA_FINAL_ANT_EXTRA\COD0MGXFIN_20260150000_01D_05M_ORB.SP3
% inp file  : C:\PPP_PROJECT\New_Data\DATA_FINAL_ANT_EXTRA\COD0MGXFIN_20260150000_01D_30S_CLK.CLK
% obs start : 2026/01/15 00:00:00.0 GPST (week2401 345600.0s)
% obs end   : 2026/01/15 23:59:30.0 GPST (week2401 431970.0s)
% pos mode  : PPP Static
% freqs     : L1+L2/E5b
% solution  : Forward
% elev mask : 15.0 deg
% dynamics  : on
% tidecorr  :
% ionos opt : Iono-Free LC
% tropo opt : Saastamoinen
% ephemeris : Precise
% navi sys  : GPS
% antenna1  :                       ( 0.0000  0.0000  0.0000)
%
% (lat/lon/height=WGS84/ellipsoidal,Q=1:fix,2:float,3:sbas,4:dgps,5:single,6:ppp,ns=# of satellites)
%  GPST                  latitude(deg) longitude(deg)  height(m)   Q  ns   sdn(m)   sde(m)   sdu(m)  sdne(m)  sdeu(m)  sdun(m) age(s)  ratio
2026/01/15 00:00:00.000   67.857351111   20.968478864   392.9781   6   8   3.8667   3.2286   9.8408  -0.8208  -2.5354   3.5331   0.00    0.0
2026/01/15 00:01:00.000   67.857347941   20.968478174   392.3278   6   8   2.2332   1.8697   5.6529  -0.4791  -1.4711   2.0144   0.00    0.0
2026/01/15 00:10:00.000   67.857348947   20.968475360   391.9200   6   8   0.7808   0.6984   1.7072  -0.1687  -0.5042   0.4624   0.00    0.0
2026/01/15 00:10:30.000   67.857349138   20.968474844   391.8482   6   8   0.7456   0.6766   1.5428  -0.1362  -0.4562   0.3612   0.00    0.0
2026/01/15 00:15:30.000   67.857348687   20.968473924   391.7306   6   9   0.6196   0.5603   1.2083  -0.1328  -0.3598   0.2058   0.00    0.0
2026/01/15 00:18:30.000   67.857348540   20.968474491   391.6458   6   9   0.5648   0.5114   1.0445  -0.1156  -0.3098  -0.0789   0.00    0.0
2026/01/15 00:20:30.000   67.857348596   20.968474085   391.5481   6   9   0.5330   0.4834   0.9406  -0.1012  -0.2772  -0.1789   0.00    0.0
2026/01/15 00:21:00.000   67.857348572   20.968473996   391.5133   6   9   0.5219   0.4745   0.8858  -0.0869  -0.2595  -0.2218   0.00    0.0
2026/01/15 00:23:00.000   67.857348687   20.968474857   391.5305   6   6   0.4994   0.4552   0.8484  -0.0877  -0.2441  -0.2267   0.00    0.0
2026/01/15 00:25:00.000   67.857348436   20.968474246   391.5274   6   6   0.4792   0.4379   0.8134  -0.0871  -0.2287  -0.2312   0.00    0.0
2026/01/15 00:25:30.000   67.857348510   20.968473840   391.4934   6   8   0.4717   0.4293   0.7683  -0.0723  -0.2148  -0.2446   0.00    0.0
2026/01/15 00:27:30.000   67.857348543   20.968474374   391.4544   6   5   0.4544   0.4152   0.7243  -0.0700  -0.2032  -0.2485   0.00    0.0
2026/01/15 00:28:00.000   67.857348589   20.968473707   391.4267   6   7   0.4480   0.4084   0.6929  -0.0543  -0.1902  -0.2536   0.00    0.0
2026/01/15 00:28:30.000   67.857348682   20.968473126   391.4151   6   7   0.4422   0.4024   0.6680  -0.0385  -0.1800  -0.2568   0.00    0.0
2026/01/15 00:29:00.000   67.857348821   20.968472807   391.3953   6   8   0.4368   0.3971   0.6474  -0.0185  -0.1718  -0.2586   0.00    0.0
2026/01/15 00:29:30.000   67.857348822   20.968472143   391.3817   6   7   0.4318   0.3921   0.6297   0.0242  -0.1650  -0.2596   0.00    0.0
2026/01/15 00:30:00.000   67.857348883   20.968471900   391.3628   6   8   0.4270   0.3875   0.6140   0.0366  -0.1592  -0.2600   0.00    0.0
2026/01/15 00:30:30.000   67.857349088   20.968471824   391.3643   6   7   0.4226   0.3832   0.6067   0.0442  -0.1536  -0.2583   0.00    0.0
2026/01/15 00:31:00.000   67.857349193   20.968471620   391.3689   6   7   0.4184   0.3791   0.5998   0.0499  -0.1484  -0.2565   0.00    0.0
2026/01/15 00:31:30.000   67.857349129   20.968471460   391.3916   6   7   0.4145   0.3752   0.5933   0.0545  -0.1437  -0.2547   0.00    0.0
2026/01/15 00:32:00.000   67.857349278   20.968471450   391.3895   6   7   0.4107   0.3714   0.5870   0.0583  -0.1392  -0.2528   0.00    0.0
2026/01/15 00:32:30.000   67.857349350   20.968471159   391.3980   6   7   0.4070   0.3677   0.5810   0.0616  -0.1351  -0.2509   0.00    0.0
2026/01/15 00:33:00.000   67.857349415   20.968471063   391.4054   6   7   0.4034   0.3641   0.5750   0.0644  -0.1312  -0.2490   0.00    0.0
2026/01/15 00:33:30.000   67.857349407   20.968470898   391.4161   6   7   0.4008   0.3610   0.5694   0.0635  -0.1268  -0.2478   0.00    0.0
2026/01/15 00:34:00.000   67.857349445   20.968470818   391.4161   6   7   0.3983   0.3580   0.5638   0.0625  -0.1226  -0.2466   0.00    0.0
2026/01/15 00:34:30.000   67.857349435   20.968470882   391.4250   6   7   0.3958   0.3549   0.5584   0.0615  -0.1185  -0.2455   0.00    0.0
2026/01/15 00:35:00.000   67.857349512   20.968470776   391.4271   6   7   0.3933   0.3520   0.5530   0.0606  -0.1146  -0.2444   0.00    0.0
2026/01/15 00:35:30.000   67.857349535   20.968470942   391.4360   6   7   0.3909   0.3490   0.5476   0.0597  -0.1108  -0.2433   0.00    0.0
2026/01/15 00:36:00.000   67.857349538   20.968470926   391.4380   6   7   0.3885   0.3461   0.5423   0.0588  -0.1071  -0.2422   0.00    0.0
2026/01/15 00:36:30.000   67.857349509   20.968470644   391.4465   6   7   0.3861   0.3433   0.5371   0.0579  -0.1035  -0.2411   0.00    0.0
2026/01/15 00:37:00.000   67.857349463   20.968470533   391.4521   6   7   0.3837   0.3404   0.5318   0.0571  -0.1001  -0.2401   0.00    0.0
2026/01/15 00:37:30.000   67.857349475   20.968470444   391.4544   6   7   0.3814   0.3376   0.5266   0.0564  -0.0968  -0.2391   0.00    0.0
2026/01/15 00:38:00.000   67.857349590   20.968470446   391.4446   6   7   0.3791   0.3348   0.5214   0.0557  -0.0937  -0.2382   0.00    0.0
2026/01/15 00:38:30.000   67.857349673   20.968470388   391.4398   6   7   0.3768   0.3320   0.5162   0.0551  -0.0906  -0.2372   0.00    0.0
2026/01/15 00:39:00.000   67.857349727   20.968470280   391.4369   6   7   0.3746   0.3292   0.5111   0.0545  -0.0877  -0.2363   0.00    0.0
2026/01/15 00:39:30.000   67.857349785   20.968470182   391.4326   6   7   0.3723   0.3265   0.5059   0.0539  -0.0849  -0.2354   0.00    0.0
2026/01/15 00:40:00.000   67.857349794   20.968470152   391.4360   6   7   0.3700   0.3237   0.5007   0.0535  -0.0822  -0.2346   0.00    0.0
2026/01/15 00:40:30.000   67.857349755   20.968469996   391.4358   6   6   0.3678   0.3210   0.4956   0.0531  -0.0797  -0.2337   0.00    0.0
2026/01/15 00:41:00.000   67.857349776   20.968469829   391.4343   6   7   0.3656   0.3182   0.4904   0.0528  -0.0773  -0.2328   0.00    0.0
2026/01/15 00:41:30.000   67.857349777   20.968469744   391.4365   6   7   0.3635   0.3155   0.4853   0.0521  -0.0750  -0.2321   0.00    0.0
2026/01/15 00:42:00.000   67.857349779   20.968469896   391.4423   6   6   0.3614   0.3138   0.4807   0.0505  -0.0689  -0.2316   0.00    0.0
2026/01/15 00:42:30.000   67.857349782   20.968469942   391.4429   6   6   0.3594   0.3120   0.4762   0.0487  -0.0623  -0.2312   0.00    0.0
2026/01/15 00:43:00.000   67.857349830   20.968469938   391.4409   6   6   0.3574   0.3104   0.4717   0.0468  -0.0552  -0.2307   0.00    0.0
2026/01/15 00:43:30.000   67.857349848   20.968470160   391.4474   6   7   0.3554   0.3087   0.4672   0.0449  -0.0472  -0.2303   0.00    0.0
2026/01/15 00:44:00.000   67.857349892   20.968470113   391.4464   6   7   0.3534   0.3071   0.4627   0.0429  -0.0378  -0.2298   0.00    0.0
2026/01/15 00:44:30.000   67.857349958   20.968470227   391.4439   6   7   0.3512   0.3055   0.4580   0.0416  -0.0272  -0.2291   0.00    0.0
2026/01/15 00:45:00.000   67.857349895   20.968470193   391.4523   6   8   0.3489   0.3039   0.4534   0.0402  -0.0086  -0.2283   0.00    0.0
2026/01/15 00:45:30.000   67.857349907   20.968470213   391.4563   6   8   0.3467   0.3023   0.4488   0.0388   0.0238  -0.2275   0.00    0.0
2026/01/15 00:46:00.000   67.857349893   20.968470338   391.4632   6   6   0.3445   0.3008   0.4442   0.0374   0.0343  -0.2268   0.00    0.0
2026/01/15 00:46:30.000   67.857349966   20.968470333   391.4606   6   7   0.3422   0.2992   0.4396   0.0360   0.0420  -0.2260   0.00    0.0
2026/01/15 00:47:00.000   67.857350011   20.968470466   391.4637   6   8   0.3402   0.2977   0.4351   0.0353   0.0480  -0.2253   0.00    0.0
2026/01/15 00:47:30.000   67.857349976   20.968470373   391.4709   6   8   0.3382   0.2963   0.4307   0.0347   0.0532  -0.2247   0.00    0.0
2026/01/15 00:48:00.000   67.857349963   20.968470409   391.4775   6   8   0.3362   0.2949   0.4262   0.0341   0.0576  -0.2241   0.00    0.0
2026/01/15 00:48:30.000   67.857350008   20.968470399   391.4761   6   8   0.3343   0.2935   0.4219   0.0332   0.0617  -0.2235   0.00    0.0
2026/01/15 00:49:00.000   67.857350017   20.968470455   391.4794   6   8   0.3323   0.2922   0.4175   0.0323   0.0654  -0.2229   0.00    0.0
2026/01/15 00:49:30.000   67.857350030   20.968470519   391.4822   6   8   0.3304   0.2908   0.4132   0.0313   0.0688  -0.2223   0.00    0.0
2026/01/15 00:50:00.000   67.857350083   20.968470558   391.4783   6   7   0.3284   0.2895   0.4088   0.0303   0.0718  -0.2216   0.00    0.0
2026/01/15 00:50:30.000   67.857350121   20.968470562   391.4788   6   8   0.3265   0.2882   0.4045   0.0293   0.0745  -0.2210   0.00    0.0
2026/01/15 00:51:00.000   67.857350168   20.968470630   391.4780   6   8   0.3246   0.2869   0.4002   0.0282   0.0770  -0.2203   0.00    0.0
2026/01/15 00:51:30.000   67.857350230   20.968470668   391.4762   6   8   0.3227   0.2856   0.3960   0.0271   0.0792  -0.2196   0.00    0.0
2026/01/15 00:52:00.000   67.857350228   20.968470714   391.4795   6   7   0.3208   0.2844   0.3917   0.0260   0.0813  -0.2189   0.00    0.0
2026/01/15 00:52:30.000   67.857350222   20.968470685   391.4807   6   7   0.3188   0.2831   0.3875   0.0247   0.0833  -0.2181   0.00    0.0
2026/01/15 00:53:00.000   67.857350244   20.968470696   391.4788   6   7   0.3169   0.2819   0.3833   0.0235   0.0850  -0.2173   0.00    0.0
2026/01/15 00:53:30.000   67.857350273   20.968470800   391.4777   6   7   0.3149   0.2807   0.3790   0.0221   0.0867  -0.2164   0.00    0.0
2026/01/15 00:54:00.000   67.857350271   20.968470913   391.4809   6   7   0.3131   0.2795   0.3751   0.0195   0.0885  -0.2158   0.00    0.0
2026/01/15 00:54:30.000   67.857350296   20.968470889   391.4795   6   7   0.3113   0.2784   0.3712   0.0166   0.0903  -0.2152   0.00    0.0
2026/01/15 00:55:30.000   67.857350316   20.968470822   391.4798   6   7   0.3083   0.2763   0.3665   0.0109   0.0916  -0.2133   0.00    0.0
2026/01/15 00:56:00.000   67.857350364   20.968470772   391.4770   6   8   0.3064   0.2752   0.3624   0.0020   0.0933  -0.2126   0.00    0.0
2026/01/15 00:56:30.000   67.857350347   20.968470543   391.4779   6   8   0.3045   0.2741   0.3584  -0.0106   0.0948  -0.2119   0.00    0.0
2026/01/15 00:59:30.000   67.857350400   20.968470568   391.4744   6   4   0.2987   0.2692   0.3516  -0.0207   0.0954  -0.2075   0.00    0.0
2026/01/15 01:01:00.000   67.857350455   20.968470449   391.4669   6   4   0.2963   0.2670   0.3503  -0.0230   0.0950  -0.2048   0.00    0.0
2026/01/15 01:03:00.000   67.857350530   20.968470262   391.4580   6   8   0.2930   0.2639   0.3435  -0.0250   0.0964  -0.2023   0.00    0.0
2026/01/15 01:03:30.000   67.857350575   20.968470146   391.4545   6   8   0.2921   0.2630   0.3384  -0.0251   0.0981  -0.2025   0.00    0.0
2026/01/15 01:04:00.000   67.857350567   20.968470155   391.4568   6   8   0.2913   0.2622   0.3335  -0.0252   0.0995  -0.2026   0.00    0.0
2026/01/15 01:04:30.000   67.857350532   20.968470086   391.4608   6   8   0.2904   0.2614   0.3288  -0.0254   0.1008  -0.2026   0.00    0.0
2026/01/15 01:05:00.000   67.857350554   20.968470037   391.4581   6   8   0.2895   0.2606   0.3243  -0.0256   0.1019  -0.2027   0.00    0.0
2026/01/15 01:05:30.000   67.857350557   20.968470002   391.4578   6   8   0.2887   0.2598   0.3200  -0.0258   0.1029  -0.2027   0.00    0.0
2026/01/15 01:06:00.000   67.857350601   20.968470098   391.4554   6   8   0.2878   0.2590   0.3159  -0.0261   0.1037  -0.2026   0.00    0.0
2026/01/15 01:06:30.000   67.857350609   20.968470069   391.4543   6   6   0.2870   0.2582   0.3119  -0.0264   0.1045  -0.2026   0.00    0.0
2026/01/15 01:07:00.000   67.857350634   20.968469970   391.4524   6   8   0.2862   0.2574   0.3081  -0.0268   0.1051  -0.2025   0.00    0.0
2026/01/15 01:07:30.000   67.857350607   20.968469912   391.4552   6   8   0.2853   0.2567   0.3045  -0.0271   0.1057  -0.2024   0.00    0.0
2026/01/15 01:08:00.000   67.857350564   20.968469882   391.4596   6   8   0.2845   0.2559   0.3010  -0.0275   0.1062  -0.2023   0.00    0.0
2026/01/15 01:08:30.000   67.857350556   20.968469865   391.4605   6   8   0.2836   0.2552   0.2976  -0.0280   0.1066  -0.2022   0.00    0.0
2026/01/15 01:09:00.000   67.857350549   20.968469910   391.4608   6   8   0.2828   0.2544   0.2943  -0.0284   0.1069  -0.2020   0.00    0.0
2026/01/15 01:10:00.000   67.857350532   20.968469860   391.4610   6   8   0.2812   0.2530   0.2906  -0.0295   0.1071  -0.2011   0.00    0.0
2026/01/15 01:10:30.000   67.857350506   20.968469708   391.4630   6   8   0.2803   0.2522   0.2874  -0.0300   0.1073  -0.2009   0.00    0.0
2026/01/15 01:11:00.000   67.857350497   20.968469715   391.4631   6   8   0.2794   0.2515   0.2843  -0.0305   0.1074  -0.2007   0.00    0.0
2026/01/15 01:11:30.000   67.857350498   20.968469656   391.4625   6   8   0.2785   0.2507   0.2813  -0.0309   0.1075  -0.2005   0.00    0.0
2026/01/15 01:12:00.000   67.857350542   20.968469621   391.4577   6   8   0.2775   0.2500   0.2783  -0.0314   0.1076  -0.2002   0.00    0.0
2026/01/15 01:12:30.000   67.857350505   20.968469562   391.4591   6   8   0.2766   0.2492   0.2755  -0.0320   0.1075  -0.1999   0.00    0.0
2026/01/15 01:13:00.000   67.857350543   20.968469577   391.4552   6   8   0.2756   0.2485   0.2727  -0.0327   0.1075  -0.1995   0.00    0.0
2026/01/15 01:13:30.000   67.857350530   20.968469524   391.4553   6   8   0.2746   0.2478   0.2700  -0.0333   0.1074  -0.1992   0.00    0.0
2026/01/15 01:14:00.000   67.857350547   20.968469488   391.4529   6   8   0.2737   0.2471   0.2674  -0.0339   0.1073  -0.1988   0.00    0.0
2026/01/15 01:14:30.000   67.857350573   20.968469398   391.4494   6   8   0.2726   0.2463   0.2649  -0.0346   0.1071  -0.1984   0.00    0.0
2026/01/15 01:15:00.000   67.857350592   20.968469370   391.4479   6   8   0.2716   0.2456   0.2624  -0.0352   0.1069  -0.1979   0.00    0.0
2026/01/15 01:15:30.000   67.857350621   20.968469317   391.4434   6   8   0.2705   0.2449   0.2599  -0.0358   0.1066  -0.1974   0.00    0.0
2026/01/15 01:16:00.000   67.857350619   20.968469300   391.4432   6   8   0.2695   0.2442   0.2575  -0.0364   0.1064  -0.1969   0.00    0.0
2026/01/15 01:16:30.000   67.857350618   20.968469334   391.4431   6   8   0.2683   0.2434   0.2551  -0.0370   0.1061  -0.1964   0.00    0.0
2026/01/15 01:17:00.000   67.857350654   20.968469326   391.4395   6   8   0.2672   0.2427   0.2528  -0.0376   0.1057  -0.1958   0.00    0.0
2026/01/15 01:17:30.000   67.857350668   20.968469344   391.4371   6   8   0.2660   0.2419   0.2505  -0.0381   0.1054  -0.1952   0.00    0.0
2026/01/15 01:18:00.000   67.857350681   20.968469284   391.4350   6   8   0.2648   0.2412   0.2482  -0.0387   0.1050  -0.1945   0.00    0.0
2026/01/15 01:18:30.000   67.857350698   20.968469312   391.4330   6   8   0.2635   0.2404   0.2460  -0.0392   0.1046  -0.1938   0.00    0.0
2026/01/15 01:19:00.000   67.857350693   20.968469192   391.4318   6   8   0.2622   0.2396   0.2437  -0.0397   0.1042  -0.1930   0.00    0.0
2026/01/15 01:19:30.000   67.857350730   20.968469217   391.4283   6   8   0.2609   0.2389   0.2415  -0.0402   0.1037  -0.1923   0.00    0.0
2026/01/15 01:20:00.000   67.857350781   20.968469155   391.4226   6   8   0.2595   0.2381   0.2393  -0.0407   0.1032  -0.1914   0.00    0.0
2026/01/15 01:20:30.000   67.857350828   20.968469093   391.4175   6   8   0.2581   0.2373   0.2372  -0.0412   0.1027  -0.1905   0.00    0.0
2026/01/15 01:21:00.000   67.857350844   20.968469076   391.4146   6   8   0.2567   0.2365   0.2350  -0.0417   0.1022  -0.1896   0.00    0.0
2026/01/15 01:21:30.000   67.857350886   20.968468996   391.4100   6   8   0.2552   0.2357   0.2328  -0.0421   0.1016  -0.1886   0.00    0.0
2026/01/15 01:22:00.000   67.857350933   20.968468907   391.4052   6   8   0.2537   0.2349   0.2307  -0.0426   0.1010  -0.1876   0.00    0.0
2026/01/15 01:22:30.000   67.857350988   20.968468812   391.3994   6   8   0.2521   0.2341   0.2286  -0.0431   0.1004  -0.1866   0.00    0.0
2026/01/15 01:23:00.000   67.857351012   20.968468750   391.3957   6   8   0.2505   0.2333   0.2264  -0.0435   0.0998  -0.1855   0.00    0.0
2026/01/15 01:23:30.000   67.857351026   20.968468708   391.3931   6   8   0.2488   0.2325   0.2243  -0.0439   0.0992  -0.1843   0.00    0.0
2026/01/15 01:24:00.000   67.857351051   20.968468546   391.3894   6   8   0.2472   0.2316   0.2222  -0.0443   0.0985  -0.1832   0.00    0.0
2026/01/15 01:24:30.000   67.857351106   20.968468445   391.3832   6   8   0.2454   0.2308   0.2201  -0.0446   0.0978  -0.1819   0.00    0.0
2026/01/15 01:25:00.000   67.857351144   20.968468359   391.3794   6   7   0.2438   0.2299   0.2181  -0.0451   0.0972  -0.1809   0.00    0.0
2026/01/15 01:25:30.000   67.857351177   20.968468292   391.3756   6   7   0.2422   0.2291   0.2161  -0.0457   0.0966  -0.1797   0.00    0.0
2026/01/15 01:26:00.000   67.857351196   20.968468136   391.3725   6   7   0.2405   0.2283   0.2142  -0.0462   0.0959  -0.1786   0.00    0.0
2026/01/15 01:26:30.000   67.857351225   20.968468081   391.3683   6   7   0.2388   0.2274   0.2122  -0.0467   0.0953  -0.1774   0.00    0.0
2026/01/15 01:27:00.000   67.857351258   20.968467997   391.3644   6   7   0.2371   0.2266   0.2103  -0.0472   0.0946  -0.1762   0.00    0.0
2026/01/15 01:27:30.000   67.857351283   20.968467952   391.3609   6   7   0.2353   0.2257   0.2083  -0.0477   0.0940  -0.1749   0.00    0.0
2026/01/15 01:28:00.000   67.857351324   20.968467816   391.3559   6   7   0.2335   0.2248   0.2064  -0.0482   0.0933  -0.1736   0.00    0.0
2026/01/15 01:28:30.000   67.857351358   20.968467737   391.3519   6   7   0.2317   0.2240   0.2044  -0.0487   0.0927  -0.1723   0.00    0.0
2026/01/15 01:29:00.000   67.857351378   20.968467604   391.3487   6   7   0.2298   0.2231   0.2025  -0.0492   0.0920  -0.1710   0.00    0.0
2026/01/15 01:29:30.000   67.857351400   20.968467480   391.3453   6   7   0.2279   0.2222   0.2006  -0.0497   0.0913  -0.1696   0.00    0.0
2026/01/15 01:30:00.000   67.857351428   20.968467391   391.3417   6   7   0.2260   0.2213   0.1987  -0.0502   0.0906  -0.1682   0.00    0.0
2026/01/15 01:30:30.000   67.857351478   20.968467283   391.3361   6   7   0.2241   0.2204   0.1968  -0.0506   0.0899  -0.1668   0.00    0.0
2026/01/15 01:31:30.000   67.857351529   20.968467253   391.3306   6   7   0.2217   0.2190   0.1946  -0.0511   0.0890  -0.1650   0.00    0.0
2026/01/15 01:32:00.000   67.857351559   20.968467145   391.3268   6   6   0.2197   0.2180   0.1926  -0.0516   0.0883  -0.1634   0.00    0.0
2026/01/15 01:32:30.000   67.857351596   20.968467097   391.3224   6   6   0.2176   0.2170   0.1906  -0.0522   0.0875  -0.1619   0.00    0.0
2026/01/15 01:33:00.000   67.857351646   20.968467039   391.3168   6   6   0.2155   0.2161   0.1887  -0.0527   0.0868  -0.1603   0.00    0.0
2026/01/15 01:33:30.000   67.857351699   20.968466937   391.3116   6   6   0.2134   0.2151   0.1867  -0.0532   0.0860  -0.1587   0.00    0.0
2026/01/15 01:34:00.000   67.857351750   20.968466801   391.3063   6   6   0.2113   0.2141   0.1848  -0.0536   0.0853  -0.1571   0.00    0.0
2026/01/15 01:34:30.000   67.857351790   20.968466796   391.3020   6   6   0.2092   0.2132   0.1828  -0.0541   0.0845  -0.1555   0.00    0.0
2026/01/15 01:35:00.000   67.857351819   20.968466685   391.2977   6   6   0.2072   0.2122   0.1809  -0.0546   0.0837  -0.1539   0.00    0.0
2026/01/15 01:35:30.000   67.857351851   20.968466670   391.2938   6   7   0.2051   0.2112   0.1790  -0.0550   0.0830  -0.1523   0.00    0.0
2026/01/15 01:36:00.000   67.857351883   20.968466556   391.2898   6   7   0.2030   0.2102   0.1772  -0.0554   0.0822  -0.1507   0.00    0.0
2026/01/15 01:36:30.000   67.857351872   20.968466493   391.2890   6   7   0.2018   0.2094   0.1759  -0.0574   0.0822  -0.1500   0.00    0.0
2026/01/15 01:37:00.000   67.857351881   20.968466437   391.2866   6   7   0.2005   0.2086   0.1746  -0.0594   0.0823  -0.1493   0.00    0.0
2026/01/15 01:37:30.000   67.857351875   20.968466380   391.2855   6   7   0.1993   0.2079   0.1733  -0.0612   0.0824  -0.1485   0.00    0.0
2026/01/15 01:38:00.000   67.857351856   20.968466408   391.2855   6   7   0.1981   0.2071   0.1721  -0.0630   0.0825  -0.1478   0.00    0.0
2026/01/15 01:38:30.000   67.857351849   20.968466336   391.2841   6   7   0.1968   0.2063   0.1708  -0.0647   0.0825  -0.1470   0.00    0.0
2026/01/15 01:39:00.000   67.857351832   20.968466275   391.2836   6   7   0.1956   0.2056   0.1696  -0.0664   0.0826  -0.1462   0.00    0.0
2026/01/15 01:39:30.000   67.857351833   20.968466199   391.2817   6   7   0.1944   0.2048   0.1683  -0.0680   0.0827  -0.1454   0.00    0.0
2026/01/15 01:40:00.000   67.857351847   20.968466199   391.2790   6   7   0.1931   0.2041   0.1671  -0.0695   0.0827  -0.1446   0.00    0.0
2026/01/15 01:40:30.000   67.857351853   20.968466107   391.2764   6   7   0.1919   0.2033   0.1659  -0.0709   0.0828  -0.1438   0.00    0.0
2026/01/15 01:41:00.000   67.857351847   20.968466100   391.2751   6   7   0.1907   0.2025   0.1646  -0.0723   0.0828  -0.1430   0.00    0.0
2026/01/15 01:41:30.000   67.857351828   20.968466051   391.2748   6   7   0.1894   0.2018   0.1634  -0.0737   0.0828  -0.1422   0.00    0.0
2026/01/15 01:42:00.000   67.857351840   20.968466004   391.2718   6   7   0.1882   0.2010   0.1622  -0.0750   0.0828  -0.1414   0.00    0.0
2026/01/15 01:43:00.000   67.857351830   20.968465967   391.2708   6   7   0.1867   0.1999   0.1608  -0.0762   0.0828  -0.1403   0.00    0.0
2026/01/15 01:43:30.000   67.857351832   20.968465970   391.2687   6   7   0.1854   0.1991   0.1596  -0.0774   0.0827  -0.1394   0.00    0.0
2026/01/15 01:44:00.000   67.857351827   20.968465951   391.2671   6   7   0.1841   0.1983   0.1583  -0.0786   0.0827  -0.1385   0.00    0.0
2026/01/15 01:44:30.000   67.857351842   20.968465881   391.2641   6   7   0.1828   0.1975   0.1571  -0.0797   0.0827  -0.1376   0.00    0.0
2026/01/15 01:45:00.000   67.857351861   20.968465807   391.2607   6   7   0.1815   0.1967   0.1559  -0.0807   0.0826  -0.1367   0.00    0.0
2026/01/15 01:45:30.000   67.857351870   20.968465758   391.2582   6   7   0.1802   0.1959   0.1546  -0.0817   0.0826  -0.1357   0.00    0.0
2026/01/15 01:46:00.000   67.857351879   20.968465685   391.2557   6   7   0.1789   0.1951   0.1534  -0.0827   0.0825  -0.1348   0.00    0.0
2026/01/15 01:46:30.000   67.857351885   20.968465601   391.2530   6   7   0.1777   0.1944   0.1522  -0.0837   0.0825  -0.1339   0.00    0.0
2026/01/15 01:47:00.000   67.857351891   20.968465560   391.2505   6   7   0.1765   0.1936   0.1511  -0.0846   0.0824  -0.1331   0.00    0.0
2026/01/15 01:47:30.000   67.857351894   20.968465512   391.2484   6   7   0.1754   0.1929   0.1499  -0.0857   0.0824  -0.1322   0.00    0.0
2026/01/15 01:48:00.000   67.857351885   20.968465465   391.2474   6   7   0.1742   0.1922   0.1488  -0.0866   0.0824  -0.1314   0.00    0.0
2026/01/15 01:49:00.000   67.857351894   20.968465344   391.2442   6   7   0.1729   0.1912   0.1476  -0.0875   0.0823  -0.1304   0.00    0.0
2026/01/15 01:49:30.000   67.857351897   20.968465334   391.2420   6   7   0.1717   0.1905   0.1464  -0.0885   0.0823  -0.1295   0.00    0.0
2026/01/15 01:50:00.000   67.857351913   20.968465286   391.2391   6   8   0.1705   0.1898   0.1452  -0.0893   0.0822  -0.1286   0.00    0.0
2026/01/15 01:50:30.000   67.857351920   20.968465280   391.2365   6   8   0.1694   0.1891   0.1441  -0.0902   0.0822  -0.1277   0.00    0.0
2026/01/15 01:51:00.000   67.857351925   20.968465209   391.2344   6   8   0.1682   0.1884   0.1429  -0.0910   0.0821  -0.1268   0.00    0.0
2026/01/15 01:51:30.000   67.857351930   20.968465157   391.2325   6   8   0.1671   0.1877   0.1418  -0.0918   0.0820  -0.1259   0.00    0.0
2026/01/15 01:52:00.000   67.857351947   20.968465064   391.2293   6   8   0.1660   0.1870   0.1407  -0.0925   0.0819  -0.1250   0.00    0.0
2026/01/15 01:52:30.000   67.857351942   20.968465052   391.2277   6   8   0.1648   0.1863   0.1395  -0.0932   0.0818  -0.1242   0.00    0.0
2026/01/15 01:53:00.000   67.857351946   20.968465011   391.2253   6   8   0.1637   0.1856   0.1384  -0.0939   0.0817  -0.1233   0.00    0.0
2026/01/15 01:53:30.000   67.857351947   20.968464943   391.2229   6   8   0.1626   0.1849   0.1373  -0.0945   0.0815  -0.1224   0.00    0.0
2026/01/15 01:54:00.000   67.857351958   20.968464895   391.2198   6   8   0.1616   0.1842   0.1362  -0.0951   0.0814  -0.1215   0.00    0.0
2026/01/15 01:55:00.000   67.857351952   20.968464826   391.2180   6   8   0.1603   0.1832   0.1350  -0.0955   0.0811  -0.1205   0.00    0.0
2026/01/15 01:55:30.000   67.857351958   20.968464737   391.2154   6   8   0.1592   0.1825   0.1339  -0.0961   0.0809  -0.1196   0.00    0.0
2026/01/15 01:56:00.000   67.857351962   20.968464663   391.2133   6   8   0.1581   0.1817   0.1328  -0.0966   0.0807  -0.1187   0.00    0.0
2026/01/15 01:56:30.000   67.857351974   20.968464595   391.2103   6   8   0.1570   0.1810   0.1317  -0.0971   0.0805  -0.1178   0.00    0.0
2026/01/15 01:57:00.000   67.857351988   20.968464541   391.2072   6   8   0.1560   0.1803   0.1307  -0.0975   0.0803  -0.1169   0.00    0.0
2026/01/15 01:58:00.000   67.857351998   20.968464486   391.2039   6   8   0.1547   0.1793   0.1295  -0.0977   0.0798  -0.1158   0.00    0.0
2026/01/15 02:00:00.000   67.857352006   20.968464348   391.2000   6   9   0.1530   0.1775   0.1279  -0.0973   0.0789  -0.1143   0.00    0.0
2026/01/15 02:01:30.000   67.857352046   20.968464196   391.1940   6   8   0.1514   0.1760   0.1264  -0.0972   0.0781  -0.1129   0.00    0.0
2026/01/15 02:02:00.000   67.857352066   20.968464103   391.1893   6   8   0.1501   0.1751   0.1252  -0.0975   0.0777  -0.1117   0.00    0.0
2026/01/15 02:02:30.000   67.857352096   20.968463987   391.1839   6   9   0.1488   0.1741   0.1240  -0.0977   0.0772  -0.1106   0.00    0.0
2026/01/15 02:04:30.000   67.857352143   20.968463833   391.1766   6   9   0.1471   0.1723   0.1224  -0.0973   0.0762  -0.1091   0.00    0.0
2026/01/15 02:05:00.000   67.857352158   20.968463752   391.1722   6  10   0.1457   0.1712   0.1211  -0.0974   0.0756  -0.1079   0.00    0.0
2026/01/15 02:07:00.000   67.857352161   20.968463713   391.1665   6  10   0.1438   0.1692   0.1192  -0.0968   0.0747  -0.1063   0.00    0.0
2026/01/15 02:07:30.000   67.857352194   20.968463586   391.1608   6  10   0.1424   0.1681   0.1179  -0.0968   0.0740  -0.1050   0.00    0.0
2026/01/15 02:08:00.000   67.857352225   20.968463450   391.1550   6  10   0.1410   0.1669   0.1166  -0.0967   0.0733  -0.1037   0.00    0.0
2026/01/15 02:08:30.000   67.857352247   20.968463329   391.1499   6  10   0.1398   0.1659   0.1154  -0.0968   0.0728  -0.1027   0.00    0.0
2026/01/15 02:09:00.000   67.857352260   20.968463237   391.1455   6  11   0.1386   0.1648   0.1143  -0.0969   0.0723  -0.1016   0.00    0.0
2026/01/15 02:10:00.000   67.857352275   20.968463105   391.1394   6  11   0.1374   0.1635   0.1130  -0.0968   0.0716  -0.1005   0.00    0.0
2026/01/15 02:11:30.000   67.857352290   20.968463027   391.1317   6  11   0.1361   0.1622   0.1118  -0.0968   0.0710  -0.0993   0.00    0.0
2026/01/15 02:12:00.000   67.857352297   20.968462971   391.1310   6  10   0.1352   0.1614   0.1112  -0.0972   0.0709  -0.0986   0.00    0.0
2026/01/15 02:12:30.000   67.857352306   20.968462916   391.1305   6  10   0.1343   0.1606   0.1107  -0.0976   0.0710  -0.0979   0.00    0.0
2026/01/15 02:13:00.000   67.857352305   20.968462865   391.1307   6  10   0.1335   0.1599   0.1101  -0.0979   0.0710  -0.0973   0.00    0.0
2026/01/15 02:13:30.000   67.857352303   20.968462857   391.1310   6  10   0.1327   0.1591   0.1096  -0.0983   0.0710  -0.0966   0.00    0.0
2026/01/15 02:14:00.000   67.857352296   20.968462866   391.1314   6   9   0.1319   0.1584   0.1091  -0.0986   0.0710  -0.0960   0.00    0.0
2026/01/15 02:14:30.000   67.857352294   20.968462821   391.1313   6   9   0.1311   0.1577   0.1086  -0.0989   0.0709  -0.0954   0.00    0.0
2026/01/15 02:15:00.000   67.857352285   20.968462833   391.1317   6   9   0.1304   0.1570   0.1081  -0.0991   0.0709  -0.0949   0.00    0.0
2026/01/15 02:15:30.000   67.857352280   20.968462808   391.1319   6  10   0.1296   0.1563   0.1076  -0.0994   0.0709  -0.0943   0.00    0.0
2026/01/15 02:16:00.000   67.857352271   20.968462801   391.1321   6  10   0.1289   0.1557   0.1072  -0.0996   0.0708  -0.0937   0.00    0.0
2026/01/15 02:16:30.000   67.857352275   20.968462757   391.1315   6   9   0.1282   0.1550   0.1067  -0.0998   0.0708  -0.0932   0.00    0.0
2026/01/15 02:17:00.000   67.857352279   20.968462732   391.1310   6   9   0.1276   0.1543   0.1062  -0.0999   0.0707  -0.0927   0.00    0.0
2026/01/15 02:17:30.000   67.857352276   20.968462739   391.1312   6  10   0.1269   0.1536   0.1058  -0.1001   0.0706  -0.0921   0.00    0.0
2026/01/15 02:18:00.000   67.857352268   20.968462737   391.1317   6  10   0.1262   0.1530   0.1053  -0.1002   0.0706  -0.0916   0.00    0.0
2026/01/15 02:18:30.000   67.857352277   20.968462666   391.1310   6  10   0.1256   0.1523   0.1048  -0.1003   0.0705  -0.0911   0.00    0.0
2026/01/15 02:19:00.000   67.857352268   20.968462681   391.1313   6  10   0.1250   0.1517   0.1044  -0.1004   0.0704  -0.0906   0.00    0.0
2026/01/15 02:19:30.000   67.857352265   20.968462676   391.1313   6  10   0.1244   0.1510   0.1040  -0.1005   0.0703  -0.0901   0.00    0.0
2026/01/15 02:20:00.000   67.857352259   20.968462680   391.1315   6  10   0.1238   0.1504   0.1035  -0.1006   0.0702  -0.0896   0.00    0.0
2026/01/15 02:20:30.000   67.857352255   20.968462654   391.1315   6  10   0.1232   0.1498   0.1031  -0.1007   0.0701  -0.0892   0.00    0.0
2026/01/15 02:21:30.000   67.857352245   20.968462608   391.1319   6   9   0.1226   0.1491   0.1026  -0.1006   0.0699  -0.0886   0.00    0.0
2026/01/15 02:22:00.000   67.857352244   20.968462595   391.1319   6   9   0.1220   0.1485   0.1022  -0.1006   0.0698  -0.0881   0.00    0.0
2026/01/15 02:22:30.000   67.857352240   20.968462588   391.1318   6   9   0.1214   0.1479   0.1018  -0.1007   0.0697  -0.0877   0.00    0.0
2026/01/15 02:23:00.000   67.857352241   20.968462579   391.1317   6   4   0.1212   0.1477   0.1016  -0.1005   0.0696  -0.0875   0.00    0.0
2026/01/15 02:23:30.000   67.857352233   20.968462572   391.1321   6   9   0.1206   0.1471   0.1012  -0.1005   0.0694  -0.0870   0.00    0.0
2026/01/15 02:24:00.000   67.857352226   20.968462558   391.1324   6   9   0.1201   0.1465   0.1007  -0.1006   0.0693  -0.0866   0.00    0.0
2026/01/15 02:24:30.000   67.857352218   20.968462555   391.1327   6   9   0.1196   0.1459   0.1003  -0.1005   0.0692  -0.0861   0.00    0.0
2026/01/15 02:25:00.000   67.857352217   20.968462526   391.1326   6   9   0.1190   0.1453   0.0999  -0.1005   0.0691  -0.0857   0.00    0.0
2026/01/15 02:25:30.000   67.857352207   20.968462533   391.1331   6   9   0.1185   0.1447   0.0995  -0.1005   0.0689  -0.0852   0.00    0.0
2026/01/15 02:26:00.000   67.857352207   20.968462512   391.1330   6   8   0.1180   0.1441   0.0990  -0.1004   0.0688  -0.0848   0.00    0.0
2026/01/15 02:26:30.000   67.857352209   20.968462476   391.1327   6   8   0.1175   0.1435   0.0986  -0.1004   0.0686  -0.0844   0.00    0.0
2026/01/15 02:27:00.000   67.857352214   20.968462432   391.1323   6   8   0.1170   0.1429   0.0982  -0.1003   0.0684  -0.0839   0.00    0.0
2026/01/15 02:27:30.000   67.857352215   20.968462415   391.1320   6   9   0.1165   0.1423   0.0978  -0.1002   0.0683  -0.0835   0.00    0.0
2026/01/15 02:28:00.000   67.857352218   20.968462378   391.1315   6   9   0.1160   0.1417   0.0974  -0.1001   0.0681  -0.0831   0.00    0.0
2026/01/15 02:28:30.000   67.857352217   20.968462343   391.1313   6   9   0.1155   0.1411   0.0970  -0.1000   0.0679  -0.0827   0.00    0.0
2026/01/15 02:29:00.000   67.857352222   20.968462311   391.1307   6   9   0.1150   0.1405   0.0966  -0.0998   0.0677  -0.0823   0.00    0.0
2026/01/15 02:29:30.000   67.857352224   20.968462265   391.1303   6   9   0.1145   0.1399   0.0962  -0.0997   0.0675  -0.0818   0.00    0.0
2026/01/15 02:30:00.000   67.857352227   20.968462235   391.1299   6   9   0.1140   0.1393   0.0958  -0.0995   0.0673  -0.0814   0.00    0.0
2026/01/15 02:30:30.000   67.857352236   20.968462194   391.1289   6   9   0.1135   0.1386   0.0953  -0.0994   0.0670  -0.0810   0.00    0.0
2026/01/15 02:31:00.000   67.857352243   20.968462149   391.1283   6   9   0.1130   0.1380   0.0949  -0.0992   0.0668  -0.0806   0.00    0.0
2026/01/15 02:31:30.000   67.857352254   20.968462109   391.1274   6   9   0.1125   0.1374   0.0945  -0.0990   0.0666  -0.0802   0.00    0.0
2026/01/15 02:32:00.000   67.857352257   20.968462076   391.1269   6   9   0.1120   0.1368   0.0941  -0.0988   0.0663  -0.0797   0.00    0.0
2026/01/15 02:32:30.000   67.857352256   20.968462063   391.1266   6   9   0.1115   0.1362   0.0937  -0.0985   0.0661  -0.0793   0.00    0.0
2026/01/15 02:33:00.000   67.857352262   20.968462030   391.1259   6   9   0.1111   0.1355   0.0933  -0.0983   0.0658  -0.0789   0.00    0.0
2026/01/15 02:33:30.000   67.857352268   20.968461985   391.1252   6   9   0.1106   0.1349   0.0929  -0.0980   0.0656  -0.0785   0.00    0.0
2026/01/15 02:34:00.000   67.857352266   20.968461967   391.1249   6   9   0.1101   0.1342   0.0925  -0.0978   0.0653  -0.0781   0.00    0.0
2026/01/15 02:34:30.000   67.857352273   20.968461918   391.1241   6   9   0.1096   0.1336   0.0921  -0.0975   0.0650  -0.0776   0.00    0.0
2026/01/15 02:35:00.000   67.857352282   20.968461859   391.1233   6   9   0.1091   0.1329   0.0917  -0.0972   0.0647  -0.0772   0.00    0.0
2026/01/15 02:35:30.000   67.857352289   20.968461815   391.1224   6   9   0.1086   0.1323   0.0913  -0.0969   0.0644  -0.0768   0.00    0.0
2026/01/15 02:36:00.000   67.857352294   20.968461784   391.1215   6   9   0.1081   0.1316   0.0909  -0.0966   0.0641  -0.0764   0.00    0.0
2026/01/15 02:36:30.000   67.857352299   20.968461741   391.1208   6   9   0.1076   0.1309   0.0905  -0.0963   0.0638  -0.0760   0.00    0.0
2026/01/15 02:37:00.000   67.857352305   20.968461709   391.1201   6   9   0.1071   0.1303   0.0901  -0.0960   0.0635  -0.0755   0.00    0.0
2026/01/15 02:37:30.000   67.857352311   20.968461672   391.1193   6   9   0.1065   0.1296   0.0897  -0.0956   0.0632  -0.0751   0.00    0.0
2026/01/15 02:38:00.000   67.857352325   20.968461601   391.1182   6   9   0.1060   0.1289   0.0892  -0.0953   0.0629  -0.0747   0.00    0.0
2026/01/15 02:38:30.000   67.857352329   20.968461563   391.1176   6   9   0.1055   0.1282   0.0888  -0.0949   0.0625  -0.0743   0.00    0.0
2026/01/15 02:39:00.000   67.857352336   20.968461524   391.1168   6   9   0.1050   0.1275   0.0884  -0.0945   0.0622  -0.0738   0.00    0.0
2026/01/15 02:39:30.000   67.857352348   20.968461465   391.1156   6   9   0.1045   0.1268   0.0880  -0.0941   0.0619  -0.0734   0.00    0.0
2026/01/15 02:40:00.000   67.857352356   20.968461408   391.1149   6   9   0.1040   0.1261   0.0876  -0.0937   0.0615  -0.0730   0.00    0.0
2026/01/15 02:40:30.000   67.857352369   20.968461347   391.1138   6   9   0.1034   0.1254   0.0872  -0.0933   0.0612  -0.0725   0.00    0.0
2026/01/15 02:41:00.000   67.857352383   20.968461290   391.1127   6   9   0.1029   0.1247   0.0868  -0.0929   0.0608  -0.0721   0.00    0.0
2026/01/15 02:41:30.000   67.857352394   20.968461225   391.1116   6   9   0.1024   0.1240   0.0864  -0.0925   0.0605  -0.0717   0.00    0.0
2026/01/15 02:42:00.000   67.857352406   20.968461159   391.1104   6   9   0.1018   0.1232   0.0860  -0.0920   0.0601  -0.0712   0.00    0.0
2026/01/15 02:42:30.000   67.857352425   20.968461073   391.1087   6   9   0.1013   0.1225   0.0856  -0.0916   0.0597  -0.0708   0.00    0.0
2026/01/15 02:43:00.000   67.857352439   20.968461002   391.1073   6   9   0.1008   0.1218   0.0852  -0.0911   0.0593  -0.0704   0.00    0.0
2026/01/15 02:43:30.000   67.857352450   20.968460947   391.1062   6   9   0.1002   0.1211   0.0848  -0.0907   0.0590  -0.0699   0.00    0.0
2026/01/15 02:44:00.000   67.857352461   20.968460897   391.1050   6   9   0.0997   0.1203   0.0844  -0.0902   0.0586  -0.0695   0.00    0.0
2026/01/15 02:44:30.000   67.857352470   20.968460837   391.1038   6   9   0.0992   0.1196   0.0840  -0.0898   0.0582  -0.0690   0.00    0.0
2026/01/15 02:45:00.000   67.857352476   20.968460793   391.1028   6   9   0.0986   0.1189   0.0836  -0.0893   0.0578  -0.0686   0.00    0.0
2026/01/15 02:45:30.000   67.857352486   20.968460747   391.1019   6   9   0.0981   0.1181   0.0832  -0.0888   0.0574  -0.0682   0.00    0.0
2026/01/15 02:46:00.000   67.857352503   20.968460683   391.1006   6   9   0.0975   0.1174   0.0827  -0.0883   0.0570  -0.0677   0.00    0.0
2026/01/15 02:46:30.000   67.857352521   20.968460606   391.0992   6   9   0.0970   0.1167   0.0823  -0.0878   0.0566  -0.0673   0.00    0.0
2026/01/15 02:47:00.000   67.857352538   20.968460537   391.0977   6   9   0.0964   0.1159   0.0819  -0.0873   0.0562  -0.0668   0.00    0.0
2026/01/15 02:47:30.000   67.857352557   20.968460457   391.0960   6   9   0.0959   0.1152   0.0815  -0.0868   0.0558  -0.0664   0.00    0.0
2026/01/15 02:48:00.000   67.857352575   20.968460371   391.0944   6   9   0.0953   0.1144   0.0811  -0.0863   0.0554  -0.0660   0.00    0.0
2026/01/15 02:48:30.000   67.857352590   20.968460292   391.0930   6   9   0.0947   0.1137   0.0807  -0.0857   0.0550  -0.0655   0.00    0.0
2026/01/15 02:49:00.000   67.857352607   20.968460217   391.0913   6   9   0.0942   0.1129   0.0803  -0.0852   0.0546  -0.0651   0.00    0.0
2026/01/15 02:49:30.000   67.857352623   20.968460145   391.0899   6   9   0.0936   0.1122   0.0799  -0.0847   0.0542  -0.0646   0.00    0.0
2026/01/15 02:50:00.000   67.857352640   20.968460069   391.0881   6   9   0.0931   0.1114   0.0795  -0.0841   0.0538  -0.0642   0.00    0.0
2026/01/15 02:50:30.000   67.857352650   20.968460014   391.0869   6   9   0.0925   0.1107   0.0791  -0.0836   0.0533  -0.0637   0.00    0.0
2026/01/15 02:51:00.000   67.857352658   20.968459965   391.0858   6   8   0.0919   0.1099   0.0787  -0.0831   0.0529  -0.0633   0.00    0.0
2026/01/15 02:51:30.000   67.857352670   20.968459906   391.0845   6   8   0.0914   0.1092   0.0783  -0.0825   0.0525  -0.0629   0.00    0.0
2026/01/15 02:52:00.000   67.857352685   20.968459832   391.0830   6   8   0.0908   0.1084   0.0779  -0.0820   0.0521  -0.0624   0.00    0.0
2026/01/15 02:52:30.000   67.857352704   20.968459744   391.0812   6   8   0.0902   0.1077   0.0775  -0.0814   0.0516  -0.0620   0.00    0.0
2026/01/15 02:53:00.000   67.857352711   20.968459698   391.0802   6   7   0.0898   0.1071   0.0772  -0.0810   0.0514  -0.0617   0.00    0.0
2026/01/15 02:53:30.000   67.857352723   20.968459647   391.0789   6   7   0.0894   0.1065   0.0769  -0.0807   0.0511  -0.0613   0.00    0.0
2026/01/15 02:54:00.000   67.857352732   20.968459606   391.0777   6   7   0.0890   0.1059   0.0765  -0.0803   0.0509  -0.0610   0.00    0.0
2026/01/15 02:54:30.000   67.857352740   20.968459566   391.0763   6   8   0.0886   0.1054   0.0762  -0.0799   0.0506  -0.0607   0.00    0.0
2026/01/15 02:55:00.000   67.857352740   20.968459555   391.0754   6   8   0.0881   0.1048   0.0758  -0.0795   0.0503  -0.0604   0.00    0.0
2026/01/15 02:55:30.000   67.857352749   20.968459512   391.0742   6   8   0.0877   0.1042   0.0755  -0.0792   0.0501  -0.0600   0.00    0.0
2026/01/15 02:56:00.000   67.857352754   20.968459479   391.0731   6   8   0.0873   0.1036   0.0751  -0.0788   0.0498  -0.0597   0.00    0.0
2026/01/15 02:56:30.000   67.857352765   20.968459419   391.0718   6   8   0.0869   0.1030   0.0748  -0.0784   0.0495  -0.0594   0.00    0.0
2026/01/15 02:57:00.000   67.857352774   20.968459372   391.0704   6   8   0.0864   0.1024   0.0745  -0.0780   0.0492  -0.0591   0.00    0.0
2026/01/15 02:57:30.000   67.857352777   20.968459345   391.0692   6   8   0.0860   0.1019   0.0741  -0.0776   0.0490  -0.0588   0.00    0.0
2026/01/15 02:58:00.000   67.857352783   20.968459305   391.0680   6   8   0.0856   0.1013   0.0738  -0.0772   0.0487  -0.0584   0.00    0.0
2026/01/15 02:58:30.000   67.857352787   20.968459282   391.0669   6   9   0.0851   0.1007   0.0734  -0.0768   0.0484  -0.0581   0.00    0.0
2026/01/15 02:59:00.000   67.857352791   20.968459253   391.0660   6   9   0.0847   0.1001   0.0731  -0.0763   0.0481  -0.0578   0.00    0.0
2026/01/15 02:59:30.000   67.857352804   20.968459194   391.0646   6  10   0.0843   0.0995   0.0728  -0.0759   0.0478  -0.0574   0.00    0.0
2026/01/15 03:00:00.000   67.857352807   20.968459164   391.0636   6  10   0.0838   0.0989   0.0724  -0.0755   0.0475  -0.0571   0.00    0.0
2026/01/15 03:00:30.000   67.857352819   20.968459103   391.0621   6   9   0.0834   0.0983   0.0721  -0.0751   0.0472  -0.0568   0.00    0.0
2026/01/15 03:01:00.000   67.857352830   20.968459041   391.0605   6   9   0.0830   0.0977   0.0718  -0.0746   0.0470  -0.0565   0.00    0.0
2026/01/15 03:01:30.000   67.857352836   20.968458998   391.0590   6   9   0.0825   0.0971   0.0714  -0.0742   0.0467  -0.0561   0.00    0.0
2026/01/15 03:02:00.000   67.857352848   20.968458939   391.0572   6   9   0.0821   0.0965   0.0711  -0.0738   0.0464  -0.0558   0.00    0.0
2026/01/15 03:02:30.000   67.857352862   20.968458887   391.0557   6  10   0.0816   0.0959   0.0707  -0.0733   0.0461  -0.0555   0.00    0.0
2026/01/15 03:03:00.000   67.857352871   20.968458843   391.0542   6  10   0.0812   0.0954   0.0704  -0.0729   0.0458  -0.0552   0.00    0.0
2026/01/15 03:03:30.000   67.857352880   20.968458794   391.0524   6  10   0.0808   0.0948   0.0701  -0.0725   0.0455  -0.0548   0.00    0.0
2026/01/15 03:04:00.000   67.857352885   20.968458753   391.0508   6   9   0.0803   0.0942   0.0697  -0.0720   0.0452  -0.0545   0.00    0.0
2026/01/15 03:04:30.000   67.857352890   20.968458721   391.0493   6   8   0.0799   0.0936   0.0694  -0.0716   0.0449  -0.0542   0.00    0.0
2026/01/15 03:05:00.000   67.857352896   20.968458683   391.0478   6   8   0.0794   0.0930   0.0691  -0.0711   0.0446  -0.0539   0.00    0.0
2026/01/15 03:05:30.000   67.857352906   20.968458631   391.0461   6   9   0.0790   0.0924   0.0688  -0.0707   0.0443  -0.0535   0.00    0.0
2026/01/15 03:06:00.000   67.857352913   20.968458590   391.0446   6   8   0.0785   0.0918   0.0684  -0.0702   0.0440  -0.0532   0.00    0.0
2026/01/15 03:06:30.000   67.857352919   20.968458552   391.0431   6   9   0.0781   0.0912   0.0681  -0.0698   0.0437  -0.0529   0.00    0.0
2026/01/15 03:07:30.000   67.857352930   20.968458500   391.0414   6  10   0.0776   0.0906   0.0678  -0.0693   0.0433  -0.0526   0.00    0.0
2026/01/15 03:08:00.000   67.857352937   20.968458456   391.0399   6  10   0.0772   0.0900   0.0674  -0.0688   0.0430  -0.0522   0.00    0.0
2026/01/15 03:08:30.000   67.857352939   20.968458430   391.0384   6  10   0.0767   0.0894   0.0671  -0.0683   0.0427  -0.0519   0.00    0.0
2026/01/15 03:09:00.000   67.857352950   20.968458379   391.0365   6  10   0.0763   0.0888   0.0668  -0.0679   0.0424  -0.0516   0.00    0.0
2026/01/15 03:09:30.000   67.857352963   20.968458317   391.0345   6   9   0.0758   0.0882   0.0665  -0.0674   0.0421  -0.0513   0.00    0.0
2026/01/15 03:10:30.000   67.857352976   20.968458275   391.0339   6   8   0.0753   0.0876   0.0662  -0.0669   0.0419  -0.0509   0.00    0.0
2026/01/15 03:11:00.000   67.857352991   20.968458226   391.0332   6   8   0.0749   0.0870   0.0659  -0.0664   0.0416  -0.0506   0.00    0.0
2026/01/15 03:11:30.000   67.857352999   20.968458198   391.0328   6   8   0.0744   0.0865   0.0657  -0.0659   0.0414  -0.0502   0.00    0.0
2026/01/15 03:12:00.000   67.857353008   20.968458167   391.0326   6   8   0.0740   0.0859   0.0654  -0.0655   0.0411  -0.0499   0.00    0.0
2026/01/15 03:12:30.000   67.857353022   20.968458118   391.0321   6   9   0.0735   0.0853   0.0652  -0.0650   0.0409  -0.0496   0.00    0.0
2026/01/15 03:13:00.000   67.857353030   20.968458097   391.0318   6   9   0.0731   0.0847   0.0650  -0.0645   0.0406  -0.0493   0.00    0.0
2026/01/15 03:13:30.000   67.857353039   20.968458068   391.0315   6   8   0.0726   0.0842   0.0647  -0.0641   0.0404  -0.0489   0.00    0.0
2026/01/15 03:14:00.000   67.857353050   20.968458026   391.0311   6   9   0.0722   0.0836   0.0645  -0.0636   0.0401  -0.0486   0.00    0.0
2026/01/15 03:14:30.000   67.857353064   20.968457984   391.0305   6   9   0.0717   0.0831   0.0642  -0.0631   0.0399  -0.0483   0.00    0.0
2026/01/15 03:15:00.000   67.857353076   20.968457945   391.0300   6  10   0.0713   0.0825   0.0640  -0.0627   0.0396  -0.0480   0.00    0.0
2026/01/15 03:15:30.000   67.857353087   20.968457906   391.0295   6  10   0.0709   0.0820   0.0637  -0.0622   0.0394  -0.0476   0.00    0.0
2026/01/15 03:16:00.000   67.857353099   20.968457863   391.0290   6  10   0.0704   0.0814   0.0635  -0.0617   0.0391  -0.0473   0.00    0.0
2026/01/15 03:16:30.000   67.857353112   20.968457819   391.0283   6  10   0.0700   0.0809   0.0632  -0.0613   0.0389  -0.0470   0.00    0.0
2026/01/15 03:17:00.000   67.857353128   20.968457768   391.0276   6  10   0.0696   0.0803   0.0630  -0.0608   0.0387  -0.0467   0.00    0.0
2026/01/15 03:17:30.000   67.857353142   20.968457726   391.0267   6  10   0.0691   0.0798   0.0628  -0.0604   0.0384  -0.0464   0.00    0.0
2026/01/15 03:18:00.000   67.857353153   20.968457694   391.0263   6  10   0.0687   0.0793   0.0625  -0.0599   0.0382  -0.0461   0.00    0.0
2026/01/15 03:19:00.000   67.857353169   20.968457641   391.0255   6  10   0.0682   0.0787   0.0623  -0.0594   0.0379  -0.0457   0.00    0.0
2026/01/15 03:19:30.000   67.857353178   20.968457607   391.0250   6  10   0.0678   0.0782   0.0620  -0.0590   0.0377  -0.0454   0.00    0.0
2026/01/15 03:20:00.000   67.857353191   20.968457567   391.0243   6  10   0.0674   0.0776   0.0618  -0.0585   0.0374  -0.0451   0.00    0.0
2026/01/15 03:20:30.000   67.857353204   20.968457532   391.0237   6  10   0.0670   0.0771   0.0615  -0.0580   0.0372  -0.0448   0.00    0.0
2026/01/15 03:21:00.000   67.857353213   20.968457505   391.0232   6  10   0.0665   0.0766   0.0613  -0.0576   0.0369  -0.0445   0.00    0.0
2026/01/15 03:21:30.000   67.857353227   20.968457466   391.0223   6  10   0.0661   0.0761   0.0611  -0.0571   0.0367  -0.0442   0.00    0.0
2026/01/15 03:22:00.000   67.857353240   20.968457427   391.0216   6  10   0.0657   0.0756   0.0608  -0.0567   0.0365  -0.0439   0.00    0.0
2026/01/15 03:22:30.000   67.857353253   20.968457387   391.0207   6  10   0.0653   0.0751   0.0606  -0.0562   0.0362  -0.0436   0.00    0.0
2026/01/15 03:23:00.000   67.857353264   20.968457352   391.0201   6  10   0.0649   0.0745   0.0604  -0.0558   0.0360  -0.0433   0.00    0.0
2026/01/15 03:23:30.000   67.857353277   20.968457311   391.0191   6  10   0.0644   0.0740   0.0601  -0.0554   0.0357  -0.0430   0.00    0.0
2026/01/15 03:24:00.000   67.857353293   20.968457261   391.0182   6  10   0.0640   0.0736   0.0599  -0.0549   0.0355  -0.0427   0.00    0.0
2026/01/15 03:25:00.000   67.857353305   20.968457230   391.0173   6   9   0.0636   0.0730   0.0596  -0.0544   0.0352  -0.0424   0.00    0.0
2026/01/15 03:26:00.000   67.857353313   20.968457208   391.0167   6   9   0.0632   0.0725   0.0594  -0.0540   0.0350  -0.0421   0.00    0.0
2026/01/15 03:26:30.000   67.857353323   20.968457179   391.0161   6   9   0.0627   0.0720   0.0591  -0.0535   0.0347  -0.0418   0.00    0.0
2026/01/15 03:27:30.000   67.857353333   20.968457149   391.0154   6   9   0.0623   0.0714   0.0589  -0.0530   0.0345  -0.0415   0.00    0.0
2026/01/15 03:28:00.000   67.857353346   20.968457115   391.0145   6   9   0.0619   0.0709   0.0586  -0.0526   0.0342  -0.0412   0.00    0.0
2026/01/15 03:28:30.000   67.857353360   20.968457075   391.0135   6  10   0.0614   0.0704   0.0584  -0.0521   0.0340  -0.0409   0.00    0.0
2026/01/15 03:29:00.000   67.857353371   20.968457045   391.0126   6  10   0.0610   0.0700   0.0581  -0.0517   0.0337  -0.0406   0.00    0.0
2026/01/15 03:29:30.000   67.857353381   20.968457015   391.0118   6  10   0.0606   0.0695   0.0579  -0.0512   0.0335  -0.0403   0.00    0.0
2026/01/15 03:30:00.000   67.857353396   20.968456977   391.0107   6  10   0.0602   0.0690   0.0576  -0.0508   0.0332  -0.0400   0.00    0.0
2026/01/15 03:30:30.000   67.857353409   20.968456938   391.0097   6   9   0.0598   0.0685   0.0574  -0.0503   0.0330  -0.0397   0.00    0.0
2026/01/15 03:31:00.000   67.857353422   20.968456898   391.0087   6   9   0.0594   0.0680   0.0571  -0.0499   0.0327  -0.0394   0.00    0.0
2026/01/15 03:31:30.000   67.857353435   20.968456862   391.0076   6   8   0.0590   0.0676   0.0569  -0.0495   0.0325  -0.0391   0.00    0.0
2026/01/15 03:32:00.000   67.857353445   20.968456838   391.0068   6   8   0.0586   0.0671   0.0566  -0.0491   0.0323  -0.0388   0.00    0.0
2026/01/15 03:32:30.000   67.857353455   20.968456809   391.0058   6   8   0.0582   0.0667   0.0564  -0.0487   0.0321  -0.0386   0.00    0.0
2026/01/15 03:33:00.000   67.857353467   20.968456777   391.0048   6   8   0.0579   0.0662   0.0562  -0.0483   0.0318  -0.0383   0.00    0.0
2026/01/15 03:33:30.000   67.857353478   20.968456749   391.0038   6   8   0.0575   0.0658   0.0559  -0.0479   0.0316  -0.0380   0.00    0.0
2026/01/15 03:34:00.000   67.857353488   20.968456721   391.0028   6   8   0.0571   0.0653   0.0557  -0.0475   0.0314  -0.0377   0.00    0.0
2026/01/15 03:34:30.000   67.857353499   20.968456688   391.0018   6   8   0.0567   0.0649   0.0555  -0.0471   0.0312  -0.0375   0.00    0.0
2026/01/15 03:35:00.000   67.857353512   20.968456652   391.0008   6   8   0.0564   0.0645   0.0552  -0.0467   0.0310  -0.0372   0.00    0.0
2026/01/15 03:35:30.000   67.857353523   20.968456626   390.9998   6   8   0.0560   0.0641   0.0550  -0.0463   0.0307  -0.0370   0.00    0.0
2026/01/15 03:36:00.000   67.857353533   20.968456600   390.9988   6   8   0.0557   0.0637   0.0548  -0.0459   0.0305  -0.0367   0.00    0.0
2026/01/15 03:36:30.000   67.857353542   20.968456574   390.9979   6   8   0.0553   0.0632   0.0545  -0.0455   0.0303  -0.0364   0.00    0.0
2026/01/15 03:37:00.000   67.857353552   20.968456552   390.9969   6   8   0.0550   0.0628   0.0543  -0.0451   0.0301  -0.0362   0.00    0.0
2026/01/15 03:37:30.000   67.857353561   20.968456529   390.9959   6   8   0.0546   0.0624   0.0541  -0.0447   0.0299  -0.0359   0.00    0.0
2026/01/15 03:38:00.000   67.857353571   20.968456502   390.9949   6   8   0.0543   0.0620   0.0538  -0.0444   0.0297  -0.0357   0.00    0.0
2026/01/15 03:38:30.000   67.857353580   20.968456476   390.9939   6   8   0.0539   0.0616   0.0536  -0.0440   0.0295  -0.0354   0.00    0.0
2026/01/15 03:39:00.000   67.857353583   20.968456469   390.9931   6   7   0.0538   0.0615   0.0534  -0.0439   0.0294  -0.0353   0.00    0.0
2026/01/15 03:39:30.000   67.857353587   20.968456454   390.9922   6   7   0.0536   0.0614   0.0532  -0.0439   0.0294  -0.0352   0.00    0.0
2026/01/15 03:40:00.000   67.857353590   20.968456449   390.9915   6   7   0.0535   0.0612   0.0530  -0.0438   0.0293  -0.0351   0.00    0.0
2026/01/15 03:40:30.000   67.857353593   20.968456447   390.9907   6   7   0.0534   0.0611   0.0528  -0.0437   0.0293  -0.0349   0.00    0.0
2026/01/15 03:41:00.000   67.857353596   20.968456444   390.9897   6   7   0.0532   0.0609   0.0526  -0.0436   0.0292  -0.0348   0.00    0.0
2026/01/15 03:41:30.000   67.857353601   20.968456432   390.9886   6   7   0.0531   0.0608   0.0524  -0.0436   0.0292  -0.0347   0.00    0.0
2026/01/15 03:42:00.000   67.857353605   20.968456427   390.9877   6   7   0.0530   0.0606   0.0522  -0.0435   0.0291  -0.0345   0.00    0.0
2026/01/15 03:42:30.000   67.857353608   20.968456425   390.9868   6   7   0.0528   0.0605   0.0520  -0.0434   0.0291  -0.0344   0.00    0.0
2026/01/15 03:43:00.000   67.857353613   20.968456412   390.9858   6   7   0.0527   0.0604   0.0518  -0.0433   0.0290  -0.0343   0.00    0.0
2026/01/15 03:43:30.000   67.857353619   20.968456400   390.9847   6   7   0.0526   0.0602   0.0516  -0.0433   0.0290  -0.0342   0.00    0.0
2026/01/15 03:44:00.000   67.857353624   20.968456393   390.9836   6   8   0.0524   0.0601   0.0514  -0.0432   0.0289  -0.0340   0.00    0.0
2026/01/15 03:44:30.000   67.857353630   20.968456384   390.9822   6   8   0.0523   0.0599   0.0512  -0.0431   0.0288  -0.0339   0.00    0.0
2026/01/15 03:45:00.000   67.857353636   20.968456368   390.9807   6   8   0.0522   0.0598   0.0511  -0.0430   0.0288  -0.0338   0.00    0.0
2026/01/15 03:45:30.000   67.857353644   20.968456354   390.9792   6   8   0.0520   0.0597   0.0509  -0.0429   0.0287  -0.0336   0.00    0.0
2026/01/15 03:46:00.000   67.857353651   20.968456342   390.9777   6   8   0.0519   0.0595   0.0507  -0.0428   0.0287  -0.0335   0.00    0.0
2026/01/15 03:46:30.000   67.857353657   20.968456341   390.9763   6   8   0.0517   0.0594   0.0505  -0.0428   0.0286  -0.0334   0.00    0.0
2026/01/15 03:47:00.000   67.857353663   20.968456330   390.9749   6   8   0.0516   0.0592   0.0503  -0.0427   0.0285  -0.0333   0.00    0.0
2026/01/15 03:47:30.000   67.857353670   20.968456317   390.9734   6   8   0.0515   0.0591   0.0501  -0.0426   0.0285  -0.0331   0.00    0.0
2026/01/15 03:48:00.000   67.857353679   20.968456294   390.9717   6   8   0.0513   0.0590   0.0499  -0.0425   0.0284  -0.0330   0.00    0.0
2026/01/15 03:48:30.000   67.857353688   20.968456277   390.9699   6   8   0.0512   0.0588   0.0497  -0.0424   0.0283  -0.0329   0.00    0.0
2026/01/15 03:49:00.000   67.857353698   20.968456259   390.9679   6   8   0.0511   0.0587   0.0495  -0.0423   0.0283  -0.0328   0.00    0.0
2026/01/15 03:49:30.000   67.857353707   20.968456249   390.9659   6   8   0.0509   0.0586   0.0493  -0.0422   0.0282  -0.0326   0.00    0.0
2026/01/15 03:50:00.000   67.857353708   20.968456239   390.9659   6   7   0.0508   0.0584   0.0493  -0.0422   0.0281  -0.0326   0.00    0.0
2026/01/15 03:50:30.000   67.857353710   20.968456227   390.9658   6   7   0.0507   0.0583   0.0492  -0.0421   0.0281  -0.0326   0.00    0.0
2026/01/15 03:51:00.000   67.857353712   20.968456211   390.9657   6   7   0.0506   0.0581   0.0491  -0.0420   0.0280  -0.0325   0.00    0.0
2026/01/15 03:51:30.000   67.857353714   20.968456198   390.9656   6   7   0.0505   0.0580   0.0491  -0.0419   0.0280  -0.0325   0.00    0.0
2026/01/15 03:52:00.000   67.857353714   20.968456186   390.9655   6   7   0.0504   0.0579   0.0490  -0.0418   0.0279  -0.0325   0.00    0.0
2026/01/15 03:52:30.000   67.857353714   20.968456176   390.9653   6   7   0.0502   0.0577   0.0490  -0.0417   0.0279  -0.0324   0.00    0.0
2026/01/15 03:53:00.000   67.857353715   20.968456165   390.9652   6   7   0.0501   0.0576   0.0489  -0.0416   0.0278  -0.0324   0.00    0.0
2026/01/15 03:54:00.000   67.857353718   20.968456150   390.9649   6   7   0.0500   0.0575   0.0488  -0.0415   0.0278  -0.0323   0.00    0.0
2026/01/15 03:55:00.000   67.857353721   20.968456135   390.9648   6   7   0.0499   0.0573   0.0488  -0.0414   0.0277  -0.0323   0.00    0.0
2026/01/15 03:55:30.000   67.857353722   20.968456127   390.9648   6   7   0.0498   0.0572   0.0487  -0.0414   0.0277  -0.0322   0.00    0.0
2026/01/15 03:56:00.000   67.857353725   20.968456112   390.9647   6   7   0.0496   0.0570   0.0486  -0.0413   0.0276  -0.0322   0.00    0.0
2026/01/15 03:56:30.000   67.857353727   20.968456097   390.9646   6   7   0.0495   0.0569   0.0485  -0.0412   0.0275  -0.0321   0.00    0.0
2026/01/15 03:57:00.000   67.857353727   20.968456093   390.9646   6   7   0.0494   0.0568   0.0485  -0.0411   0.0275  -0.0321   0.00    0.0
2026/01/15 03:57:30.000   67.857353730   20.968456077   390.9645   6   7   0.0493   0.0566   0.0484  -0.0410   0.0274  -0.0321   0.00    0.0
2026/01/15 03:58:00.000   67.857353730   20.968456067   390.9645   6   7   0.0491   0.0565   0.0483  -0.0409   0.0274  -0.0320   0.00    0.0
2026/01/15 03:58:30.000   67.857353732   20.968456055   390.9643   6   7   0.0490   0.0563   0.0482  -0.0408   0.0273  -0.0320   0.00    0.0
2026/01/15 03:59:00.000   67.857353733   20.968456039   390.9642   6   7   0.0489   0.0562   0.0482  -0.0407   0.0273  -0.0319   0.00    0.0
2026/01/15 03:59:30.000   67.857353734   20.968456026   390.9640   6   7   0.0488   0.0561   0.0481  -0.0406   0.0272  -0.0319   0.00    0.0
2026/01/15 04:00:00.000   67.857353736   20.968456010   390.9638   6   7   0.0486   0.0559   0.0480  -0.0405   0.0271  -0.0318   0.00    0.0
2026/01/15 04:00:30.000   67.857353737   20.968455994   390.9636   6   7   0.0485   0.0558   0.0479  -0.0404   0.0271  -0.0318   0.00    0.0
2026/01/15 04:01:00.000   67.857353739   20.968455979   390.9634   6   7   0.0484   0.0557   0.0478  -0.0403   0.0270  -0.0317   0.00    0.0
2026/01/15 04:01:30.000   67.857353741   20.968455962   390.9632   6   7   0.0483   0.0555   0.0478  -0.0402   0.0270  -0.0316   0.00    0.0
2026/01/15 04:02:00.000   67.857353741   20.968455947   390.9630   6   7   0.0481   0.0554   0.0477  -0.0401   0.0269  -0.0316   0.00    0.0
2026/01/15 04:02:30.000   67.857353742   20.968455931   390.9627   6   7   0.0480   0.0553   0.0476  -0.0400   0.0268  -0.0315   0.00    0.0
2026/01/15 04:03:00.000   67.857353745   20.968455911   390.9624   6   7   0.0479   0.0551   0.0475  -0.0399   0.0268  -0.0315   0.00    0.0
2026/01/15 04:03:30.000   67.857353748   20.968455892   390.9622   6   7   0.0477   0.0550   0.0474  -0.0398   0.0267  -0.0314   0.00    0.0
2026/01/15 04:04:00.000   67.857353749   20.968455876   390.9620   6   7   0.0476   0.0548   0.0473  -0.0397   0.0266  -0.0314   0.00    0.0
2026/01/15 04:04:30.000   67.857353752   20.968455865   390.9616   6   4   0.0475   0.0548   0.0473  -0.0396   0.0265  -0.0313   0.00    0.0
2026/01/15 04:05:00.000   67.857353753   20.968455848   390.9613   6   7   0.0474   0.0546   0.0472  -0.0395   0.0265  -0.0312   0.00    0.0
2026/01/15 04:05:30.000   67.857353755   20.968455823   390.9608   6   7   0.0472   0.0545   0.0471  -0.0394   0.0264  -0.0312   0.00    0.0
2026/01/15 04:06:00.000   67.857353757   20.968455802   390.9604   6   7   0.0471   0.0544   0.0470  -0.0393   0.0263  -0.0311   0.00    0.0
2026/01/15 04:06:30.000   67.857353760   20.968455773   390.9599   6   7   0.0470   0.0542   0.0469  -0.0392   0.0263  -0.0311   0.00    0.0
2026/01/15 04:07:00.000   67.857353762   20.968455748   390.9594   6   7   0.0468   0.0541   0.0468  -0.0390   0.0262  -0.0310   0.00    0.0
2026/01/15 04:07:30.000   67.857353766   20.968455719   390.9589   6   7   0.0467   0.0540   0.0467  -0.0389   0.0261  -0.0309   0.00    0.0
2026/01/15 04:08:00.000   67.857353767   20.968455698   390.9585   6   7   0.0466   0.0538   0.0466  -0.0388   0.0260  -0.0309   0.00    0.0
2026/01/15 04:08:30.000   67.857353770   20.968455676   390.9581   6   7   0.0464   0.0537   0.0465  -0.0387   0.0260  -0.0308   0.00    0.0
2026/01/15 04:09:00.000   67.857353773   20.968455653   390.9577   6   7   0.0463   0.0536   0.0464  -0.0386   0.0259  -0.0307   0.00    0.0
2026/01/15 04:10:00.000   67.857353776   20.968455621   390.9570   6   7   0.0462   0.0534   0.0463  -0.0385   0.0258  -0.0307   0.00    0.0
2026/01/15 04:10:30.000   67.857353778   20.968455588   390.9562   6   7   0.0460   0.0533   0.0462  -0.0384   0.0257  -0.0306   0.00    0.0
2026/01/15 04:11:00.000   67.857353781   20.968455555   390.9553   6   7   0.0459   0.0531   0.0461  -0.0383   0.0257  -0.0305   0.00    0.0
