% program   : RTKPOST-EX 2.5.0
% inp file  : C:\PPP_PROJECT\New_Data\obs\RNXDATA\KIRU00SWE_R_20260150000_01D_30S_MO.rnx
% inp file  : C:\PPP_PROJECT\New_Data\nav\BRDC00IGS_R_20260150000_01D_MN.rnx
% inp file  : C:\PPP_PROJECT\New_Data\DATA_FINAL_ANT_EXTRA\COD0MGXFIN_20260150000_01D_05M_ORB.SP3
% inp file  : C:\PPP_PROJECT\New_Data\DATA_FINAL_ANT_EXTRA\COD0MGXFIN_20260150000_01D_30S_CLK.CLK
% obs start : 2026/01/15 00:00:00.0 GPST (week2401 345600.0s)
% obs end   : 2026/01/15 23:59:30.0 GPST (week2401 431970.0s)
% pos mode  : PPP Static
% freqs     : L1+L2/E5b
% solution  : Forward
% elev mask : 15.0 deg
% dynamics  : on
% tidecorr  :
% ionos opt : Iono-Free LC
% tropo opt : Saastamoinen
% ephemeris : Precise
% navi sys  : GPS GLONASS Galileo QZSS BDS
% antenna1  :                       ( 0.0000  0.0000  0.0000)
%
% (lat/lon/height=WGS84/ellipsoidal,Q=1:fix,2:float,3:sbas,4:dgps,5:single,6:ppp,ns=# of satellites)
%  GPST                  latitude(deg) longitude(deg)  height(m)   Q  ns   sdn(m)   sde(m)   sdu(m)  sdne(m)  sdeu(m)  sdun(m) age(s)  ratio
2026/01/15 00:00:00.000   67.857349425   20.968477898   392.2502   6  10   2.7352   2.7655   6.6883  -0.5684  -0.9100   2.4179   0.00    0.0
2026/01/15 00:21:30.000   67.857349714   20.968464910   392.0632   6   4   0.4113   0.3719   0.9819  -0.0154  -0.2630   0.3664   0.00    0.0
2026/01/15 00:22:00.000   67.857349783   20.968465053   392.0652   6   4   0.4069   0.3676   0.9711  -0.0217  -0.2603   0.3622   0.00    0.0
2026/01/15 00:22:30.000   67.857349801   20.968465335   392.0522   6   4   0.4026   0.3635   0.9605  -0.0263  -0.2577   0.3581   0.00    0.0
2026/01/15 00:23:00.000   67.857349905   20.968465493   392.0522   6   4   0.3984   0.3595   0.9500  -0.0299  -0.2551   0.3539   0.00    0.0
2026/01/15 00:23:30.000   67.857349839   20.968465506   392.0295   6   4   0.3943   0.3556   0.9396  -0.0329  -0.2526   0.3497   0.00    0.0
2026/01/15 00:24:00.000   67.857349708   20.968465458   391.9877   6   4   0.3903   0.3518   0.9292  -0.0354  -0.2500   0.3453   0.00    0.0
2026/01/15 00:24:30.000   67.857349636   20.968465272   391.9595   6   4   0.3863   0.3481   0.9187  -0.0375  -0.2474   0.3408   0.00    0.0
2026/01/15 00:25:00.000   67.857349597   20.968465306   391.9791   6   4   0.3823   0.3446   0.9081  -0.0393  -0.2448   0.3362   0.00    0.0
2026/01/15 00:25:30.000   67.857349654   20.968465525   391.9846   6   4   0.3785   0.3412   0.8979  -0.0401  -0.2417   0.3317   0.00    0.0
2026/01/15 00:26:00.000   67.857349713   20.968465748   391.9743   6   4   0.3746   0.3378   0.8876  -0.0408  -0.2386   0.3270   0.00    0.0
2026/01/15 00:26:30.000   67.857349762   20.968465910   391.9632   6   4   0.3708   0.3346   0.8770  -0.0414  -0.2355   0.3221   0.00    0.0
2026/01/15 00:27:00.000   67.857349778   20.968465961   391.9680   6   4   0.3669   0.3314   0.8662  -0.0419  -0.2323   0.3169   0.00    0.0
2026/01/15 00:27:30.000   67.857349737   20.968466174   391.9578   6   4   0.3631   0.3282   0.8552  -0.0423  -0.2292   0.3114   0.00    0.0
2026/01/15 00:28:00.000   67.857349647   20.968466197   391.9513   6   4   0.3592   0.3251   0.8440  -0.0427  -0.2260   0.3057   0.00    0.0
2026/01/15 00:28:30.000   67.857349676   20.968466049   391.9488   6   4   0.3553   0.3221   0.8327  -0.0429  -0.2227   0.2998   0.00    0.0
2026/01/15 00:29:00.000   67.857349694   20.968466049   391.9536   6   4   0.3514   0.3192   0.8211  -0.0430  -0.2194   0.2935   0.00    0.0
2026/01/15 00:29:30.000   67.857349625   20.968465776   391.9369   6   4   0.3475   0.3162   0.8093  -0.0431  -0.2161   0.2871   0.00    0.0
2026/01/15 00:30:00.000   67.857349640   20.968465892   391.9317   6   4   0.3435   0.3134   0.7971  -0.0433  -0.2128   0.2803   0.00    0.0
2026/01/15 00:30:30.000   67.857349724   20.968466120   391.9065   6   4   0.3404   0.3107   0.7883  -0.0466  -0.2116   0.2764   0.00    0.0
2026/01/15 00:31:00.000   67.857349722   20.968466209   391.8937   6   5   0.3373   0.3082   0.7793  -0.0496  -0.2105   0.2723   0.00    0.0
2026/01/15 00:31:30.000   67.857349604   20.968466207   391.8906   6   5   0.3341   0.3057   0.7703  -0.0523  -0.2093   0.2681   0.00    0.0
2026/01/15 00:32:00.000   67.857349611   20.968466323   391.8718   6   5   0.3310   0.3032   0.7611  -0.0549  -0.2081   0.2637   0.00    0.0
2026/01/15 00:32:30.000   67.857349589   20.968466252   391.8644   6   5   0.3278   0.3008   0.7517  -0.0573  -0.2069   0.2592   0.00    0.0
2026/01/15 00:33:00.000   67.857349569   20.968466276   391.8465   6   5   0.3246   0.2984   0.7422  -0.0596  -0.2056   0.2544   0.00    0.0
2026/01/15 00:33:30.000   67.857349579   20.968466215   391.8349   6   5   0.3214   0.2961   0.7326  -0.0617  -0.2043   0.2494   0.00    0.0
2026/01/15 00:34:00.000   67.857349548   20.968466096   391.8048   6   5   0.3183   0.2939   0.7229  -0.0630  -0.2031   0.2439   0.00    0.0
2026/01/15 00:34:30.000   67.857349498   20.968466155   391.7860   6   6   0.3153   0.2917   0.7134  -0.0645  -0.2022   0.2385   0.00    0.0
2026/01/15 00:35:00.000   67.857349449   20.968466119   391.7577   6   6   0.3122   0.2896   0.7037  -0.0658  -0.2013   0.2329   0.00    0.0
2026/01/15 00:35:30.000   67.857349403   20.968466269   391.7301   6   6   0.3092   0.2875   0.6940  -0.0671  -0.2004   0.2271   0.00    0.0
2026/01/15 00:36:00.000   67.857349294   20.968466350   391.6972   6   6   0.3062   0.2855   0.6841  -0.0682  -0.1994   0.2211   0.00    0.0
2026/01/15 00:36:30.000   67.857349167   20.968466183   391.6550   6   6   0.3032   0.2835   0.6742  -0.0693  -0.1983   0.2150   0.00    0.0
2026/01/15 00:37:00.000   67.857349029   20.968466131   391.6130   6   6   0.3002   0.2815   0.6641  -0.0703  -0.1971   0.2087   0.00    0.0
2026/01/15 00:37:30.000   67.857348943   20.968466140   391.5741   6   6   0.2973   0.2795   0.6540  -0.0711  -0.1959   0.2023   0.00    0.0
2026/01/15 00:38:00.000   67.857348864   20.968466300   391.5180   6   6   0.2943   0.2776   0.6438  -0.0719  -0.1946   0.1957   0.00    0.0
2026/01/15 00:38:30.000   67.857348808   20.968466295   391.4871   6   6   0.2914   0.2757   0.6336  -0.0726  -0.1931   0.1890   0.00    0.0
2026/01/15 00:39:00.000   67.857348749   20.968466222   391.4668   6   6   0.2886   0.2738   0.6233  -0.0733  -0.1916   0.1821   0.00    0.0
2026/01/15 00:39:30.000   67.857348707   20.968466255   391.4272   6   6   0.2857   0.2719   0.6130  -0.0738  -0.1900   0.1751   0.00    0.0
2026/01/15 00:40:00.000   67.857348656   20.968466260   391.4077   6   6   0.2829   0.2700   0.6026  -0.0743  -0.1883   0.1680   0.00    0.0
2026/01/15 00:40:30.000   67.857348552   20.968466254   391.3859   6   6   0.2802   0.2681   0.5923  -0.0748  -0.1866   0.1608   0.00    0.0
2026/01/15 00:41:00.000   67.857348488   20.968466263   391.3620   6   6   0.2775   0.2663   0.5821  -0.0752  -0.1847   0.1535   0.00    0.0
2026/01/15 00:41:30.000   67.857348458   20.968466263   391.3405   6   7   0.2748   0.2644   0.5718  -0.0756  -0.1828   0.1461   0.00    0.0
2026/01/15 00:42:00.000   67.857348410   20.968466460   391.3187   6   7   0.2722   0.2626   0.5616  -0.0759  -0.1807   0.1385   0.00    0.0
2026/01/15 00:42:30.000   67.857348382   20.968466505   391.2958   6   7   0.2701   0.2610   0.5519  -0.0750  -0.1780   0.1319   0.00    0.0
2026/01/15 00:43:00.000   67.857348376   20.968466488   391.2744   6   8   0.2679   0.2594   0.5421  -0.0741  -0.1753   0.1251   0.00    0.0
2026/01/15 00:43:30.000   67.857348393   20.968466659   391.2621   6   9   0.2658   0.2579   0.5324  -0.0732  -0.1725   0.1182   0.00    0.0
2026/01/15 00:44:00.000   67.857348411   20.968466588   391.2463   6   6   0.2638   0.2564   0.5228  -0.0723  -0.1696   0.1111   0.00    0.0
2026/01/15 00:44:30.000   67.857348402   20.968466679   391.2278   6   7   0.2619   0.2549   0.5135  -0.0716  -0.1671   0.1049   0.00    0.0
2026/01/15 00:45:00.000   67.857348355   20.968466670   391.2064   6   7   0.2601   0.2535   0.5044  -0.0709  -0.1646   0.0986   0.00    0.0
2026/01/15 00:45:30.000   67.857348317   20.968466700   391.1946   6   7   0.2583   0.2521   0.4953  -0.0703  -0.1621   0.0922   0.00    0.0
2026/01/15 00:46:00.000   67.857348266   20.968466856   391.1844   6   7   0.2565   0.2506   0.4863  -0.0696  -0.1596   0.0855   0.00    0.0
2026/01/15 00:46:30.000   67.857348303   20.968466863   391.1654   6  10   0.2548   0.2493   0.4775  -0.0691  -0.1573   0.0789   0.00    0.0
2026/01/15 00:47:00.000   67.857348290   20.968466949   391.1557   6  15   0.2531   0.2479   0.4689  -0.0686  -0.1549   0.0720   0.00    0.0
2026/01/15 00:47:30.000   67.857348265   20.968466937   391.1432   6  12   0.2515   0.2466   0.4604  -0.0682  -0.1523   0.0647   0.00    0.0
2026/01/15 00:48:00.000   67.857348242   20.968466951   391.1388   6   6   0.2499   0.2453   0.4519  -0.0678  -0.1499   0.0565   0.00    0.0
2026/01/15 00:48:30.000   67.857348229   20.968466977   391.1276   6   8   0.2482   0.2440   0.4436  -0.0675  -0.1475   0.0474   0.00    0.0
2026/01/15 00:49:00.000   67.857348207   20.968467002   391.1201   6   7   0.2467   0.2427   0.4355  -0.0673  -0.1450   0.0360   0.00    0.0
2026/01/15 00:49:30.000   67.857348198   20.968467049   391.1140   6   6   0.2456   0.2414   0.4295  -0.0674  -0.1430   0.0307   0.00    0.0
2026/01/15 00:50:00.000   67.857348225   20.968467117   391.1014   6   6   0.2444   0.2402   0.4237  -0.0675  -0.1410   0.0248   0.00    0.0
2026/01/15 00:50:30.000   67.857348227   20.968467130   391.0923   6   6   0.2434   0.2390   0.4180  -0.0674  -0.1390   0.0196   0.00    0.0
2026/01/15 00:51:00.000   67.857348259   20.968467165   391.0893   6  15   0.2424   0.2378   0.4119  -0.0673  -0.1367   0.0124   0.00    0.0
2026/01/15 00:51:30.000   67.857348287   20.968467200   391.0855   6  21   0.2414   0.2366   0.4059  -0.0672  -0.1345  -0.0079   0.00    0.0
2026/01/15 00:52:00.000   67.857348277   20.968467215   391.0810   6  13   0.2404   0.2354   0.4001  -0.0671  -0.1323  -0.0165   0.00    0.0
2026/01/15 00:52:30.000   67.857348266   20.968467216   391.0775   6  13   0.2394   0.2342   0.3943  -0.0671  -0.1301  -0.0218   0.00    0.0
2026/01/15 00:53:00.000   67.857348269   20.968467289   391.0711   6  17   0.2384   0.2330   0.3885  -0.0670  -0.1279  -0.0259   0.00    0.0
2026/01/15 00:53:30.000   67.857348251   20.968467364   391.0660   6  13   0.2375   0.2319   0.3828  -0.0669  -0.1257  -0.0292   0.00    0.0
2026/01/15 00:54:00.000   67.857348276   20.968467446   391.0627   6  14   0.2365   0.2308   0.3771  -0.0669  -0.1235  -0.0325   0.00    0.0
2026/01/15 00:54:30.000   67.857348290   20.968467395   391.0608   6  13   0.2356   0.2297   0.3715  -0.0668  -0.1213  -0.0354   0.00    0.0
2026/01/15 00:55:00.000   67.857348289   20.968467384   391.0628   6  20   0.2346   0.2285   0.3659  -0.0667  -0.1190  -0.0382   0.00    0.0
2026/01/15 00:55:30.000   67.857348312   20.968467302   391.0649   6  20   0.2336   0.2274   0.3603  -0.0667  -0.1168  -0.0407   0.00    0.0
2026/01/15 00:56:00.000   67.857348325   20.968467259   391.0640   6  21   0.2327   0.2263   0.3547  -0.0666  -0.1145  -0.0429   0.00    0.0
2026/01/15 00:56:30.000   67.857348328   20.968467059   391.0632   6  20   0.2317   0.2253   0.3492  -0.0666  -0.1123  -0.0449   0.00    0.0
2026/01/15 00:57:00.000   67.857348350   20.968467024   391.0611   6  20   0.2308   0.2242   0.3437  -0.0665  -0.1100  -0.0471   0.00    0.0
2026/01/15 00:57:30.000   67.857348384   20.968466998   391.0564   6  18   0.2299   0.2232   0.3383  -0.0665  -0.1077  -0.0491   0.00    0.0
2026/01/15 00:58:00.000   67.857348420   20.968467078   391.0535   6  20   0.2291   0.2222   0.3331  -0.0665  -0.1054  -0.0503   0.00    0.0
2026/01/15 00:58:30.000   67.857348399   20.968467020   391.0553   6  20   0.2283   0.2212   0.3280  -0.0663  -0.1032  -0.0518   0.00    0.0
2026/01/15 00:59:00.000   67.857348424   20.968467005   391.0551   6  20   0.2275   0.2202   0.3230  -0.0662  -0.1009  -0.0532   0.00    0.0
2026/01/15 00:59:30.000   67.857348416   20.968466993   391.0603   6  19   0.2267   0.2192   0.3180  -0.0661  -0.0987  -0.0545   0.00    0.0
2026/01/15 01:00:00.000   67.857348436   20.968466878   391.0603   6  20   0.2259   0.2183   0.3131  -0.0660  -0.0964  -0.0557   0.00    0.0
2026/01/15 01:00:30.000   67.857348454   20.968466817   391.0597   6  20   0.2252   0.2174   0.3110  -0.0660  -0.0953  -0.0561   0.00    0.0
2026/01/15 01:01:00.000   67.857348459   20.968466833   391.0599   6  20   0.2244   0.2166   0.3091  -0.0660  -0.0943  -0.0564   0.00    0.0
2026/01/15 01:01:30.000   67.857348482   20.968466778   391.0578   6  20   0.2237   0.2157   0.3074  -0.0659  -0.0934  -0.0568   0.00    0.0
2026/01/15 01:02:00.000   67.857348502   20.968466717   391.0577   6  20   0.2229   0.2149   0.3058  -0.0659  -0.0925  -0.0573   0.00    0.0
2026/01/15 01:02:30.000   67.857348536   20.968466662   391.0591   6  20   0.2221   0.2140   0.3042  -0.0658  -0.0916  -0.0578   0.00    0.0
2026/01/15 01:03:00.000   67.857348564   20.968466578   391.0612   6  20   0.2214   0.2132   0.3025  -0.0658  -0.0906  -0.0585   0.00    0.0
2026/01/15 01:03:30.000   67.857348605   20.968466457   391.0637   6  21   0.2206   0.2123   0.3009  -0.0657  -0.0896  -0.0592   0.00    0.0
2026/01/15 01:04:00.000   67.857348618   20.968466454   391.0655   6  21   0.2199   0.2115   0.2996  -0.0656  -0.0887  -0.0597   0.00    0.0
2026/01/15 01:04:30.000   67.857348605   20.968466387   391.0718   6  21   0.2191   0.2106   0.2983  -0.0656  -0.0878  -0.0602   0.00    0.0
2026/01/15 01:05:00.000   67.857348640   20.968466329   391.0717   6  20   0.2184   0.2098   0.2971  -0.0655  -0.0869  -0.0606   0.00    0.0
2026/01/15 01:05:30.000   67.857348666   20.968466294   391.0733   6  19   0.2176   0.2090   0.2959  -0.0654  -0.0860  -0.0611   0.00    0.0
2026/01/15 01:06:00.000   67.857348695   20.968466311   391.0752   6  19   0.2169   0.2082   0.2946  -0.0653  -0.0850  -0.0617   0.00    0.0
2026/01/15 01:06:30.000   67.857348709   20.968466257   391.0769   6  19   0.2161   0.2074   0.2933  -0.0651  -0.0841  -0.0624   0.00    0.0
2026/01/15 01:07:00.000   67.857348739   20.968466151   391.0783   6  20   0.2154   0.2065   0.2919  -0.0650  -0.0831  -0.0632   0.00    0.0
2026/01/15 01:07:30.000   67.857348739   20.968466109   391.0824   6  20   0.2146   0.2057   0.2905  -0.0649  -0.0821  -0.0640   0.00    0.0
2026/01/15 01:08:00.000   67.857348748   20.968466021   391.0861   6  20   0.2138   0.2049   0.2890  -0.0647  -0.0810  -0.0648   0.00    0.0
2026/01/15 01:08:30.000   67.857348781   20.968465969   391.0881   6  19   0.2131   0.2042   0.2875  -0.0646  -0.0800  -0.0657   0.00    0.0
2026/01/15 01:09:00.000   67.857348788   20.968465971   391.0922   6  19   0.2123   0.2034   0.2859  -0.0644  -0.0789  -0.0667   0.00    0.0
2026/01/15 01:09:30.000   67.857348777   20.968465967   391.0964   6  19   0.2115   0.2026   0.2843  -0.0643  -0.0778  -0.0678   0.00    0.0
2026/01/15 01:10:00.000   67.857348786   20.968465920   391.1000   6  18   0.2106   0.2018   0.2826  -0.0641  -0.0766  -0.0688   0.00    0.0
2026/01/15 01:10:30.000   67.857348790   20.968465815   391.1057   6  15   0.2098   0.2010   0.2810  -0.0639  -0.0755  -0.0698   0.00    0.0
2026/01/15 01:11:00.000   67.857348793   20.968465807   391.1092   6  15   0.2090   0.2002   0.2793  -0.0637  -0.0743  -0.0709   0.00    0.0
2026/01/15 01:11:30.000   67.857348811   20.968465712   391.1121   6  19   0.2081   0.1994   0.2775  -0.0635  -0.0731  -0.0721   0.00    0.0
2026/01/15 01:12:00.000   67.857348850   20.968465696   391.1117   6  19   0.2072   0.1986   0.2756  -0.0632  -0.0719  -0.0734   0.00    0.0
2026/01/15 01:12:30.000   67.857348840   20.968465674   391.1150   6  15   0.2064   0.1979   0.2738  -0.0631  -0.0708  -0.0743   0.00    0.0
2026/01/15 01:13:00.000   67.857348874   20.968465670   391.1148   6  19   0.2055   0.1971   0.2719  -0.0629  -0.0696  -0.0756   0.00    0.0
2026/01/15 01:13:30.000   67.857348879   20.968465622   391.1177   6  15   0.2046   0.1963   0.2700  -0.0628  -0.0685  -0.0765   0.00    0.0
2026/01/15 01:14:00.000   67.857348913   20.968465634   391.1192   6  15   0.2037   0.1956   0.2682  -0.0627  -0.0674  -0.0775   0.00    0.0
2026/01/15 01:14:30.000   67.857348941   20.968465557   391.1211   6  18   0.2028   0.1949   0.2663  -0.0625  -0.0661  -0.0785   0.00    0.0
2026/01/15 01:15:00.000   67.857348973   20.968465481   391.1242   6  15   0.2019   0.1941   0.2644  -0.0624  -0.0649  -0.0795   0.00    0.0
2026/01/15 01:15:30.000   67.857349011   20.968465426   391.1262   6  15   0.2009   0.1934   0.2624  -0.0622  -0.0638  -0.0804   0.00    0.0
2026/01/15 01:16:00.000   67.857349035   20.968465429   391.1295   6  15   0.2000   0.1927   0.2605  -0.0621  -0.0626  -0.0814   0.00    0.0
2026/01/15 01:16:30.000   67.857349049   20.968465438   391.1325   6  15   0.1990   0.1919   0.2585  -0.0620  -0.0614  -0.0823   0.00    0.0
2026/01/15 01:17:00.000   67.857349089   20.968465369   391.1339   6  15   0.1980   0.1912   0.2565  -0.0618  -0.0603  -0.0832   0.00    0.0
2026/01/15 01:17:30.000   67.857349095   20.968465347   391.1357   6  15   0.1970   0.1905   0.2545  -0.0617  -0.0591  -0.0840   0.00    0.0
2026/01/15 01:18:00.000   67.857349131   20.968465324   391.1390   6  15   0.1960   0.1897   0.2525  -0.0616  -0.0579  -0.0848   0.00    0.0
2026/01/15 01:18:30.000   67.857349160   20.968465346   391.1423   6  16   0.1949   0.1890   0.2504  -0.0615  -0.0567  -0.0856   0.00    0.0
2026/01/15 01:19:00.000   67.857349182   20.968465255   391.1460   6  15   0.1939   0.1883   0.2483  -0.0614  -0.0556  -0.0864   0.00    0.0
2026/01/15 01:19:30.000   67.857349233   20.968465269   391.1485   6  15   0.1928   0.1876   0.2462  -0.0613  -0.0544  -0.0871   0.00    0.0
2026/01/15 01:20:00.000   67.857349277   20.968465228   391.1498   6  15   0.1917   0.1868   0.2441  -0.0612  -0.0532  -0.0877   0.00    0.0
2026/01/15 01:20:30.000   67.857349306   20.968465143   391.1517   6  17   0.1906   0.1861   0.2419  -0.0611  -0.0521  -0.0882   0.00    0.0
2026/01/15 01:21:00.000   67.857349335   20.968465114   391.1528   6  17   0.1894   0.1853   0.2397  -0.0610  -0.0510  -0.0886   0.00    0.0
2026/01/15 01:21:30.000   67.857349377   20.968465088   391.1555   6  17   0.1882   0.1846   0.2376  -0.0609  -0.0499  -0.0891   0.00    0.0
2026/01/15 01:22:00.000   67.857349428   20.968464963   391.1565   6  17   0.1871   0.1838   0.2354  -0.0608  -0.0489  -0.0895   0.00    0.0
2026/01/15 01:22:30.000   67.857349490   20.968464858   391.1573   6  17   0.1859   0.1831   0.2333  -0.0607  -0.0479  -0.0898   0.00    0.0
2026/01/15 01:23:00.000   67.857349524   20.968464768   391.1584   6  17   0.1847   0.1823   0.2311  -0.0606  -0.0470  -0.0902   0.00    0.0
2026/01/15 01:23:30.000   67.857349532   20.968464778   391.1572   6  10   0.1842   0.1816   0.2304  -0.0605  -0.0456  -0.0897   0.00    0.0
2026/01/15 01:24:00.000   67.857349584   20.968464667   391.1586   6  15   0.1832   0.1808   0.2284  -0.0603  -0.0441  -0.0896   0.00    0.0
2026/01/15 01:24:30.000   67.857349595   20.968464599   391.1579   6  11   0.1828   0.1801   0.2278  -0.0603  -0.0430  -0.0892   0.00    0.0
2026/01/15 01:25:00.000   67.857349598   20.968464515   391.1587   6   7   0.1824   0.1795   0.2272  -0.0602  -0.0420  -0.0888   0.00    0.0
2026/01/15 01:25:30.000   67.857349589   20.968464472   391.1590   6   7   0.1820   0.1788   0.2267  -0.0602  -0.0411  -0.0884   0.00    0.0
2026/01/15 01:26:00.000   67.857349624   20.968464330   391.1641   6  20   0.1805   0.1780   0.2238  -0.0602  -0.0394  -0.0889   0.00    0.0
2026/01/15 01:26:30.000   67.857349648   20.968464295   391.1659   6  13   0.1794   0.1772   0.2218  -0.0601  -0.0382  -0.0888   0.00    0.0
2026/01/15 01:27:00.000   67.857349704   20.968464241   391.1679   6  21   0.1778   0.1764   0.2189  -0.0601  -0.0365  -0.0891   0.00    0.0
2026/01/15 01:27:30.000   67.857349752   20.968464261   391.1694   6  20   0.1763   0.1756   0.2161  -0.0602  -0.0349  -0.0894   0.00    0.0
2026/01/15 01:28:00.000   67.857349817   20.968464166   391.1706   6  20   0.1747   0.1748   0.2133  -0.0603  -0.0333  -0.0896   0.00    0.0
2026/01/15 01:28:30.000   67.857349875   20.968464117   391.1708   6  21   0.1732   0.1740   0.2106  -0.0603  -0.0317  -0.0897   0.00    0.0
2026/01/15 01:29:00.000   67.857349917   20.968464002   391.1737   6  20   0.1717   0.1731   0.2080  -0.0604  -0.0301  -0.0898   0.00    0.0
2026/01/15 01:29:30.000   67.857349961   20.968463939   391.1755   6  20   0.1701   0.1723   0.2053  -0.0605  -0.0286  -0.0898   0.00    0.0
2026/01/15 01:30:00.000   67.857350005   20.968463864   391.1768   6  19   0.1686   0.1715   0.2028  -0.0605  -0.0270  -0.0898   0.00    0.0
2026/01/15 01:30:30.000   67.857350075   20.968463792   391.1756   6  20   0.1671   0.1707   0.2003  -0.0606  -0.0255  -0.0897   0.00    0.0
2026/01/15 01:31:00.000   67.857350132   20.968463801   391.1737   6  20   0.1656   0.1698   0.1978  -0.0607  -0.0240  -0.0896   0.00    0.0
2026/01/15 01:31:30.000   67.857350185   20.968463720   391.1745   6  21   0.1641   0.1690   0.1953  -0.0607  -0.0224  -0.0895   0.00    0.0
2026/01/15 01:32:00.000   67.857350225   20.968463658   391.1752   6  20   0.1626   0.1681   0.1929  -0.0608  -0.0209  -0.0893   0.00    0.0
2026/01/15 01:32:30.000   67.857350279   20.968463615   391.1744   6  19   0.1610   0.1673   0.1905  -0.0609  -0.0194  -0.0890   0.00    0.0
2026/01/15 01:33:00.000   67.857350341   20.968463561   391.1724   6  20   0.1595   0.1665   0.1882  -0.0610  -0.0178  -0.0887   0.00    0.0
2026/01/15 01:33:30.000   67.857350398   20.968463516   391.1716   6  21   0.1581   0.1656   0.1859  -0.0610  -0.0162  -0.0884   0.00    0.0
2026/01/15 01:34:00.000   67.857350442   20.968463427   391.1713   6  21   0.1566   0.1647   0.1836  -0.0611  -0.0145  -0.0881   0.00    0.0
2026/01/15 01:34:30.000   67.857350490   20.968463451   391.1705   6  21   0.1551   0.1639   0.1813  -0.0612  -0.0127  -0.0877   0.00    0.0
2026/01/15 01:35:00.000   67.857350522   20.968463371   391.1710   6  21   0.1536   0.1630   0.1791  -0.0612  -0.0108  -0.0873   0.00    0.0
2026/01/15 01:35:30.000   67.857350559   20.968463417   391.1709   6  22   0.1522   0.1622   0.1769  -0.0614  -0.0082  -0.0869   0.00    0.0
2026/01/15 01:36:00.000   67.857350606   20.968463305   391.1707   6  22   0.1507   0.1613   0.1748  -0.0615  -0.0043  -0.0865   0.00    0.0
2026/01/15 01:36:30.000   67.857350620   20.968463269   391.1721   6  22   0.1497   0.1606   0.1728  -0.0622   0.0085  -0.0865   0.00    0.0
2026/01/15 01:37:00.000   67.857350651   20.968463262   391.1713   6  22   0.1486   0.1599   0.1709  -0.0628   0.0127  -0.0865   0.00    0.0
2026/01/15 01:37:30.000   67.857350661   20.968463228   391.1730   6  22   0.1475   0.1591   0.1690  -0.0634   0.0158  -0.0864   0.00    0.0
2026/01/15 01:38:00.000   67.857350678   20.968463248   391.1744   6  22   0.1464   0.1584   0.1671  -0.0640   0.0183  -0.0864   0.00    0.0
2026/01/15 01:38:30.000   67.857350698   20.968463224   391.1745   6  22   0.1454   0.1577   0.1652  -0.0645   0.0204  -0.0862   0.00    0.0
2026/01/15 01:39:00.000   67.857350720   20.968463157   391.1747   6  22   0.1443   0.1569   0.1634  -0.0651   0.0223  -0.0861   0.00    0.0
2026/01/15 01:39:30.000   67.857350745   20.968463070   391.1747   6  22   0.1432   0.1562   0.1616  -0.0656   0.0239  -0.0860   0.00    0.0
2026/01/15 01:40:00.000   67.857350769   20.968463088   391.1742   6  22   0.1422   0.1554   0.1598  -0.0661   0.0254  -0.0858   0.00    0.0
2026/01/15 01:40:30.000   67.857350798   20.968463017   391.1743   6  22   0.1411   0.1546   0.1581  -0.0666   0.0268  -0.0856   0.00    0.0
2026/01/15 01:41:00.000   67.857350811   20.968462994   391.1746   6  22   0.1401   0.1539   0.1563  -0.0671   0.0281  -0.0853   0.00    0.0
2026/01/15 01:41:30.000   67.857350822   20.968462963   391.1753   6  22   0.1390   0.1531   0.1546  -0.0675   0.0292  -0.0851   0.00    0.0
2026/01/15 01:42:00.000   67.857350857   20.968462940   391.1740   6  22   0.1380   0.1523   0.1529  -0.0679   0.0303  -0.0848   0.00    0.0
2026/01/15 01:42:30.000   67.857350881   20.968462917   391.1737   6  22   0.1370   0.1515   0.1512  -0.0683   0.0313  -0.0845   0.00    0.0
2026/01/15 01:43:00.000   67.857350905   20.968462897   391.1737   6  22   0.1359   0.1508   0.1495  -0.0687   0.0322  -0.0842   0.00    0.0
2026/01/15 01:43:30.000   67.857350925   20.968462909   391.1730   6  22   0.1349   0.1500   0.1479  -0.0691   0.0330  -0.0839   0.00    0.0
2026/01/15 01:44:00.000   67.857350940   20.968462919   391.1730   6  22   0.1339   0.1492   0.1463  -0.0694   0.0338  -0.0835   0.00    0.0
2026/01/15 01:44:30.000   67.857350974   20.968462874   391.1718   6  22   0.1328   0.1484   0.1447  -0.0697   0.0345  -0.0831   0.00    0.0
2026/01/15 01:45:00.000   67.857351006   20.968462826   391.1700   6  22   0.1318   0.1475   0.1431  -0.0699   0.0352  -0.0827   0.00    0.0
2026/01/15 01:45:30.000   67.857351028   20.968462780   391.1690   6  22   0.1308   0.1467   0.1415  -0.0702   0.0358  -0.0823   0.00    0.0
2026/01/15 01:46:00.000   67.857351056   20.968462717   391.1684   6  22   0.1298   0.1459   0.1399  -0.0705   0.0364  -0.0819   0.00    0.0
2026/01/15 01:46:30.000   67.857351082   20.968462642   391.1673   6  22   0.1288   0.1451   0.1384  -0.0707   0.0369  -0.0815   0.00    0.0
2026/01/15 01:47:00.000   67.857351101   20.968462636   391.1661   6  22   0.1278   0.1443   0.1369  -0.0709   0.0375  -0.0811   0.00    0.0
2026/01/15 01:47:30.000   67.857351122   20.968462600   391.1647   6  22   0.1268   0.1435   0.1354  -0.0712   0.0380  -0.0807   0.00    0.0
2026/01/15 01:48:00.000   67.857351143   20.968462582   391.1639   6  22   0.1259   0.1428   0.1340  -0.0714   0.0384  -0.0803   0.00    0.0
2026/01/15 01:48:30.000   67.857351174   20.968462510   391.1618   6  22   0.1249   0.1420   0.1325  -0.0716   0.0388  -0.0798   0.00    0.0
2026/01/15 01:49:00.000   67.857351196   20.968462468   391.1601   6  22   0.1240   0.1412   0.1311  -0.0718   0.0392  -0.0794   0.00    0.0
2026/01/15 01:49:30.000   67.857351212   20.968462449   391.1584   6  23   0.1231   0.1404   0.1297  -0.0719   0.0396  -0.0789   0.00    0.0
2026/01/15 01:50:00.000   67.857351235   20.968462409   391.1567   6  23   0.1221   0.1396   0.1283  -0.0721   0.0399  -0.0784   0.00    0.0
2026/01/15 01:50:30.000   67.857351259   20.968462368   391.1549   6  23   0.1212   0.1387   0.1269  -0.0722   0.0402  -0.0779   0.00    0.0
2026/01/15 01:51:00.000   67.857351289   20.968462319   391.1527   6  23   0.1202   0.1379   0.1255  -0.0723   0.0404  -0.0774   0.00    0.0
2026/01/15 01:51:30.000   67.857351316   20.968462261   391.1506   6  23   0.1193   0.1371   0.1242  -0.0723   0.0406  -0.0769   0.00    0.0
2026/01/15 01:52:00.000   67.857351344   20.968462171   391.1479   6  23   0.1184   0.1363   0.1228  -0.0724   0.0408  -0.0764   0.00    0.0
2026/01/15 01:52:30.000   67.857351355   20.968462151   391.1469   6  17   0.1176   0.1358   0.1218  -0.0726   0.0409  -0.0760   0.00    0.0
2026/01/15 01:53:00.000   67.857351379   20.968462096   391.1437   6  23   0.1167   0.1350   0.1204  -0.0726   0.0410  -0.0754   0.00    0.0
2026/01/15 01:53:30.000   67.857351402   20.968462012   391.1404   6  23   0.1158   0.1341   0.1191  -0.0725   0.0411  -0.0749   0.00    0.0
2026/01/15 01:54:00.000   67.857351428   20.968461960   391.1369   6  23   0.1149   0.1332   0.1178  -0.0725   0.0412  -0.0744   0.00    0.0
2026/01/15 01:54:30.000   67.857351455   20.968461848   391.1330   6  23   0.1139   0.1324   0.1166  -0.0724   0.0413  -0.0738   0.00    0.0
2026/01/15 01:55:00.000   67.857351483   20.968461786   391.1298   6  23   0.1130   0.1315   0.1153  -0.0723   0.0414  -0.0733   0.00    0.0
2026/01/15 01:55:30.000   67.857351506   20.968461711   391.1270   6  23   0.1121   0.1306   0.1141  -0.0722   0.0414  -0.0728   0.00    0.0
2026/01/15 01:56:00.000   67.857351533   20.968461624   391.1242   6  23   0.1112   0.1297   0.1128  -0.0721   0.0415  -0.0722   0.00    0.0
2026/01/15 01:56:30.000   67.857351548   20.968461635   391.1228   6  17   0.1105   0.1293   0.1119  -0.0722   0.0414  -0.0717   0.00    0.0
2026/01/15 01:57:00.000   67.857351572   20.968461603   391.1207   6  17   0.1099   0.1289   0.1109  -0.0723   0.0413  -0.0713   0.00    0.0
2026/01/15 01:57:30.000   67.857351596   20.968461514   391.1173   6  24   0.1090   0.1279   0.1097  -0.0720   0.0413  -0.0707   0.00    0.0
2026/01/15 01:58:00.000   67.857351621   20.968461438   391.1143   6  24   0.1080   0.1269   0.1085  -0.0718   0.0412  -0.0701   0.00    0.0
2026/01/15 01:58:30.000   67.857351646   20.968461346   391.1115   6  24   0.1071   0.1260   0.1073  -0.0715   0.0411  -0.0695   0.00    0.0
2026/01/15 01:59:00.000   67.857351667   20.968461272   391.1087   6  24   0.1062   0.1250   0.1062  -0.0713   0.0410  -0.0690   0.00    0.0
2026/01/15 01:59:30.000   67.857351695   20.968461195   391.1052   6  24   0.1053   0.1240   0.1050  -0.0710   0.0408  -0.0684   0.00    0.0
2026/01/15 02:00:00.000   67.857351717   20.968461111   391.1025   6  24   0.1044   0.1231   0.1039  -0.0707   0.0407  -0.0678   0.00    0.0
2026/01/15 02:00:30.000   67.857351760   20.968460981   391.0989   6  24   0.1035   0.1221   0.1028  -0.0703   0.0405  -0.0672   0.00    0.0
2026/01/15 02:01:00.000   67.857351796   20.968460879   391.0955   6  24   0.1026   0.1211   0.1017  -0.0700   0.0404  -0.0666   0.00    0.0
2026/01/15 02:01:30.000   67.857351829   20.968460786   391.0924   6  24   0.1017   0.1202   0.1006  -0.0697   0.0402  -0.0660   0.00    0.0
2026/01/15 02:02:00.000   67.857351861   20.968460690   391.0893   6  24   0.1008   0.1192   0.0995  -0.0693   0.0400  -0.0655   0.00    0.0
2026/01/15 02:02:30.000   67.857351891   20.968460612   391.0859   6  25   0.1000   0.1182   0.0985  -0.0689   0.0397  -0.0649   0.00    0.0
2026/01/15 02:03:00.000   67.857351923   20.968460520   391.0829   6  25   0.0991   0.1172   0.0975  -0.0685   0.0395  -0.0644   0.00    0.0
2026/01/15 02:03:30.000   67.857351952   20.968460437   391.0799   6  25   0.0983   0.1163   0.0965  -0.0681   0.0393  -0.0639   0.00    0.0
2026/01/15 02:04:00.000   67.857351978   20.968460364   391.0773   6  26   0.0974   0.1153   0.0956  -0.0677   0.0390  -0.0634   0.00    0.0
2026/01/15 02:04:30.000   67.857352014   20.968460262   391.0743   6  25   0.0966   0.1143   0.0946  -0.0673   0.0387  -0.0628   0.00    0.0
2026/01/15 02:05:00.000   67.857352034   20.968460187   391.0721   6  26   0.0958   0.1133   0.0937  -0.0669   0.0385  -0.0623   0.00    0.0
2026/01/15 02:05:30.000   67.857352057   20.968460114   391.0700   6  27   0.0949   0.1124   0.0927  -0.0664   0.0382  -0.0618   0.00    0.0
2026/01/15 02:06:00.000   67.857352081   20.968460041   391.0679   6  27   0.0941   0.1114   0.0918  -0.0660   0.0379  -0.0612   0.00    0.0
2026/01/15 02:06:30.000   67.857352109   20.968459950   391.0653   6  27   0.0933   0.1104   0.0909  -0.0655   0.0376  -0.0607   0.00    0.0
2026/01/15 02:07:00.000   67.857352136   20.968459854   391.0629   6  27   0.0925   0.1095   0.0900  -0.0651   0.0373  -0.0602   0.00    0.0
2026/01/15 02:07:30.000   67.857352167   20.968459740   391.0604   6  27   0.0917   0.1085   0.0891  -0.0646   0.0370  -0.0597   0.00    0.0
2026/01/15 02:08:00.000   67.857352200   20.968459634   391.0573   6  27   0.0909   0.1075   0.0882  -0.0641   0.0366  -0.0591   0.00    0.0
2026/01/15 02:08:30.000   67.857352228   20.968459537   391.0545   6  28   0.0901   0.1066   0.0874  -0.0637   0.0364  -0.0587   0.00    0.0
2026/01/15 02:09:00.000   67.857352252   20.968459462   391.0521   6  28   0.0893   0.1056   0.0865  -0.0632   0.0361  -0.0582   0.00    0.0
2026/01/15 02:09:30.000   67.857352262   20.968459385   391.0519   6   8   0.0890   0.1050   0.0863  -0.0627   0.0359  -0.0580   0.00    0.0
2026/01/15 02:10:00.000   67.857352275   20.968459308   391.0517   6   8   0.0886   0.1043   0.0860  -0.0622   0.0357  -0.0578   0.00    0.0
2026/01/15 02:10:30.000   67.857352282   20.968459250   391.0516   6   8   0.0882   0.1036   0.0858  -0.0617   0.0355  -0.0576   0.00    0.0
2026/01/15 02:11:00.000   67.857352288   20.968459208   391.0517   6   8   0.0878   0.1029   0.0855  -0.0612   0.0352  -0.0573   0.00    0.0
2026/01/15 02:11:30.000   67.857352306   20.968459131   391.0513   6   8   0.0874   0.1022   0.0852  -0.0607   0.0350  -0.0571   0.00    0.0
2026/01/15 02:12:00.000   67.857352323   20.968459048   391.0509   6   8   0.0870   0.1015   0.0849  -0.0602   0.0348  -0.0569   0.00    0.0
2026/01/15 02:12:30.000   67.857352340   20.968458956   391.0508   6   8   0.0866   0.1008   0.0847  -0.0597   0.0346  -0.0567   0.00    0.0
2026/01/15 02:13:00.000   67.857352356   20.968458872   391.0509   6   8   0.0862   0.1002   0.0844  -0.0592   0.0344  -0.0565   0.00    0.0
2026/01/15 02:13:30.000   67.857352370   20.968458810   391.0508   6   8   0.0859   0.0995   0.0841  -0.0587   0.0341  -0.0563   0.00    0.0
2026/01/15 02:14:00.000   67.857352389   20.968458733   391.0504   6   8   0.0855   0.0988   0.0838  -0.0582   0.0339  -0.0560   0.00    0.0
2026/01/15 02:14:30.000   67.857352407   20.968458659   391.0500   6   8   0.0851   0.0981   0.0835  -0.0577   0.0337  -0.0558   0.00    0.0
2026/01/15 02:15:00.000   67.857352424   20.968458601   391.0494   6   8   0.0847   0.0975   0.0832  -0.0572   0.0335  -0.0556   0.00    0.0
2026/01/15 02:15:30.000   67.857352444   20.968458520   391.0491   6   8   0.0843   0.0968   0.0830  -0.0566   0.0332  -0.0554   0.00    0.0
2026/01/15 02:16:00.000   67.857352456   20.968458459   391.0489   6   8   0.0839   0.0961   0.0827  -0.0561   0.0330  -0.0551   0.00    0.0
2026/01/15 02:16:30.000   67.857352473   20.968458376   391.0484   6   8   0.0835   0.0955   0.0824  -0.0556   0.0327  -0.0549   0.00    0.0
2026/01/15 02:17:00.000   67.857352487   20.968458319   391.0483   6   8   0.0831   0.0948   0.0821  -0.0551   0.0325  -0.0547   0.00    0.0
2026/01/15 02:17:30.000   67.857352507   20.968458251   391.0478   6   9   0.0827   0.0941   0.0818  -0.0546   0.0322  -0.0545   0.00    0.0
2026/01/15 02:18:00.000   67.857352522   20.968458227   391.0477   6  14   0.0820   0.0933   0.0813  -0.0543   0.0320  -0.0541   0.00    0.0
2026/01/15 02:18:30.000   67.857352539   20.968458155   391.0474   6   8   0.0816   0.0926   0.0810  -0.0538   0.0318  -0.0539   0.00    0.0
2026/01/15 02:19:00.000   67.857352554   20.968458104   391.0472   6  10   0.0812   0.0920   0.0807  -0.0533   0.0315  -0.0536   0.00    0.0
2026/01/15 02:19:30.000   67.857352572   20.968458050   391.0464   6  10   0.0808   0.0913   0.0804  -0.0528   0.0312  -0.0534   0.00    0.0
2026/01/15 02:20:00.000   67.857352586   20.968457982   391.0462   6  10   0.0804   0.0907   0.0801  -0.0523   0.0310  -0.0532   0.00    0.0
2026/01/15 02:20:30.000   67.857352601   20.968457918   391.0460   6  11   0.0800   0.0901   0.0798  -0.0518   0.0307  -0.0529   0.00    0.0
2026/01/15 02:21:00.000   67.857352614   20.968457861   391.0458   6   8   0.0797   0.0894   0.0795  -0.0512   0.0304  -0.0527   0.00    0.0
2026/01/15 02:21:30.000   67.857352626   20.968457802   391.0460   6   8   0.0793   0.0888   0.0792  -0.0508   0.0302  -0.0525   0.00    0.0
2026/01/15 02:22:00.000   67.857352643   20.968457747   391.0454   6   9   0.0789   0.0882   0.0789  -0.0503   0.0299  -0.0522   0.00    0.0
2026/01/15 02:22:30.000   67.857352661   20.968457687   391.0450   6  10   0.0785   0.0875   0.0786  -0.0498   0.0296  -0.0520   0.00    0.0
2026/01/15 02:23:00.000   67.857352665   20.968457673   391.0454   6   9   0.0782   0.0871   0.0784  -0.0495   0.0296  -0.0519   0.00    0.0
2026/01/15 02:23:30.000   67.857352671   20.968457645   391.0458   6   8   0.0780   0.0866   0.0782  -0.0493   0.0296  -0.0519   0.00    0.0
2026/01/15 02:24:00.000   67.857352680   20.968457600   391.0458   6   8   0.0777   0.0861   0.0779  -0.0490   0.0296  -0.0518   0.00    0.0
2026/01/15 02:24:30.000   67.857352685   20.968457591   391.0462   6  17   0.0772   0.0854   0.0775  -0.0489   0.0298  -0.0515   0.00    0.0
2026/01/15 02:25:00.000   67.857352695   20.968457573   391.0463   6  17   0.0767   0.0848   0.0771  -0.0489   0.0299  -0.0513   0.00    0.0
2026/01/15 02:25:30.000   67.857352699   20.968457549   391.0467   6   9   0.0764   0.0843   0.0768  -0.0486   0.0298  -0.0512   0.00    0.0
2026/01/15 02:26:00.000   67.857352708   20.968457536   391.0469   6  14   0.0759   0.0836   0.0764  -0.0485   0.0299  -0.0510   0.00    0.0
2026/01/15 02:26:30.000   67.857352721   20.968457508   391.0472   6  12   0.0755   0.0831   0.0760  -0.0485   0.0301  -0.0507   0.00    0.0
2026/01/15 02:27:00.000   67.857352730   20.968457466   391.0472   6   8   0.0753   0.0826   0.0758  -0.0482   0.0300  -0.0506   0.00    0.0
2026/01/15 02:27:30.000   67.857352739   20.968457436   391.0472   6   9   0.0750   0.0822   0.0756  -0.0479   0.0300  -0.0505   0.00    0.0
2026/01/15 02:28:00.000   67.857352745   20.968457405   391.0473   6   8   0.0748   0.0817   0.0753  -0.0477   0.0299  -0.0504   0.00    0.0
2026/01/15 02:28:30.000   67.857352749   20.968457372   391.0475   6   8   0.0745   0.0812   0.0751  -0.0474   0.0299  -0.0504   0.00    0.0
2026/01/15 02:29:00.000   67.857352757   20.968457338   391.0473   6   8   0.0743   0.0808   0.0749  -0.0471   0.0298  -0.0503   0.00    0.0
2026/01/15 02:29:30.000   67.857352765   20.968457293   391.0471   6   8   0.0740   0.0803   0.0746  -0.0469   0.0298  -0.0502   0.00    0.0
2026/01/15 02:30:00.000   67.857352777   20.968457272   391.0469   6  13   0.0735   0.0797   0.0742  -0.0468   0.0298  -0.0499   0.00    0.0
2026/01/15 02:30:30.000   67.857352788   20.968457236   391.0461   6  10   0.0733   0.0793   0.0740  -0.0466   0.0297  -0.0498   0.00    0.0
2026/01/15 02:31:00.000   67.857352802   20.968457214   391.0453   6  18   0.0728   0.0786   0.0735  -0.0464   0.0298  -0.0496   0.00    0.0
2026/01/15 02:31:30.000   67.857352815   20.968457196   391.0448   6  20   0.0723   0.0780   0.0731  -0.0463   0.0298  -0.0493   0.00    0.0
2026/01/15 02:32:00.000   67.857352825   20.968457182   391.0444   6  21   0.0718   0.0774   0.0727  -0.0462   0.0298  -0.0490   0.00    0.0
2026/01/15 02:32:30.000   67.857352835   20.968457172   391.0440   6  16   0.0713   0.0768   0.0722  -0.0460   0.0298  -0.0488   0.00    0.0
2026/01/15 02:33:00.000   67.857352847   20.968457150   391.0433   6  23   0.0708   0.0762   0.0718  -0.0459   0.0298  -0.0485   0.00    0.0
2026/01/15 02:33:30.000   67.857352857   20.968457119   391.0426   6  24   0.0703   0.0756   0.0714  -0.0457   0.0297  -0.0482   0.00    0.0
2026/01/15 02:34:00.000   67.857352863   20.968457118   391.0431   6  23   0.0698   0.0750   0.0711  -0.0456   0.0298  -0.0480   0.00    0.0
2026/01/15 02:34:30.000   67.857352877   20.968457093   391.0431   6  23   0.0694   0.0745   0.0708  -0.0454   0.0299  -0.0478   0.00    0.0
2026/01/15 02:35:00.000   67.857352888   20.968457071   391.0434   6  23   0.0689   0.0739   0.0705  -0.0453   0.0299  -0.0475   0.00    0.0
2026/01/15 02:35:30.000   67.857352900   20.968457052   391.0434   6  23   0.0685   0.0734   0.0701  -0.0451   0.0299  -0.0473   0.00    0.0
2026/01/15 02:36:00.000   67.857352912   20.968457037   391.0434   6  23   0.0680   0.0728   0.0698  -0.0449   0.0300  -0.0470   0.00    0.0
2026/01/15 02:36:30.000   67.857352923   20.968457015   391.0435   6  23   0.0676   0.0723   0.0695  -0.0447   0.0300  -0.0468   0.00    0.0
2026/01/15 02:37:00.000   67.857352934   20.968456999   391.0438   6  23   0.0672   0.0718   0.0692  -0.0446   0.0300  -0.0466   0.00    0.0
2026/01/15 02:37:30.000   67.857352945   20.968456978   391.0440   6  23   0.0667   0.0713   0.0689  -0.0444   0.0300  -0.0463   0.00    0.0
2026/01/15 02:38:00.000   67.857352959   20.968456950   391.0440   6  23   0.0663   0.0707   0.0686  -0.0442   0.0299  -0.0461   0.00    0.0
2026/01/15 02:38:30.000   67.857352968   20.968456933   391.0442   6  23   0.0659   0.0702   0.0683  -0.0440   0.0299  -0.0459   0.00    0.0
2026/01/15 02:39:00.000   67.857352979   20.968456917   391.0443   6  23   0.0655   0.0697   0.0680  -0.0438   0.0299  -0.0457   0.00    0.0
2026/01/15 02:39:30.000   67.857352990   20.968456897   391.0442   6  23   0.0650   0.0692   0.0677  -0.0436   0.0299  -0.0454   0.00    0.0
2026/01/15 02:40:00.000   67.857353002   20.968456867   391.0443   6  23   0.0646   0.0687   0.0674  -0.0434   0.0298  -0.0452   0.00    0.0
2026/01/15 02:40:30.000   67.857353013   20.968456845   391.0442   6  23   0.0642   0.0682   0.0671  -0.0432   0.0298  -0.0450   0.00    0.0
2026/01/15 02:41:00.000   67.857353023   20.968456831   391.0443   6  23   0.0638   0.0677   0.0668  -0.0429   0.0297  -0.0448   0.00    0.0
2026/01/15 02:41:30.000   67.857353033   20.968456805   391.0443   6  23   0.0634   0.0673   0.0665  -0.0427   0.0297  -0.0445   0.00    0.0
2026/01/15 02:42:00.000   67.857353042   20.968456788   391.0443   6  23   0.0630   0.0668   0.0662  -0.0425   0.0296  -0.0443   0.00    0.0
2026/01/15 02:42:30.000   67.857353055   20.968456761   391.0439   6  23   0.0626   0.0663   0.0659  -0.0423   0.0295  -0.0441   0.00    0.0
2026/01/15 02:43:00.000   67.857353064   20.968456736   391.0436   6  23   0.0622   0.0658   0.0656  -0.0420   0.0294  -0.0439   0.00    0.0
2026/01/15 02:43:30.000   67.857353074   20.968456715   391.0434   6  23   0.0619   0.0654   0.0653  -0.0418   0.0293  -0.0437   0.00    0.0
2026/01/15 02:44:00.000   67.857353085   20.968456697   391.0431   6  23   0.0615   0.0649   0.0651  -0.0416   0.0293  -0.0434   0.00    0.0
2026/01/15 02:44:30.000   67.857353093   20.968456677   391.0429   6  23   0.0611   0.0644   0.0648  -0.0413   0.0292  -0.0432   0.00    0.0
2026/01/15 02:45:00.000   67.857353099   20.968456666   391.0428   6  23   0.0607   0.0640   0.0645  -0.0411   0.0291  -0.0430   0.00    0.0
2026/01/15 02:45:30.000   67.857353109   20.968456646   391.0428   6  23   0.0603   0.0635   0.0642  -0.0409   0.0290  -0.0428   0.00    0.0
2026/01/15 02:46:00.000   67.857353121   20.968456628   391.0425   6  23   0.0600   0.0631   0.0639  -0.0406   0.0288  -0.0426   0.00    0.0
2026/01/15 02:46:30.000   67.857353133   20.968456599   391.0422   6  23   0.0596   0.0626   0.0636  -0.0404   0.0287  -0.0423   0.00    0.0
2026/01/15 02:47:00.000   67.857353145   20.968456580   391.0418   6  23   0.0592   0.0622   0.0633  -0.0401   0.0286  -0.0421   0.00    0.0
2026/01/15 02:47:30.000   67.857353157   20.968456553   391.0412   6  23   0.0589   0.0618   0.0630  -0.0399   0.0285  -0.0419   0.00    0.0
2026/01/15 02:48:00.000   67.857353168   20.968456527   391.0407   6  23   0.0585   0.0613   0.0627  -0.0396   0.0284  -0.0417   0.00    0.0
2026/01/15 02:48:30.000   67.857353178   20.968456499   391.0403   6  23   0.0581   0.0609   0.0625  -0.0394   0.0282  -0.0415   0.00    0.0
2026/01/15 02:49:00.000   67.857353188   20.968456475   391.0398   6  23   0.0578   0.0605   0.0622  -0.0391   0.0281  -0.0413   0.00    0.0
2026/01/15 02:49:30.000   67.857353200   20.968456445   391.0392   6  23   0.0574   0.0600   0.0619  -0.0389   0.0280  -0.0410   0.00    0.0
2026/01/15 02:50:00.000   67.857353210   20.968456417   391.0387   6  23   0.0570   0.0596   0.0616  -0.0386   0.0278  -0.0408   0.00    0.0
2026/01/15 02:50:30.000   67.857353219   20.968456395   391.0382   6  23   0.0567   0.0592   0.0613  -0.0384   0.0277  -0.0406   0.00    0.0
2026/01/15 02:51:00.000   67.857353226   20.968456377   391.0378   6  23   0.0563   0.0588   0.0610  -0.0381   0.0275  -0.0404   0.00    0.0
2026/01/15 02:51:30.000   67.857353235   20.968456353   391.0373   6  23   0.0560   0.0583   0.0607  -0.0378   0.0274  -0.0402   0.00    0.0
2026/01/15 02:52:00.000   67.857353243   20.968456327   391.0369   6  23   0.0556   0.0579   0.0605  -0.0376   0.0272  -0.0400   0.00    0.0
2026/01/15 02:52:30.000   67.857353253   20.968456299   391.0363   6  23   0.0553   0.0575   0.0602  -0.0373   0.0271  -0.0398   0.00    0.0
2026/01/15 02:53:00.000   67.857353262   20.968456281   391.0357   6  23   0.0550   0.0571   0.0599  -0.0371   0.0269  -0.0396   0.00    0.0
2026/01/15 02:53:30.000   67.857353272   20.968456260   391.0349   6  23   0.0546   0.0567   0.0596  -0.0368   0.0268  -0.0394   0.00    0.0
2026/01/15 02:54:00.000   67.857353283   20.968456237   391.0341   6  23   0.0543   0.0563   0.0593  -0.0366   0.0267  -0.0392   0.00    0.0
2026/01/15 02:54:30.000   67.857353292   20.968456220   391.0334   6  23   0.0540   0.0560   0.0591  -0.0363   0.0265  -0.0389   0.00    0.0
2026/01/15 02:55:00.000   67.857353299   20.968456206   391.0326   6  23   0.0536   0.0556   0.0588  -0.0361   0.0264  -0.0387   0.00    0.0
2026/01/15 02:55:30.000   67.857353308   20.968456186   391.0319   6  23   0.0533   0.0552   0.0585  -0.0358   0.0262  -0.0385   0.00    0.0
2026/01/15 02:56:00.000   67.857353317   20.968456163   391.0311   6  23   0.0530   0.0548   0.0582  -0.0356   0.0260  -0.0383   0.00    0.0
2026/01/15 02:56:30.000   67.857353327   20.968456138   391.0304   6  23   0.0527   0.0544   0.0580  -0.0353   0.0259  -0.0381   0.00    0.0
2026/01/15 02:57:00.000   67.857353335   20.968456118   391.0296   6  23   0.0524   0.0541   0.0577  -0.0351   0.0257  -0.0379   0.00    0.0
2026/01/15 02:57:30.000   67.857353344   20.968456096   391.0287   6  24   0.0520   0.0537   0.0574  -0.0348   0.0256  -0.0377   0.00    0.0
2026/01/15 02:58:00.000   67.857353352   20.968456074   391.0278   6  23   0.0517   0.0533   0.0571  -0.0346   0.0254  -0.0375   0.00    0.0
2026/01/15 02:58:30.000   67.857353359   20.968456062   391.0270   6  24   0.0514   0.0530   0.0569  -0.0343   0.0252  -0.0373   0.00    0.0
2026/01/15 02:59:00.000   67.857353365   20.968456051   391.0263   6  24   0.0511   0.0526   0.0566  -0.0341   0.0251  -0.0371   0.00    0.0
2026/01/15 02:59:30.000   67.857353374   20.968456029   391.0253   6  24   0.0508   0.0522   0.0563  -0.0338   0.0249  -0.0369   0.00    0.0
2026/01/15 03:00:00.000   67.857353379   20.968456013   391.0247   6  24   0.0505   0.0519   0.0561  -0.0336   0.0247  -0.0367   0.00    0.0
2026/01/15 03:00:30.000   67.857353388   20.968455988   391.0239   6  24   0.0502   0.0515   0.0558  -0.0333   0.0246  -0.0365   0.00    0.0
2026/01/15 03:01:00.000   67.857353396   20.968455960   391.0229   6  24   0.0499   0.0512   0.0555  -0.0331   0.0244  -0.0363   0.00    0.0
2026/01/15 03:01:30.000   67.857353402   20.968455943   391.0219   6  24   0.0496   0.0508   0.0553  -0.0328   0.0242  -0.0361   0.00    0.0
2026/01/15 03:02:00.000   67.857353412   20.968455917   391.0208   6  24   0.0493   0.0505   0.0550  -0.0326   0.0240  -0.0359   0.00    0.0
2026/01/15 03:02:30.000   67.857353421   20.968455900   391.0198   6  24   0.0490   0.0501   0.0547  -0.0323   0.0239  -0.0357   0.00    0.0
2026/01/15 03:03:00.000   67.857353428   20.968455885   391.0188   6  24   0.0487   0.0498   0.0545  -0.0321   0.0237  -0.0356   0.00    0.0
2026/01/15 03:03:30.000   67.857353436   20.968455864   391.0177   6  24   0.0484   0.0495   0.0542  -0.0318   0.0235  -0.0354   0.00    0.0
2026/01/15 03:04:00.000   67.857353441   20.968455846   391.0165   6  24   0.0481   0.0491   0.0539  -0.0316   0.0233  -0.0352   0.00    0.0
2026/01/15 03:04:30.000   67.857353448   20.968455830   391.0153   6  24   0.0478   0.0488   0.0537  -0.0313   0.0231  -0.0350   0.00    0.0
2026/01/15 03:05:00.000   67.857353454   20.968455814   391.0142   6  24   0.0475   0.0485   0.0534  -0.0311   0.0230  -0.0348   0.00    0.0
2026/01/15 03:05:30.000   67.857353462   20.968455791   391.0129   6  24   0.0472   0.0481   0.0531  -0.0308   0.0228  -0.0346   0.00    0.0
2026/01/15 03:06:00.000   67.857353469   20.968455775   391.0118   6  24   0.0469   0.0478   0.0529  -0.0306   0.0226  -0.0344   0.00    0.0
2026/01/15 03:06:30.000   67.857353474   20.968455761   391.0106   6  25   0.0467   0.0475   0.0526  -0.0303   0.0224  -0.0342   0.00    0.0
2026/01/15 03:07:00.000   67.857353482   20.968455739   391.0095   6  25   0.0464   0.0472   0.0524  -0.0301   0.0222  -0.0340   0.00    0.0
2026/01/15 03:07:30.000   67.857353491   20.968455717   391.0083   6  25   0.0461   0.0469   0.0521  -0.0298   0.0221  -0.0338   0.00    0.0
2026/01/15 03:08:00.000   67.857353496   20.968455703   391.0071   6  25   0.0458   0.0466   0.0518  -0.0296   0.0219  -0.0336   0.00    0.0
2026/01/15 03:08:30.000   67.857353501   20.968455693   391.0059   6  25   0.0456   0.0463   0.0516  -0.0294   0.0217  -0.0334   0.00    0.0
2026/01/15 03:09:00.000   67.857353508   20.968455675   391.0043   6  25   0.0453   0.0460   0.0513  -0.0292   0.0215  -0.0332   0.00    0.0
2026/01/15 03:09:30.000   67.857353515   20.968455658   391.0027   6  25   0.0450   0.0457   0.0511  -0.0289   0.0214  -0.0331   0.00    0.0
2026/01/15 03:10:00.000   67.857353522   20.968455639   391.0011   6  25   0.0448   0.0454   0.0508  -0.0287   0.0212  -0.0329   0.00    0.0
2026/01/15 03:10:30.000   67.857353531   20.968455630   391.0001   6  24   0.0445   0.0451   0.0506  -0.0285   0.0210  -0.0327   0.00    0.0
2026/01/15 03:11:00.000   67.857353539   20.968455617   390.9990   6  24   0.0442   0.0448   0.0504  -0.0282   0.0209  -0.0325   0.00    0.0
2026/01/15 03:11:30.000   67.857353546   20.968455609   390.9981   6  24   0.0440   0.0445   0.0501  -0.0280   0.0207  -0.0323   0.00    0.0
2026/01/15 03:12:00.000   67.857353553   20.968455602   390.9970   6  24   0.0437   0.0442   0.0499  -0.0278   0.0206  -0.0321   0.00    0.0
2026/01/15 03:12:30.000   67.857353561   20.968455592   390.9959   6  24   0.0435   0.0440   0.0497  -0.0276   0.0204  -0.0319   0.00    0.0
2026/01/15 03:13:00.000   67.857353568   20.968455583   390.9948   6  24   0.0432   0.0437   0.0495  -0.0273   0.0203  -0.0317   0.00    0.0
2026/01/15 03:13:30.000   67.857353574   20.968455576   390.9936   6  24   0.0430   0.0434   0.0493  -0.0271   0.0202  -0.0315   0.00    0.0
2026/01/15 03:14:00.000   67.857353581   20.968455562   390.9923   6  24   0.0427   0.0432   0.0490  -0.0269   0.0200  -0.0313   0.00    0.0
2026/01/15 03:14:30.000   67.857353589   20.968455553   390.9909   6  24   0.0425   0.0429   0.0488  -0.0267   0.0199  -0.0312   0.00    0.0
2026/01/15 03:15:00.000   67.857353597   20.968455542   390.9895   6  24   0.0422   0.0426   0.0486  -0.0264   0.0197  -0.0310   0.00    0.0
2026/01/15 03:15:30.000   67.857353604   20.968455534   390.9882   6  24   0.0420   0.0424   0.0484  -0.0262   0.0196  -0.0308   0.00    0.0
2026/01/15 03:16:00.000   67.857353610   20.968455522   390.9869   6  24   0.0417   0.0421   0.0482  -0.0260   0.0194  -0.0306   0.00    0.0
2026/01/15 03:16:30.000   67.857353618   20.968455514   390.9855   6  24   0.0415   0.0418   0.0480  -0.0258   0.0193  -0.0304   0.00    0.0
2026/01/15 03:17:00.000   67.857353625   20.968455504   390.9840   6  24   0.0413   0.0416   0.0477  -0.0256   0.0191  -0.0302   0.00    0.0
2026/01/15 03:17:30.000   67.857353633   20.968455490   390.9834   6  23   0.0410   0.0413   0.0476  -0.0254   0.0189  -0.0301   0.00    0.0
2026/01/15 03:18:00.000   67.857353640   20.968455477   390.9829   6  23   0.0408   0.0411   0.0474  -0.0251   0.0187  -0.0299   0.00    0.0
2026/01/15 03:18:30.000   67.857353647   20.968455459   390.9825   6   5   0.0406   0.0409   0.0474  -0.0249   0.0185  -0.0298   0.00    0.0
2026/01/15 03:19:00.000   67.857353652   20.968455447   390.9823   6   5   0.0405   0.0407   0.0473  -0.0247   0.0183  -0.0297   0.00    0.0
2026/01/15 03:19:30.000   67.857353657   20.968455434   390.9822   6   7   0.0403   0.0406   0.0472  -0.0245   0.0181  -0.0296   0.00    0.0
2026/01/15 03:20:00.000   67.857353663   20.968455422   390.9819   6   6   0.0402   0.0404   0.0472  -0.0243   0.0179  -0.0295   0.00    0.0
2026/01/15 03:20:30.000   67.857353668   20.968455412   390.9817   6   6   0.0400   0.0402   0.0471  -0.0241   0.0177  -0.0294   0.00    0.0
2026/01/15 03:21:00.000   67.857353672   20.968455402   390.9815   6   7   0.0399   0.0401   0.0471  -0.0239   0.0175  -0.0293   0.00    0.0
2026/01/15 03:21:30.000   67.857353678   20.968455391   390.9812   6   6   0.0397   0.0399   0.0470  -0.0237   0.0172  -0.0292   0.00    0.0
2026/01/15 03:22:00.000   67.857353683   20.968455380   390.9810   6   6   0.0396   0.0397   0.0469  -0.0235   0.0170  -0.0291   0.00    0.0
2026/01/15 03:22:30.000   67.857353688   20.968455366   390.9807   6   6   0.0394   0.0395   0.0469  -0.0234   0.0168  -0.0291   0.00    0.0
2026/01/15 03:23:00.000   67.857353693   20.968455353   390.9805   6   6   0.0393   0.0394   0.0468  -0.0232   0.0166  -0.0290   0.00    0.0
2026/01/15 03:23:30.000   67.857353698   20.968455340   390.9802   6   6   0.0392   0.0392   0.0467  -0.0230   0.0164  -0.0289   0.00    0.0
2026/01/15 03:24:00.000   67.857353704   20.968455323   390.9800   6   6   0.0390   0.0390   0.0467  -0.0228   0.0162  -0.0288   0.00    0.0
2026/01/15 03:24:30.000   67.857353708   20.968455312   390.9797   6   6   0.0389   0.0389   0.0466  -0.0226   0.0159  -0.0287   0.00    0.0
2026/01/15 03:25:00.000   67.857353711   20.968455301   390.9795   6   6   0.0387   0.0387   0.0465  -0.0224   0.0157  -0.0286   0.00    0.0
2026/01/15 03:25:30.000   67.857353715   20.968455288   390.9793   6   6   0.0386   0.0386   0.0465  -0.0222   0.0155  -0.0285   0.00    0.0
2026/01/15 03:26:00.000   67.857353718   20.968455277   390.9790   6   7   0.0384   0.0384   0.0464  -0.0220   0.0153  -0.0284   0.00    0.0
2026/01/15 03:26:30.000   67.857353721   20.968455261   390.9788   6   7   0.0383   0.0382   0.0463  -0.0218   0.0151  -0.0283   0.00    0.0
2026/01/15 03:27:00.000   67.857353725   20.968455249   390.9785   6   7   0.0381   0.0381   0.0463  -0.0216   0.0148  -0.0282   0.00    0.0
2026/01/15 03:27:30.000   67.857353729   20.968455233   390.9783   6   6   0.0380   0.0379   0.0462  -0.0214   0.0146  -0.0281   0.00    0.0
2026/01/15 03:28:00.000   67.857353734   20.968455219   390.9780   6   7   0.0379   0.0378   0.0461  -0.0212   0.0144  -0.0280   0.00    0.0
2026/01/15 03:28:30.000   67.857353738   20.968455204   390.9777   6  11   0.0377   0.0376   0.0461  -0.0210   0.0141  -0.0280   0.00    0.0
2026/01/15 03:29:00.000   67.857353742   20.968455189   390.9775   6   8   0.0376   0.0374   0.0460  -0.0208   0.0139  -0.0279   0.00    0.0
2026/01/15 03:29:30.000   67.857353744   20.968455178   390.9773   6  10   0.0374   0.0373   0.0459  -0.0207   0.0137  -0.0278   0.00    0.0
2026/01/15 03:30:00.000   67.857353749   20.968455164   390.9771   6   8   0.0373   0.0371   0.0459  -0.0205   0.0134  -0.0277   0.00    0.0
2026/01/15 03:30:30.000   67.857353752   20.968455152   390.9769   6  10   0.0372   0.0370   0.0458  -0.0203   0.0132  -0.0276   0.00    0.0
2026/01/15 03:31:00.000   67.857353755   20.968455139   390.9767   6  10   0.0370   0.0368   0.0457  -0.0201   0.0130  -0.0275   0.00    0.0
2026/01/15 03:31:30.000   67.857353760   20.968455126   390.9763   6  14   0.0369   0.0367   0.0457  -0.0199   0.0127  -0.0274   0.00    0.0
2026/01/15 03:32:00.000   67.857353763   20.968455114   390.9760   6   7   0.0368   0.0365   0.0456  -0.0197   0.0125  -0.0273   0.00    0.0
2026/01/15 03:32:30.000   67.857353766   20.968455105   390.9757   6  16   0.0366   0.0364   0.0455  -0.0195   0.0122  -0.0272   0.00    0.0
2026/01/15 03:33:00.000   67.857353770   20.968455093   390.9754   6   6   0.0365   0.0363   0.0455  -0.0194   0.0120  -0.0271   0.00    0.0
2026/01/15 03:33:30.000   67.857353773   20.968455083   390.9752   6  16   0.0364   0.0361   0.0454  -0.0192   0.0117  -0.0271   0.00    0.0
2026/01/15 03:34:00.000   67.857353777   20.968455071   390.9748   6  21   0.0362   0.0360   0.0453  -0.0190   0.0115  -0.0270   0.00    0.0
2026/01/15 03:34:30.000   67.857353780   20.968455062   390.9746   6  21   0.0361   0.0358   0.0452  -0.0188   0.0112  -0.0269   0.00    0.0
2026/01/15 03:35:00.000   67.857353783   20.968455051   390.9744   6  21   0.0360   0.0357   0.0452  -0.0186   0.0109  -0.0268   0.00    0.0
2026/01/15 03:35:30.000   67.857353786   20.968455039   390.9741   6  21   0.0358   0.0355   0.0451  -0.0185   0.0107  -0.0267   0.00    0.0
2026/01/15 03:36:00.000   67.857353787   20.968455027   390.9738   6  21   0.0357   0.0354   0.0450  -0.0183   0.0104  -0.0266   0.00    0.0
2026/01/15 03:36:30.000   67.857353785   20.968455028   390.9740   6  17   0.0357   0.0354   0.0450  -0.0183   0.0104  -0.0266   0.00    0.0
2026/01/15 03:37:00.000   67.857353785   20.968455030   390.9740   6  17   0.0357   0.0354   0.0450  -0.0183   0.0104  -0.0266   0.00    0.0
2026/01/15 03:37:30.000   67.857353784   20.968455031   390.9741   6  17   0.0357   0.0354   0.0450  -0.0183   0.0104  -0.0266   0.00    0.0
2026/01/15 03:38:00.000   67.857353784   20.968455031   390.9742   6  17   0.0357   0.0354   0.0450  -0.0183   0.0104  -0.0266   0.00    0.0
2026/01/15 03:38:30.000   67.857353784   20.968455030   390.9742   6  17   0.0357   0.0354   0.0450  -0.0183   0.0104  -0.0266   0.00    0.0
2026/01/15 03:39:00.000   67.857353784   20.968455033   390.9742   6  17   0.0357   0.0354   0.0450  -0.0183   0.0104  -0.0266   0.00    0.0
2026/01/15 03:39:30.000   67.857353784   20.968455031   390.9742   6  17   0.0357   0.0354   0.0450  -0.0183   0.0104  -0.0266   0.00    0.0
2026/01/15 03:40:00.000   67.857353784   20.968455032   390.9742   6  17   0.0357   0.0354   0.0450  -0.0182   0.0104  -0.0266   0.00    0.0
2026/01/15 03:40:30.000   67.857353782   20.968455035   390.9744   6  17   0.0357   0.0354   0.0450  -0.0182   0.0104  -0.0266   0.00    0.0
2026/01/15 03:41:00.000   67.857353783   20.968455034   390.9743   6  17   0.0357   0.0354   0.0450  -0.0182   0.0104  -0.0266   0.00    0.0
2026/01/15 03:41:30.000   67.857353783   20.968455034   390.9743   6  17   0.0357   0.0354   0.0450  -0.0182   0.0104  -0.0266   0.00    0.0
2026/01/15 03:42:00.000   67.857353782   20.968455036   390.9743   6  17   0.0357   0.0353   0.0450  -0.0182   0.0104  -0.0266   0.00    0.0
2026/01/15 03:42:30.000   67.857353782   20.968455036   390.9744   6  17   0.0357   0.0353   0.0450  -0.0182   0.0104  -0.0266   0.00    0.0
2026/01/15 03:43:00.000   67.857353782   20.968455037   390.9744   6  17   0.0356   0.0353   0.0450  -0.0182   0.0104  -0.0265   0.00    0.0
2026/01/15 03:43:30.000   67.857353782   20.968455036   390.9744   6  18   0.0356   0.0353   0.0450  -0.0182   0.0104  -0.0265   0.00    0.0
2026/01/15 03:44:00.000   67.857353783   20.968455035   390.9744   6  17   0.0356   0.0353   0.0449  -0.0182   0.0104  -0.0265   0.00    0.0
2026/01/15 03:44:30.000   67.857353784   20.968455035   390.9742   6  17   0.0356   0.0353   0.0449  -0.0182   0.0104  -0.0265   0.00    0.0
2026/01/15 03:45:00.000   67.857353784   20.968455036   390.9742   6  17   0.0356   0.0353   0.0449  -0.0182   0.0104  -0.0265   0.00    0.0
2026/01/15 03:45:30.000   67.857353784   20.968455034   390.9742   6  17   0.0356   0.0353   0.0449  -0.0182   0.0104  -0.0265   0.00    0.0
2026/01/15 03:46:00.000   67.857353784   20.968455034   390.9741   6  17   0.0356   0.0353   0.0449  -0.0182   0.0103  -0.0265   0.00    0.0
2026/01/15 03:46:30.000   67.857353785   20.968455038   390.9741   6  17   0.0356   0.0353   0.0449  -0.0182   0.0103  -0.0265   0.00    0.0
2026/01/15 03:47:00.000   67.857353785   20.968455038   390.9740   6  17   0.0356   0.0353   0.0449  -0.0182   0.0103  -0.0265   0.00    0.0
2026/01/15 03:47:30.000   67.857353786   20.968455036   390.9739   6  17   0.0356   0.0353   0.0449  -0.0182   0.0103  -0.0265   0.00    0.0
2026/01/15 03:48:00.000   67.857353786   20.968455035   390.9739   6  17   0.0356   0.0353   0.0449  -0.0182   0.0103  -0.0265   0.00    0.0
2026/01/15 03:48:30.000   67.857353786   20.968455034   390.9738   6  17   0.0356   0.0353   0.0449  -0.0182   0.0103  -0.0265   0.00    0.0
2026/01/15 03:49:00.000   67.857353788   20.968455032   390.9736   6  17   0.0356   0.0353   0.0448  -0.0182   0.0103  -0.0265   0.00    0.0
