% program   : RTKPOST-EX 2.5.0
% inp file  : C:\PPP_PROJECT\New_Data\obs\RNXDATA\WUH200CHN_R_20260150000_01D_30S_MO.rnx
% inp file  : C:\PPP_PROJECT\New_Data\nav\BRDC00IGS_R_20260150000_01D_MN.rnx
% inp file  : C:\PPP_PROJECT\New_Data\DATA_FINAL_ANT_EXTRA\COD0MGXFIN_20260150000_01D_05M_ORB.SP3
% inp file  : C:\PPP_PROJECT\New_Data\DATA_FINAL_ANT_EXTRA\COD0MGXFIN_20260150000_01D_30S_CLK.CLK
% obs start : 2026/01/15 00:00:00.0 GPST (week2401 345600.0s)
% obs end   : 2026/01/15 23:59:30.0 GPST (week2401 431970.0s)
% pos mode  : PPP Static
% freqs     : L1+L2/E5b
% solution  : Forward
% elev mask : 15.0 deg
% dynamics  : on
% tidecorr  :
% ionos opt : Iono-Free LC
% tropo opt : Saastamoinen
% ephemeris : Precise
% navi sys  : GPS Galileo BDS
% antenna1  :                       ( 0.0000  0.0000  0.0000)
%
% (lat/lon/height=WGS84/ellipsoidal,Q=1:fix,2:float,3:sbas,4:dgps,5:single,6:ppp,ns=# of satellites)
%  GPST                  latitude(deg) longitude(deg)  height(m)   Q  ns   sdn(m)   sde(m)   sdu(m)  sdne(m)  sdeu(m)  sdun(m) age(s)  ratio
2026/01/15 00:00:00.000   30.531660384  114.357258187    25.4409   6  11   2.6568   3.1517   7.4299   0.3138   1.9953  -2.5121   0.00    0.0
2026/01/15 00:00:30.000   30.531664632  114.357257986    25.5345   6  13   1.8795   2.2345   5.2665   0.2198   1.4175  -1.7776   0.00    0.0
2026/01/15 00:01:00.000   30.531664538  114.357259922    26.3184   6  13   1.5335   1.8260   4.2856   0.1861   1.1560  -1.4472   0.00    0.0
2026/01/15 00:01:30.000   30.531665948  114.357260830    26.6971   6  13   1.3260   1.5816   3.6880   0.1682   0.9965  -1.2474   0.00    0.0
2026/01/15 00:02:00.000   30.531666905  114.357262931    26.9350   6  13   1.1836   1.4142   3.2703   0.1578   0.8845  -1.1093   0.00    0.0
2026/01/15 00:02:30.000   30.531666584  114.357263828    26.9072   6  13   1.0777   1.2902   2.9540   0.1515   0.7989  -1.0059   0.00    0.0
2026/01/15 00:03:00.000   30.531666837  114.357264258    26.6861   6  13   0.9948   1.1934   2.7013   0.1476   0.7299  -0.9244   0.00    0.0
2026/01/15 00:03:30.000   30.531667737  114.357265207    26.6830   6  13   0.9274   1.1150   2.4919   0.1452   0.6720  -0.8579   0.00    0.0
2026/01/15 00:04:00.000   30.531668270  114.357265449    26.7871   6  13   0.8711   1.0498   2.3137   0.1439   0.6221  -0.8020   0.00    0.0
2026/01/15 00:04:30.000   30.531668250  114.357265147    26.8557   6  13   0.8230   0.9943   2.1589   0.1432   0.5781  -0.7542   0.00    0.0
2026/01/15 00:05:00.000   30.531668987  114.357265064    26.8467   6  13   0.7812   0.9462   2.0224   0.1429   0.5388  -0.7125   0.00    0.0
2026/01/15 00:05:30.000   30.531669274  114.357265621    26.8463   6  13   0.7444   0.9041   1.9006   0.1429   0.5032  -0.6757   0.00    0.0
2026/01/15 00:06:00.000   30.531669579  114.357265910    26.8782   6  13   0.7115   0.8667   1.7909   0.1432   0.4706  -0.6429   0.00    0.0
2026/01/15 00:06:30.000   30.531669530  114.357265740    26.8062   6  13   0.6819   0.8332   1.6915   0.1435   0.4406  -0.6135   0.00    0.0
2026/01/15 00:07:00.000   30.531669471  114.357265250    26.8140   6  13   0.6550   0.8029   1.6008   0.1438   0.4128  -0.5868   0.00    0.0
2026/01/15 00:07:30.000   30.531669532  114.357264721    26.9636   6  13   0.6304   0.7753   1.5177   0.1442   0.3869  -0.5625   0.00    0.0
2026/01/15 00:08:00.000   30.531669528  114.357264928    27.0705   6  13   0.6073   0.7491   1.4392   0.1415   0.3586  -0.5418   0.00    0.0
2026/01/15 00:08:30.000   30.531669323  114.357264880    27.1572   6  13   0.5859   0.7250   1.3673   0.1395   0.3327  -0.5224   0.00    0.0
2026/01/15 00:09:00.000   30.531669432  114.357265166    27.1536   6  13   0.5661   0.7028   1.3012   0.1379   0.3087  -0.5043   0.00    0.0
2026/01/15 00:09:30.000   30.531669398  114.357265746    27.2558   6  15   0.5471   0.6804   1.2380   0.1413   0.2762  -0.4834   0.00    0.0
2026/01/15 00:10:00.000   30.531669405  114.357265782    27.3243   6  15   0.5292   0.6598   1.1783   0.1441   0.2481  -0.4654   0.00    0.0
2026/01/15 00:10:30.000   30.531669473  114.357265713    27.3154   6  14   0.5130   0.6423   1.1264   0.1425   0.2300  -0.4510   0.00    0.0
2026/01/15 00:11:00.000   30.531669711  114.357265770    27.3112   6  14   0.4977   0.6258   1.0778   0.1412   0.2128  -0.4373   0.00    0.0
2026/01/15 00:11:30.000   30.531669873  114.357266186    27.3395   6  14   0.4832   0.6102   1.0324   0.1400   0.1965  -0.4242   0.00    0.0
2026/01/15 00:12:00.000   30.531669994  114.357266497    27.3258   6  14   0.4695   0.5955   0.9899   0.1390   0.1810  -0.4117   0.00    0.0
2026/01/15 00:12:30.000   30.531670158  114.357266680    27.3733   6  14   0.4565   0.5816   0.9499   0.1381   0.1662  -0.3998   0.00    0.0
2026/01/15 00:13:00.000   30.531670393  114.357266496    27.4193   6  15   0.4440   0.5679   0.9119   0.1364   0.1498  -0.3888   0.00    0.0
2026/01/15 00:13:30.000   30.531670746  114.357266694    27.4208   6  15   0.4320   0.5549   0.8763   0.1349   0.1342  -0.3782   0.00    0.0
2026/01/15 00:14:00.000   30.531670935  114.357266677    27.4608   6  15   0.4206   0.5426   0.8427   0.1335   0.1190  -0.3681   0.00    0.0
2026/01/15 00:14:30.000   30.531671057  114.357266575    27.4776   6  15   0.4097   0.5308   0.8111   0.1322   0.1042  -0.3583   0.00    0.0
2026/01/15 00:15:00.000   30.531671213  114.357266439    27.4924   6  15   0.3993   0.5196   0.7812   0.1311   0.0894  -0.3488   0.00    0.0
2026/01/15 00:15:30.000   30.531671462  114.357266672    27.5053   6  16   0.3890   0.5081   0.7521   0.1314   0.0671  -0.3389   0.00    0.0
2026/01/15 00:16:00.000   30.531671578  114.357266789    27.5487   6  16   0.3792   0.4971   0.7247   0.1316   0.0403  -0.3296   0.00    0.0
2026/01/15 00:16:30.000   30.531671841  114.357266739    27.5415   6  16   0.3698   0.4867   0.6989   0.1315  -0.0284  -0.3207   0.00    0.0
2026/01/15 00:17:00.000   30.531672058  114.357266717    27.5382   6  15   0.3610   0.4772   0.6752   0.1302  -0.0462  -0.3127   0.00    0.0
2026/01/15 00:17:30.000   30.531672123  114.357266718    27.5503   6  15   0.3525   0.4681   0.6527   0.1289  -0.0572  -0.3050   0.00    0.0
2026/01/15 00:18:00.000   30.531672257  114.357266916    27.5544   6  16   0.3441   0.4588   0.6307   0.1286  -0.0694  -0.2971   0.00    0.0
2026/01/15 00:18:30.000   30.531672446  114.357267131    27.5591   6  16   0.3361   0.4499   0.6100   0.1282  -0.0780  -0.2896   0.00    0.0
2026/01/15 00:19:00.000   30.531672592  114.357267143    27.5657   6  16   0.3284   0.4413   0.5903   0.1277  -0.0844  -0.2824   0.00    0.0
2026/01/15 00:19:30.000   30.531672750  114.357267331    27.5692   6  15   0.3210   0.4334   0.5719   0.1263  -0.0870  -0.2758   0.00    0.0
2026/01/15 00:20:00.000   30.531672916  114.357267626    27.5746   6  16   0.3139   0.4254   0.5541   0.1257  -0.0912  -0.2691   0.00    0.0
2026/01/15 00:20:30.000   30.531673046  114.357267766    27.5944   6  16   0.3069   0.4176   0.5372   0.1250  -0.0944  -0.2627   0.00    0.0
2026/01/15 00:21:00.000   30.531673103  114.357267847    27.6066   6  16   0.3002   0.4101   0.5210   0.1242  -0.0969  -0.2566   0.00    0.0
2026/01/15 00:21:30.000   30.531673180  114.357267880    27.6162   6  16   0.2938   0.4028   0.5057   0.1233  -0.0987  -0.2506   0.00    0.0
2026/01/15 00:22:00.000   30.531673345  114.357267990    27.6041   6  16   0.2875   0.3958   0.4910   0.1224  -0.1002  -0.2449   0.00    0.0
2026/01/15 00:22:30.000   30.531673387  114.357268019    27.5949   6   8   0.2835   0.3896   0.4810   0.1205  -0.0978  -0.2414   0.00    0.0
2026/01/15 00:23:00.000   30.531673421  114.357268049    27.5870   6   8   0.2796   0.3836   0.4713   0.1186  -0.0954  -0.2380   0.00    0.0
2026/01/15 00:23:30.000   30.531673520  114.357268058    27.5894   6  16   0.2735   0.3770   0.4575   0.1179  -0.0968  -0.2324   0.00    0.0
2026/01/15 00:24:00.000   30.531673622  114.357268180    27.5921   6  16   0.2677   0.3706   0.4444   0.1171  -0.0978  -0.2271   0.00    0.0
2026/01/15 00:24:30.000   30.531673626  114.357268102    27.5920   6   9   0.2641   0.3651   0.4358   0.1153  -0.0955  -0.2240   0.00    0.0
2026/01/15 00:25:00.000   30.531673703  114.357268130    27.5998   6  16   0.2585   0.3590   0.4234   0.1145  -0.0963  -0.2189   0.00    0.0
2026/01/15 00:25:30.000   30.531673778  114.357268070    27.5890   6  13   0.2539   0.3534   0.4125   0.1140  -0.0959  -0.2134   0.00    0.0
2026/01/15 00:26:00.000   30.531673775  114.357267989    27.5838   6   9   0.2506   0.3482   0.4048   0.1125  -0.0941  -0.2106   0.00    0.0
2026/01/15 00:26:30.000   30.531673855  114.357267966    27.5701   6   9   0.2474   0.3431   0.3993   0.1111  -0.0911  -0.2078   0.00    0.0
2026/01/15 00:27:00.000   30.531673940  114.357267914    27.5669   6   9   0.2442   0.3382   0.3938   0.1097  -0.0881  -0.2050   0.00    0.0
2026/01/15 00:27:30.000   30.531674092  114.357267894    27.5571   6   9   0.2411   0.3334   0.3884   0.1083  -0.0852  -0.2023   0.00    0.0
2026/01/15 00:28:00.000   30.531674195  114.357267892    27.5579   6  14   0.2366   0.3281   0.3796   0.1080  -0.0837  -0.1965   0.00    0.0
2026/01/15 00:28:30.000   30.531674286  114.357267932    27.5639   6   8   0.2336   0.3235   0.3744   0.1066  -0.0808  -0.1940   0.00    0.0
2026/01/15 00:29:00.000   30.531674312  114.357267886    27.5701   6   8   0.2307   0.3190   0.3693   0.1053  -0.0780  -0.1916   0.00    0.0
2026/01/15 00:29:30.000   30.531674351  114.357267878    27.5790   6   8   0.2279   0.3146   0.3643   0.1040  -0.0753  -0.1891   0.00    0.0
2026/01/15 00:30:00.000   30.531674393  114.357267857    27.5886   6   8   0.2250   0.3103   0.3593   0.1027  -0.0725  -0.1867   0.00    0.0
2026/01/15 00:30:30.000   30.531674481  114.357267791    27.5930   6   8   0.2223   0.3060   0.3543   0.1014  -0.0698  -0.1844   0.00    0.0
2026/01/15 00:31:00.000   30.531674510  114.357267806    27.6012   6   8   0.2195   0.3018   0.3495   0.1001  -0.0672  -0.1821   0.00    0.0
2026/01/15 00:31:30.000   30.531674533  114.357267791    27.6069   6   8   0.2168   0.2978   0.3447   0.0988  -0.0646  -0.1798   0.00    0.0
2026/01/15 00:32:00.000   30.531674585  114.357267870    27.6075   6   8   0.2141   0.2937   0.3399   0.0975  -0.0620  -0.1776   0.00    0.0
2026/01/15 00:32:30.000   30.531674612  114.357267893    27.6105   6   8   0.2115   0.2898   0.3352   0.0963  -0.0594  -0.1754   0.00    0.0
2026/01/15 00:33:30.000   30.531674688  114.357267910    27.6032   6   8   0.2079   0.2843   0.3297   0.0944  -0.0562  -0.1723   0.00    0.0
2026/01/15 00:34:30.000   30.531674705  114.357267807    27.5914   6   7   0.2056   0.2789   0.3240   0.0931  -0.0527  -0.1692   0.00    0.0
2026/01/15 01:00:30.000   30.531674951  114.357268188    27.4049   6  13   0.1727   0.2271   0.2964   0.0744  -0.0462  -0.1416   0.00    0.0
2026/01/15 01:01:00.000   30.531674937  114.357268187    27.4028   6  13   0.1722   0.2264   0.2960   0.0741  -0.0460  -0.1412   0.00    0.0
2026/01/15 01:01:30.000   30.531674954  114.357268215    27.3943   6   5   0.1717   0.2256   0.2956   0.0738  -0.0458  -0.1408   0.00    0.0
2026/01/15 01:02:00.000   30.531674979  114.357268231    27.3863   6  14   0.1712   0.2249   0.2952   0.0735  -0.0455  -0.1405   0.00    0.0
2026/01/15 01:02:30.000   30.531674940  114.357268273    27.3841   6  14   0.1706   0.2242   0.2948   0.0732  -0.0452  -0.1401   0.00    0.0
2026/01/15 01:03:00.000   30.531674927  114.357268285    27.3830   6  14   0.1701   0.2235   0.2944   0.0729  -0.0450  -0.1397   0.00    0.0
2026/01/15 01:03:30.000   30.531674915  114.357268310    27.3785   6  14   0.1696   0.2227   0.2940   0.0725  -0.0447  -0.1393   0.00    0.0
2026/01/15 01:04:00.000   30.531674892  114.357268297    27.3760   6  14   0.1691   0.2220   0.2936   0.0722  -0.0444  -0.1389   0.00    0.0
2026/01/15 01:04:30.000   30.531674908  114.357268272    27.3740   6  14   0.1686   0.2213   0.2932   0.0719  -0.0441  -0.1385   0.00    0.0
2026/01/15 01:05:00.000   30.531674901  114.357268269    27.3704   6   4   0.1681   0.2206   0.2928   0.0716  -0.0438  -0.1381   0.00    0.0
2026/01/15 01:05:30.000   30.531674924  114.357268277    27.3660   6  14   0.1676   0.2199   0.2923   0.0712  -0.0435  -0.1377   0.00    0.0
2026/01/15 01:06:00.000   30.531674927  114.357268271    27.3624   6  14   0.1670   0.2191   0.2918   0.0709  -0.0431  -0.1373   0.00    0.0
2026/01/15 01:06:30.000   30.531674948  114.357268279    27.3591   6  14   0.1665   0.2184   0.2913   0.0706  -0.0427  -0.1368   0.00    0.0
2026/01/15 01:07:00.000   30.531674946  114.357268265    27.3580   6  14   0.1659   0.2176   0.2908   0.0702  -0.0423  -0.1364   0.00    0.0
2026/01/15 01:08:00.000   30.531674934  114.357268214    27.3449   6   4   0.1649   0.2163   0.2901   0.0695  -0.0415  -0.1357   0.00    0.0
2026/01/15 01:09:00.000   30.531674900  114.357268182    27.3346   6   7   0.1639   0.2148   0.2892   0.0688  -0.0408  -0.1350   0.00    0.0
2026/01/15 01:09:30.000   30.531674923  114.357268211    27.3319   6  14   0.1632   0.2140   0.2884   0.0684  -0.0403  -0.1344   0.00    0.0
2026/01/15 01:17:30.000   30.531675060  114.357268275    27.2675   6  14   0.1554   0.2036   0.2808   0.0634  -0.0343  -0.1284   0.00    0.0
2026/01/15 01:18:00.000   30.531675123  114.357268354    27.2753   6  14   0.1539   0.2021   0.2781   0.0626  -0.0335  -0.1270   0.00    0.0
2026/01/15 01:28:30.000   30.531675255  114.357268462    27.1761   6   5   0.1468   0.1917   0.2726   0.0574  -0.0244  -0.1224   0.00    0.0
2026/01/15 01:39:00.000   30.531675186  114.357268342    27.1001   6   4   0.1408   0.1826   0.2677   0.0525  -0.0097  -0.1189   0.00    0.0
2026/01/15 02:05:00.000   30.531675561  114.357267540    26.9380   6   5   0.1284   0.1628   0.2548   0.0465   0.0114  -0.1119   0.00    0.0
2026/01/15 02:17:00.000   30.531675592  114.357267303    26.9042   6   5   0.1240   0.1554   0.2501   0.0445   0.0098  -0.1096   0.00    0.0
2026/01/15 02:24:00.000   30.531675452  114.357267180    26.8990   6   7   0.1218   0.1516   0.2479   0.0436   0.0062  -0.1087   0.00    0.0
2026/01/15 02:25:00.000   30.531675434  114.357267141    26.9003   6   5   0.1215   0.1511   0.2475   0.0435   0.0059  -0.1085   0.00    0.0
2026/01/15 02:26:00.000   30.531675393  114.357267099    26.8986   6   7   0.1211   0.1505   0.2472   0.0434   0.0056  -0.1083   0.00    0.0
2026/01/15 02:26:30.000   30.531675388  114.357267077    26.8997   6   9   0.1210   0.1503   0.2470   0.0433   0.0056  -0.1082   0.00    0.0
2026/01/15 02:27:00.000   30.531675356  114.357267038    26.9016   6  14   0.1208   0.1500   0.2468   0.0432   0.0057  -0.1082   0.00    0.0
2026/01/15 02:27:30.000   30.531675351  114.357267036    26.9012   6  14   0.1207   0.1498   0.2466   0.0431   0.0057  -0.1081   0.00    0.0
2026/01/15 02:28:00.000   30.531675345  114.357267024    26.9020   6  14   0.1205   0.1495   0.2465   0.0431   0.0059  -0.1080   0.00    0.0
2026/01/15 02:28:30.000   30.531675351  114.357267005    26.9031   6  14   0.1203   0.1493   0.2463   0.0430   0.0061  -0.1079   0.00    0.0
2026/01/15 02:29:00.000   30.531675344  114.357266995    26.9058   6  14   0.1202   0.1490   0.2461   0.0429   0.0063  -0.1078   0.00    0.0
2026/01/15 02:29:30.000   30.531675333  114.357266978    26.9069   6  14   0.1200   0.1487   0.2459   0.0428   0.0066  -0.1076   0.00    0.0
2026/01/15 02:30:00.000   30.531675313  114.357266966    26.9071   6  14   0.1198   0.1485   0.2457   0.0427   0.0069  -0.1075   0.00    0.0
2026/01/15 02:30:30.000   30.531675307  114.357266936    26.9087   6  14   0.1196   0.1482   0.2454   0.0427   0.0073  -0.1074   0.00    0.0
2026/01/15 02:31:00.000   30.531675293  114.357266919    26.9103   6  14   0.1195   0.1480   0.2452   0.0426   0.0077  -0.1072   0.00    0.0
2026/01/15 02:31:30.000   30.531675279  114.357266910    26.9127   6  14   0.1193   0.1477   0.2449   0.0424   0.0081  -0.1071   0.00    0.0
2026/01/15 02:32:00.000   30.531675248  114.357266893    26.9136   6   8   0.1191   0.1475   0.2447   0.0424   0.0083  -0.1070   0.00    0.0
2026/01/15 02:32:30.000   30.531675233  114.357266881    26.9153   6   8   0.1189   0.1472   0.2444   0.0423   0.0084  -0.1068   0.00    0.0
2026/01/15 02:33:00.000   30.531675214  114.357266861    26.9188   6  15   0.1187   0.1470   0.2441   0.0421   0.0090  -0.1067   0.00    0.0
2026/01/15 02:34:00.000   30.531675187  114.357266832    26.9229   6  14   0.1183   0.1465   0.2435   0.0419   0.0098  -0.1064   0.00    0.0
2026/01/15 02:35:00.000   30.531675175  114.357266792    26.9276   6  14   0.1179   0.1460   0.2428   0.0416   0.0108  -0.1061   0.00    0.0
2026/01/15 02:35:30.000   30.531675167  114.357266772    26.9302   6   8   0.1177   0.1457   0.2425   0.0415   0.0111  -0.1059   0.00    0.0
2026/01/15 02:36:00.000   30.531675152  114.357266743    26.9358   6  15   0.1174   0.1455   0.2419   0.0413   0.0120  -0.1056   0.00    0.0
2026/01/15 02:36:30.000   30.531675156  114.357266722    26.9412   6  15   0.1171   0.1452   0.2413   0.0411   0.0128  -0.1052   0.00    0.0
2026/01/15 02:37:30.000   30.531675120  114.357266645    26.9502   6  14   0.1166   0.1447   0.2404   0.0407   0.0139  -0.1048   0.00    0.0
2026/01/15 02:38:00.000   30.531675101  114.357266600    26.9566   6  15   0.1163   0.1444   0.2397   0.0405   0.0147  -0.1044   0.00    0.0
2026/01/15 02:38:30.000   30.531675094  114.357266563    26.9612   6  15   0.1159   0.1441   0.2390   0.0402   0.0156  -0.1040   0.00    0.0
2026/01/15 02:39:00.000   30.531675078  114.357266541    26.9681   6  15   0.1156   0.1438   0.2382   0.0399   0.0164  -0.1036   0.00    0.0
2026/01/15 02:39:30.000   30.531675077  114.357266540    26.9742   6  15   0.1152   0.1436   0.2374   0.0396   0.0172  -0.1032   0.00    0.0
2026/01/15 02:40:00.000   30.531675063  114.357266504    26.9817   6  15   0.1149   0.1433   0.2366   0.0393   0.0180  -0.1028   0.00    0.0
2026/01/15 02:40:30.000   30.531675054  114.357266471    26.9886   6  15   0.1145   0.1430   0.2357   0.0390   0.0188  -0.1024   0.00    0.0
2026/01/15 02:41:00.000   30.531675050  114.357266463    26.9957   6  15   0.1141   0.1427   0.2349   0.0387   0.0196  -0.1019   0.00    0.0
2026/01/15 02:41:30.000   30.531675049  114.357266468    27.0012   6  15   0.1137   0.1424   0.2340   0.0383   0.0203  -0.1014   0.00    0.0
2026/01/15 02:42:00.000   30.531675039  114.357266448    27.0088   6  15   0.1133   0.1421   0.2331   0.0380   0.0210  -0.1009   0.00    0.0
2026/01/15 02:42:30.000   30.531675024  114.357266440    27.0166   6  14   0.1129   0.1419   0.2321   0.0376   0.0218  -0.1004   0.00    0.0
2026/01/15 02:43:00.000   30.531675006  114.357266414    27.0252   6  14   0.1125   0.1416   0.2311   0.0373   0.0225  -0.0999   0.00    0.0
2026/01/15 02:43:30.000   30.531675004  114.357266408    27.0321   6  14   0.1120   0.1413   0.2301   0.0369   0.0232  -0.0994   0.00    0.0
2026/01/15 02:44:00.000   30.531674987  114.357266387    27.0396   6  14   0.1116   0.1410   0.2291   0.0365   0.0239  -0.0989   0.00    0.0
2026/01/15 02:44:30.000   30.531674983  114.357266363    27.0485   6  15   0.1112   0.1407   0.2281   0.0361   0.0246  -0.0983   0.00    0.0
2026/01/15 02:45:00.000   30.531674979  114.357266344    27.0579   6  15   0.1107   0.1404   0.2270   0.0357   0.0253  -0.0977   0.00    0.0
2026/01/15 02:45:30.000   30.531674968  114.357266316    27.0671   6  15   0.1102   0.1401   0.2259   0.0353   0.0260  -0.0972   0.00    0.0
2026/01/15 02:46:00.000   30.531674959  114.357266297    27.0723   6  15   0.1098   0.1398   0.2247   0.0348   0.0267  -0.0966   0.00    0.0
2026/01/15 02:46:30.000   30.531674947  114.357266279    27.0794   6  15   0.1093   0.1395   0.2235   0.0344   0.0274  -0.0960   0.00    0.0
2026/01/15 02:47:00.000   30.531674955  114.357266281    27.0877   6  15   0.1088   0.1392   0.2224   0.0339   0.0280  -0.0953   0.00    0.0
2026/01/15 02:47:30.000   30.531674955  114.357266266    27.0962   6  15   0.1083   0.1389   0.2211   0.0334   0.0287  -0.0947   0.00    0.0
2026/01/15 02:48:00.000   30.531674946  114.357266243    27.1059   6  15   0.1078   0.1386   0.2199   0.0329   0.0293  -0.0941   0.00    0.0
2026/01/15 02:48:30.000   30.531674951  114.357266227    27.1158   6  15   0.1073   0.1383   0.2186   0.0324   0.0300  -0.0934   0.00    0.0
2026/01/15 02:49:00.000   30.531674953  114.357266215    27.1241   6  15   0.1067   0.1380   0.2173   0.0319   0.0306  -0.0927   0.00    0.0
2026/01/15 02:49:30.000   30.531674949  114.357266196    27.1345   6  15   0.1062   0.1377   0.2160   0.0313   0.0312  -0.0921   0.00    0.0
2026/01/15 02:50:00.000   30.531674941  114.357266172    27.1442   6  15   0.1056   0.1374   0.2146   0.0308   0.0319  -0.0914   0.00    0.0
2026/01/15 02:50:30.000   30.531674947  114.357266170    27.1547   6  15   0.1051   0.1371   0.2133   0.0302   0.0325  -0.0907   0.00    0.0
2026/01/15 02:51:00.000   30.531674953  114.357266150    27.1633   6  15   0.1045   0.1368   0.2119   0.0296   0.0331  -0.0900   0.00    0.0
2026/01/15 02:51:30.000   30.531674956  114.357266123    27.1723   6  15   0.1040   0.1365   0.2105   0.0290   0.0337  -0.0892   0.00    0.0
2026/01/15 02:52:00.000   30.531674961  114.357266088    27.1815   6  15   0.1034   0.1362   0.2090   0.0284   0.0343  -0.0885   0.00    0.0
2026/01/15 02:52:30.000   30.531674978  114.357266082    27.1899   6  15   0.1028   0.1358   0.2076   0.0277   0.0349  -0.0878   0.00    0.0
2026/01/15 02:53:00.000   30.531675001  114.357266061    27.1973   6  15   0.1022   0.1355   0.2061   0.0271   0.0355  -0.0870   0.00    0.0
2026/01/15 02:53:30.000   30.531675010  114.357266056    27.2056   6  16   0.1016   0.1352   0.2046   0.0264   0.0360  -0.0863   0.00    0.0
2026/01/15 02:54:00.000   30.531675015  114.357266028    27.2142   6  16   0.1010   0.1349   0.2031   0.0257   0.0365  -0.0855   0.00    0.0
2026/01/15 02:54:30.000   30.531675018  114.357266013    27.2232   6  16   0.1004   0.1345   0.2015   0.0251   0.0370  -0.0848   0.00    0.0
2026/01/15 02:55:00.000   30.531675022  114.357266012    27.2336   6  16   0.0998   0.1342   0.2000   0.0243   0.0375  -0.0840   0.00    0.0
2026/01/15 02:55:30.000   30.531675028  114.357266012    27.2437   6  15   0.0992   0.1339   0.1985   0.0237   0.0382  -0.0832   0.00    0.0
2026/01/15 02:56:00.000   30.531675035  114.357265998    27.2542   6  15   0.0986   0.1336   0.1970   0.0230   0.0388  -0.0823   0.00    0.0
2026/01/15 02:56:30.000   30.531675045  114.357265981    27.2631   6  15   0.0980   0.1333   0.1955   0.0222   0.0394  -0.0815   0.00    0.0
2026/01/15 02:57:00.000   30.531675051  114.357265948    27.2713   6  15   0.0974   0.1329   0.1940   0.0215   0.0401  -0.0807   0.00    0.0
2026/01/15 02:57:30.000   30.531675054  114.357265939    27.2828   6  15   0.0967   0.1326   0.1925   0.0207   0.0406  -0.0799   0.00    0.0
2026/01/15 02:58:00.000   30.531675066  114.357265920    27.2919   6  15   0.0961   0.1323   0.1910   0.0199   0.0412  -0.0790   0.00    0.0
2026/01/15 02:58:30.000   30.531675073  114.357265909    27.3028   6  15   0.0955   0.1320   0.1895   0.0190   0.0418  -0.0782   0.00    0.0
2026/01/15 02:59:00.000   30.531675074  114.357265925    27.3120   6  15   0.0948   0.1316   0.1879   0.0181   0.0423  -0.0774   0.00    0.0
2026/01/15 02:59:30.000   30.531675088  114.357265918    27.3223   6  15   0.0942   0.1313   0.1864   0.0172   0.0429  -0.0766   0.00    0.0
2026/01/15 03:00:00.000   30.531675099  114.357265908    27.3324   6  15   0.0936   0.1310   0.1849   0.0162   0.0434  -0.0758   0.00    0.0
2026/01/15 03:00:30.000   30.531675113  114.357265909    27.3422   6  15   0.0929   0.1307   0.1833   0.0152   0.0439  -0.0750   0.00    0.0
2026/01/15 03:01:00.000   30.531675129  114.357265902    27.3514   6  15   0.0923   0.1303   0.1818   0.0141   0.0444  -0.0742   0.00    0.0
2026/01/15 03:01:30.000   30.531675140  114.357265876    27.3608   6  15   0.0916   0.1300   0.1802   0.0128   0.0448  -0.0733   0.00    0.0
2026/01/15 03:02:00.000   30.531675156  114.357265858    27.3705   6  15   0.0910   0.1296   0.1787   0.0115   0.0453  -0.0725   0.00    0.0
2026/01/15 03:02:30.000   30.531675170  114.357265836    27.3802   6  15   0.0904   0.1293   0.1771   0.0100   0.0457  -0.0718   0.00    0.0
2026/01/15 03:03:00.000   30.531675195  114.357265828    27.3891   6  15   0.0897   0.1289   0.1756   0.0083   0.0461  -0.0710   0.00    0.0
2026/01/15 03:03:30.000   30.531675222  114.357265822    27.3960   6  15   0.0891   0.1286   0.1741   0.0060   0.0466  -0.0702   0.00    0.0
2026/01/15 03:04:00.000   30.531675248  114.357265821    27.4031   6  15   0.0884   0.1283   0.1725   0.0022   0.0469  -0.0694   0.00    0.0
2026/01/15 03:04:30.000   30.531675271  114.357265805    27.4115   6  15   0.0878   0.1279   0.1710  -0.0051   0.0473  -0.0687   0.00    0.0
2026/01/15 03:05:00.000   30.531675296  114.357265790    27.4204   6  15   0.0871   0.1275   0.1695  -0.0076   0.0477  -0.0679   0.00    0.0
2026/01/15 03:05:30.000   30.531675321  114.357265781    27.4277   6  15   0.0865   0.1272   0.1679  -0.0094   0.0481  -0.0671   0.00    0.0
2026/01/15 03:06:00.000   30.531675343  114.357265792    27.4347   6  15   0.0859   0.1268   0.1664  -0.0109   0.0484  -0.0664   0.00    0.0
2026/01/15 03:06:30.000   30.531675364  114.357265794    27.4416   6  15   0.0852   0.1265   0.1649  -0.0122   0.0487  -0.0657   0.00    0.0
2026/01/15 03:07:00.000   30.531675378  114.357265794    27.4506   6  15   0.0846   0.1261   0.1634  -0.0134   0.0490  -0.0650   0.00    0.0
2026/01/15 03:07:30.000   30.531675394  114.357265809    27.4592   6  15   0.0839   0.1257   0.1619  -0.0144   0.0493  -0.0642   0.00    0.0
2026/01/15 03:08:00.000   30.531675408  114.357265804    27.4681   6  15   0.0833   0.1254   0.1604  -0.0154   0.0496  -0.0635   0.00    0.0
2026/01/15 03:08:30.000   30.531675430  114.357265810    27.4767   6  15   0.0827   0.1250   0.1589  -0.0163   0.0499  -0.0629   0.00    0.0
2026/01/15 03:09:00.000   30.531675455  114.357265794    27.4823   6  15   0.0821   0.1247   0.1577  -0.0172   0.0505  -0.0622   0.00    0.0
2026/01/15 03:09:30.000   30.531675471  114.357265777    27.4890   6  14   0.0814   0.1244   0.1565  -0.0180   0.0510  -0.0615   0.00    0.0
2026/01/15 03:45:00.000   30.531675144  114.357264446    27.5191   6   8   0.0785   0.1155   0.1543  -0.0184   0.0506  -0.0590   0.00    0.0
2026/01/15 03:46:00.000   30.531675119  114.357264386    27.5215   6   5   0.0784   0.1152   0.1542  -0.0185   0.0506  -0.0590   0.00    0.0
2026/01/15 03:47:30.000   30.531675099  114.357264338    27.5235   6  11   0.0782   0.1149   0.1541  -0.0187   0.0507  -0.0589   0.00    0.0
2026/01/15 03:49:00.000   30.531675076  114.357264256    27.5278   6  11   0.0781   0.1145   0.1540  -0.0189   0.0507  -0.0587   0.00    0.0
2026/01/15 03:50:00.000   30.531675057  114.357264215    27.5293   6  11   0.0780   0.1143   0.1540  -0.0190   0.0508  -0.0587   0.00    0.0
2026/01/15 03:51:00.000   30.531675035  114.357264168    27.5302   6  11   0.0779   0.1141   0.1539  -0.0192   0.0508  -0.0586   0.00    0.0
2026/01/15 03:52:00.000   30.531675024  114.357264107    27.5306   6  12   0.0779   0.1139   0.1538  -0.0193   0.0509  -0.0585   0.00    0.0
2026/01/15 03:52:30.000   30.531675011  114.357264084    27.5313   6  12   0.0778   0.1137   0.1538  -0.0194   0.0509  -0.0585   0.00    0.0
2026/01/15 03:53:00.000   30.531675005  114.357264053    27.5316   6  12   0.0778   0.1136   0.1537  -0.0195   0.0509  -0.0584   0.00    0.0
2026/01/15 03:53:30.000   30.531675003  114.357264042    27.5312   6  12   0.0777   0.1135   0.1537  -0.0195   0.0509  -0.0584   0.00    0.0
2026/01/15 03:54:00.000   30.531674999  114.357264017    27.5314   6  13   0.0777   0.1134   0.1536  -0.0196   0.0510  -0.0583   0.00    0.0
2026/01/15 03:54:30.000   30.531674994  114.357263998    27.5306   6  13   0.0776   0.1133   0.1536  -0.0197   0.0510  -0.0583   0.00    0.0
2026/01/15 03:55:00.000   30.531674988  114.357263975    27.5301   6  13   0.0775   0.1132   0.1535  -0.0198   0.0510  -0.0582   0.00    0.0
2026/01/15 03:55:30.000   30.531674985  114.357263952    27.5301   6  13   0.0775   0.1130   0.1535  -0.0199   0.0511  -0.0582   0.00    0.0
2026/01/15 03:56:00.000   30.531674976  114.357263920    27.5313   6  13   0.0774   0.1129   0.1534  -0.0200   0.0511  -0.0581   0.00    0.0
2026/01/15 03:56:30.000   30.531674966  114.357263880    27.5320   6  13   0.0774   0.1128   0.1534  -0.0201   0.0511  -0.0581   0.00    0.0
2026/01/15 03:57:00.000   30.531674957  114.357263845    27.5329   6  13   0.0773   0.1127   0.1533  -0.0202   0.0512  -0.0581   0.00    0.0
2026/01/15 03:57:30.000   30.531674949  114.357263812    27.5330   6  13   0.0773   0.1126   0.1532  -0.0203   0.0512  -0.0580   0.00    0.0
2026/01/15 03:58:00.000   30.531674941  114.357263794    27.5335   6  13   0.0772   0.1125   0.1532  -0.0204   0.0512  -0.0580   0.00    0.0
2026/01/15 03:58:30.000   30.531674929  114.357263754    27.5347   6  13   0.0771   0.1123   0.1531  -0.0205   0.0513  -0.0579   0.00    0.0
2026/01/15 03:59:00.000   30.531674919  114.357263730    27.5362   6  13   0.0771   0.1122   0.1530  -0.0206   0.0513  -0.0579   0.00    0.0
2026/01/15 03:59:30.000   30.531674908  114.357263703    27.5375   6  13   0.0770   0.1121   0.1530  -0.0207   0.0513  -0.0578   0.00    0.0
2026/01/15 04:00:00.000   30.531674905  114.357263676    27.5393   6  13   0.0769   0.1120   0.1529  -0.0208   0.0514  -0.0578   0.00    0.0
2026/01/15 04:00:30.000   30.531674903  114.357263651    27.5398   6  14   0.0769   0.1118   0.1528  -0.0209   0.0514  -0.0577   0.00    0.0
2026/01/15 04:01:00.000   30.531674899  114.357263630    27.5406   6  14   0.0768   0.1117   0.1527  -0.0210   0.0515  -0.0577   0.00    0.0
2026/01/15 04:01:30.000   30.531674896  114.357263613    27.5413   6  14   0.0767   0.1116   0.1526  -0.0212   0.0516  -0.0576   0.00    0.0
2026/01/15 04:02:00.000   30.531674893  114.357263583    27.5420   6  14   0.0766   0.1115   0.1525  -0.0213   0.0516  -0.0575   0.00    0.0
2026/01/15 04:02:30.000   30.531674890  114.357263558    27.5433   6  14   0.0765   0.1113   0.1524  -0.0214   0.0517  -0.0575   0.00    0.0
2026/01/15 04:03:00.000   30.531674888  114.357263533    27.5439   6  14   0.0764   0.1112   0.1523  -0.0216   0.0517  -0.0574   0.00    0.0
2026/01/15 04:03:30.000   30.531674892  114.357263509    27.5442   6  14   0.0763   0.1111   0.1522  -0.0217   0.0518  -0.0574   0.00    0.0
2026/01/15 04:04:00.000   30.531674900  114.357263496    27.5446   6  14   0.0763   0.1109   0.1521  -0.0218   0.0518  -0.0573   0.00    0.0
2026/01/15 04:04:30.000   30.531674911  114.357263491    27.5438   6  14   0.0762   0.1108   0.1520  -0.0220   0.0519  -0.0573   0.00    0.0
2026/01/15 04:05:00.000   30.531674914  114.357263483    27.5433   6  14   0.0761   0.1107   0.1519  -0.0221   0.0520  -0.0572   0.00    0.0
2026/01/15 04:05:30.000   30.531674919  114.357263471    27.5436   6  14   0.0760   0.1105   0.1517  -0.0223   0.0520  -0.0572   0.00    0.0
2026/01/15 04:06:00.000   30.531674918  114.357263452    27.5443   6  14   0.0758   0.1104   0.1516  -0.0224   0.0521  -0.0571   0.00    0.0
2026/01/15 04:06:30.000   30.531674917  114.357263418    27.5452   6  14   0.0757   0.1102   0.1515  -0.0226   0.0522  -0.0570   0.00    0.0
2026/01/15 04:07:00.000   30.531674917  114.357263400    27.5457   6  14   0.0756   0.1101   0.1513  -0.0228   0.0522  -0.0570   0.00    0.0
2026/01/15 04:07:30.000   30.531674919  114.357263376    27.5466   6  14   0.0755   0.1100   0.1512  -0.0229   0.0523  -0.0569   0.00    0.0
2026/01/15 04:08:00.000   30.531674923  114.357263353    27.5473   6  14   0.0754   0.1098   0.1510  -0.0231   0.0524  -0.0569   0.00    0.0
2026/01/15 04:08:30.000   30.531674925  114.357263328    27.5485   6  14   0.0753   0.1097   0.1509  -0.0233   0.0524  -0.0568   0.00    0.0
2026/01/15 04:09:00.000   30.531674935  114.357263305    27.5496   6  14   0.0751   0.1095   0.1507  -0.0234   0.0525  -0.0567   0.00    0.0
2026/01/15 04:09:30.000   30.531674933  114.357263278    27.5514   6  14   0.0750   0.1094   0.1505  -0.0236   0.0526  -0.0567   0.00    0.0
2026/01/15 04:10:00.000   30.531674936  114.357263267    27.5520   6  14   0.0749   0.1092   0.1503  -0.0238   0.0526  -0.0566   0.00    0.0
2026/01/15 04:10:30.000   30.531674939  114.357263237    27.5526   6  14   0.0747   0.1091   0.1502  -0.0240   0.0527  -0.0565   0.00    0.0
2026/01/15 04:11:00.000   30.531674946  114.357263228    27.5537   6  14   0.0746   0.1089   0.1500  -0.0242   0.0528  -0.0565   0.00    0.0
2026/01/15 04:11:30.000   30.531674951  114.357263181    27.5551   6  14   0.0744   0.1088   0.1498  -0.0244   0.0528  -0.0564   0.00    0.0
2026/01/15 04:12:00.000   30.531674959  114.357263162    27.5559   6  14   0.0743   0.1086   0.1496  -0.0245   0.0529  -0.0563   0.00    0.0
2026/01/15 04:12:30.000   30.531674962  114.357263138    27.5578   6  14   0.0741   0.1084   0.1494  -0.0247   0.0530  -0.0563   0.00    0.0
2026/01/15 04:13:00.000   30.531674972  114.357263116    27.5585   6  14   0.0740   0.1083   0.1492  -0.0249   0.0530  -0.0562   0.00    0.0
2026/01/15 04:13:30.000   30.531674978  114.357263102    27.5602   6  14   0.0738   0.1081   0.1490  -0.0251   0.0531  -0.0561   0.00    0.0
2026/01/15 04:14:00.000   30.531674988  114.357263098    27.5621   6  13   0.0736   0.1080   0.1487  -0.0253   0.0532  -0.0561   0.00    0.0
2026/01/15 04:14:30.000   30.531674996  114.357263076    27.5640   6  14   0.0735   0.1078   0.1485  -0.0255   0.0532  -0.0560   0.00    0.0
2026/01/15 04:15:00.000   30.531675004  114.357263056    27.5657   6  14   0.0733   0.1076   0.1483  -0.0257   0.0533  -0.0559   0.00    0.0
2026/01/15 04:15:30.000   30.531675016  114.357263037    27.5672   6  14   0.0731   0.1075   0.1481  -0.0259   0.0533  -0.0559   0.00    0.0
2026/01/15 04:16:00.000   30.531675026  114.357263027    27.5681   6  14   0.0729   0.1073   0.1478  -0.0261   0.0534  -0.0558   0.00    0.0
2026/01/15 04:16:30.000   30.531675044  114.357263020    27.5692   6  14   0.0728   0.1071   0.1476  -0.0263   0.0535  -0.0557   0.00    0.0
2026/01/15 04:17:00.000   30.531675058  114.357263011    27.5710   6  14   0.0726   0.1069   0.1473  -0.0265   0.0535  -0.0557   0.00    0.0
2026/01/15 04:17:30.000   30.531675077  114.357263016    27.5717   6  14   0.0724   0.1068   0.1470  -0.0267   0.0536  -0.0556   0.00    0.0
2026/01/15 04:18:00.000   30.531675088  114.357263013    27.5727   6  14   0.0722   0.1066   0.1468  -0.0269   0.0536  -0.0555   0.00    0.0
2026/01/15 04:18:30.000   30.531675104  114.357263014    27.5741   6  14   0.0720   0.1064   0.1465  -0.0271   0.0537  -0.0555   0.00    0.0
2026/01/15 04:19:00.000   30.531675120  114.357263014    27.5755   6  14   0.0718   0.1062   0.1462  -0.0274   0.0537  -0.0554   0.00    0.0
2026/01/15 04:19:30.000   30.531675135  114.357263002    27.5777   6  14   0.0716   0.1060   0.1460  -0.0276   0.0538  -0.0553   0.00    0.0
2026/01/15 04:20:00.000   30.531675154  114.357262997    27.5777   6  14   0.0714   0.1058   0.1457  -0.0278   0.0538  -0.0552   0.00    0.0
2026/01/15 04:20:30.000   30.531675175  114.357263006    27.5790   6  14   0.0712   0.1057   0.1454  -0.0280   0.0538  -0.0552   0.00    0.0
2026/01/15 04:21:00.000   30.531675195  114.357263002    27.5811   6  14   0.0709   0.1055   0.1451  -0.0282   0.0539  -0.0551   0.00    0.0
2026/01/15 04:21:30.000   30.531675219  114.357262993    27.5821   6  14   0.0707   0.1053   0.1448  -0.0284   0.0539  -0.0550   0.00    0.0
2026/01/15 04:22:00.000   30.531675238  114.357262987    27.5835   6  14   0.0705   0.1051   0.1445  -0.0286   0.0540  -0.0550   0.00    0.0
2026/01/15 04:22:30.000   30.531675253  114.357262978    27.5854   6  14   0.0703   0.1049   0.1441  -0.0288   0.0540  -0.0549   0.00    0.0
2026/01/15 04:23:00.000   30.531675271  114.357262978    27.5875   6  14   0.0701   0.1047   0.1438  -0.0290   0.0540  -0.0548   0.00    0.0
2026/01/15 04:23:30.000   30.531675292  114.357262981    27.5891   6  14   0.0698   0.1045   0.1435  -0.0292   0.0540  -0.0547   0.00    0.0
2026/01/15 04:24:00.000   30.531675315  114.357262985    27.5908   6  14   0.0696   0.1043   0.1432  -0.0294   0.0541  -0.0547   0.00    0.0
2026/01/15 04:24:30.000   30.531675336  114.357262990    27.5920   6  14   0.0694   0.1041   0.1428  -0.0296   0.0541  -0.0546   0.00    0.0
2026/01/15 04:25:00.000   30.531675357  114.357262992    27.5937   6  14   0.0691   0.1039   0.1425  -0.0297   0.0541  -0.0545   0.00    0.0
2026/01/15 04:25:30.000   30.531675383  114.357262999    27.5947   6  14   0.0689   0.1037   0.1421  -0.0299   0.0541  -0.0544   0.00    0.0
2026/01/15 04:26:00.000   30.531675406  114.357263009    27.5964   6  14   0.0686   0.1035   0.1418  -0.0301   0.0541  -0.0544   0.00    0.0
2026/01/15 04:26:30.000   30.531675429  114.357263032    27.5981   6  14   0.0684   0.1033   0.1414  -0.0303   0.0541  -0.0543   0.00    0.0
2026/01/15 04:27:00.000   30.531675452  114.357263028    27.6002   6  14   0.0681   0.1030   0.1411  -0.0305   0.0541  -0.0542   0.00    0.0
2026/01/15 04:27:30.000   30.531675481  114.357263028    27.6016   6  15   0.0679   0.1028   0.1407  -0.0307   0.0541  -0.0541   0.00    0.0
2026/01/15 04:28:00.000   30.531675506  114.357263034    27.6033   6  15   0.0676   0.1026   0.1403  -0.0309   0.0541  -0.0541   0.00    0.0
2026/01/15 04:28:30.000   30.531675531  114.357263042    27.6051   6  15   0.0674   0.1024   0.1399  -0.0310   0.0541  -0.0540   0.00    0.0
2026/01/15 04:29:00.000   30.531675559  114.357263046    27.6063   6  15   0.0671   0.1022   0.1395  -0.0312   0.0541  -0.0539   0.00    0.0
2026/01/15 04:29:30.000   30.531675587  114.357263059    27.6079   6  15   0.0669   0.1020   0.1391  -0.0314   0.0541  -0.0538   0.00    0.0
2026/01/15 04:30:00.000   30.531675617  114.357263074    27.6091   6  16   0.0666   0.1017   0.1387  -0.0315   0.0540  -0.0538   0.00    0.0
2026/01/15 04:30:30.000   30.531675648  114.357263071    27.6104   6  16   0.0663   0.1015   0.1383  -0.0317   0.0540  -0.0537   0.00    0.0
2026/01/15 04:31:00.000   30.531675677  114.357263091    27.6120   6  16   0.0661   0.1013   0.1379  -0.0318   0.0540  -0.0536   0.00    0.0
2026/01/15 04:31:30.000   30.531675699  114.357263116    27.6144   6  16   0.0658   0.1010   0.1375  -0.0320   0.0539  -0.0535   0.00    0.0
2026/01/15 04:32:00.000   30.531675722  114.357263125    27.6169   6  16   0.0655   0.1008   0.1371  -0.0321   0.0539  -0.0534   0.00    0.0
2026/01/15 04:32:30.000   30.531675747  114.357263123    27.6186   6  16   0.0653   0.1006   0.1366  -0.0323   0.0538  -0.0533   0.00    0.0
2026/01/15 04:33:00.000   30.531675777  114.357263140    27.6194   6  16   0.0650   0.1003   0.1362  -0.0324   0.0537  -0.0532   0.00    0.0
2026/01/15 04:33:30.000   30.531675806  114.357263155    27.6200   6  16   0.0647   0.1001   0.1358  -0.0326   0.0537  -0.0531   0.00    0.0
2026/01/15 04:34:00.000   30.531675833  114.357263174    27.6205   6  16   0.0644   0.0998   0.1353  -0.0327   0.0536  -0.0530   0.00    0.0
2026/01/15 04:34:30.000   30.531675859  114.357263191    27.6213   6  16   0.0642   0.0996   0.1349  -0.0328   0.0535  -0.0530   0.00    0.0
2026/01/15 04:35:00.000   30.531675888  114.357263210    27.6218   6  16   0.0639   0.0994   0.1344  -0.0329   0.0535  -0.0529   0.00    0.0
2026/01/15 04:35:30.000   30.531675915  114.357263233    27.6228   6  16   0.0636   0.0991   0.1339  -0.0331   0.0534  -0.0528   0.00    0.0
2026/01/15 04:36:00.000   30.531675942  114.357263249    27.6239   6  16   0.0633   0.0989   0.1335  -0.0332   0.0533  -0.0527   0.00    0.0
2026/01/15 04:36:30.000   30.531675969  114.357263268    27.6254   6  16   0.0631   0.0986   0.1330  -0.0333   0.0532  -0.0526   0.00    0.0
2026/01/15 04:37:00.000   30.531676000  114.357263279    27.6261   6  16   0.0628   0.0984   0.1325  -0.0334   0.0531  -0.0525   0.00    0.0
2026/01/15 04:37:30.000   30.531676026  114.357263305    27.6270   6  16   0.0625   0.0981   0.1320  -0.0335   0.0530  -0.0524   0.00    0.0
2026/01/15 04:38:00.000   30.531676050  114.357263320    27.6286   6  16   0.0622   0.0979   0.1316  -0.0336   0.0529  -0.0523   0.00    0.0
2026/01/15 04:38:30.000   30.531676076  114.357263344    27.6300   6  16   0.0619   0.0976   0.1311  -0.0337   0.0528  -0.0522   0.00    0.0
2026/01/15 04:39:00.000   30.531676102  114.357263360    27.6316   6  16   0.0616   0.0973   0.1306  -0.0338   0.0527  -0.0521   0.00    0.0
2026/01/15 04:39:30.000   30.531676123  114.357263385    27.6345   6  17   0.0614   0.0971   0.1301  -0.0339   0.0526  -0.0519   0.00    0.0
2026/01/15 04:40:00.000   30.531676144  114.357263406    27.6370   6  17   0.0611   0.0968   0.1295  -0.0340   0.0525  -0.0518   0.00    0.0
2026/01/15 04:40:30.000   30.531676163  114.357263417    27.6385   6  17   0.0608   0.0966   0.1291  -0.0341   0.0524  -0.0517   0.00    0.0
2026/01/15 04:41:00.000   30.531676188  114.357263431    27.6397   6  17   0.0605   0.0963   0.1286  -0.0341   0.0524  -0.0516   0.00    0.0
2026/01/15 04:41:30.000   30.531676210  114.357263453    27.6412   6  17   0.0602   0.0961   0.1282  -0.0342   0.0523  -0.0514   0.00    0.0
2026/01/15 04:42:00.000   30.531676231  114.357263472    27.6432   6  17   0.0599   0.0958   0.1277  -0.0342   0.0523  -0.0513   0.00    0.0
2026/01/15 04:42:30.000   30.531676254  114.357263487    27.6442   6  17   0.0597   0.0956   0.1272  -0.0343   0.0522  -0.0511   0.00    0.0
2026/01/15 04:43:00.000   30.531676279  114.357263499    27.6452   6  17   0.0594   0.0953   0.1267  -0.0343   0.0521  -0.0510   0.00    0.0
2026/01/15 04:43:30.000   30.531676304  114.357263514    27.6457   6  17   0.0591   0.0951   0.1263  -0.0344   0.0521  -0.0509   0.00    0.0
2026/01/15 04:44:00.000   30.531676326  114.357263534    27.6487   6  16   0.0588   0.0949   0.1258  -0.0344   0.0520  -0.0507   0.00    0.0
2026/01/15 04:44:30.000   30.531676351  114.357263549    27.6517   6  16   0.0585   0.0946   0.1254  -0.0345   0.0519  -0.0505   0.00    0.0
2026/01/15 04:45:00.000   30.531676370  114.357263563    27.6553   6  15   0.0583   0.0944   0.1249  -0.0345   0.0518  -0.0504   0.00    0.0
2026/01/15 04:45:30.000   30.531676392  114.357263585    27.6577   6  15   0.0580   0.0941   0.1245  -0.0346   0.0517  -0.0502   0.00    0.0
2026/01/15 04:46:00.000   30.531676417  114.357263588    27.6598   6  16   0.0577   0.0939   0.1240  -0.0346   0.0516  -0.0501   0.00    0.0
2026/01/15 04:46:30.000   30.531676441  114.357263593    27.6623   6  15   0.0574   0.0936   0.1236  -0.0346   0.0515  -0.0499   0.00    0.0
2026/01/15 04:47:00.000   30.531676463  114.357263605    27.6645   6  16   0.0571   0.0934   0.1231  -0.0347   0.0514  -0.0497   0.00    0.0
2026/01/15 04:47:30.000   30.531676485  114.357263624    27.6661   6  15   0.0569   0.0931   0.1226  -0.0347   0.0513  -0.0496   0.00    0.0
2026/01/15 04:48:00.000   30.531676510  114.357263634    27.6684   6  16   0.0566   0.0929   0.1222  -0.0347   0.0512  -0.0494   0.00    0.0
2026/01/15 04:48:30.000   30.531676535  114.357263658    27.6707   6  16   0.0563   0.0926   0.1217  -0.0347   0.0511  -0.0492   0.00    0.0
2026/01/15 04:49:00.000   30.531676563  114.357263670    27.6724   6  15   0.0560   0.0924   0.1212  -0.0348   0.0510  -0.0491   0.00    0.0
2026/01/15 04:49:30.000   30.531676584  114.357263698    27.6755   6  16   0.0558   0.0921   0.1207  -0.0348   0.0509  -0.0489   0.00    0.0
2026/01/15 04:50:00.000   30.531676610  114.357263717    27.6777   6  16   0.0555   0.0919   0.1202  -0.0348   0.0508  -0.0487   0.00    0.0
2026/01/15 04:50:30.000   30.531676636  114.357263730    27.6798   6  16   0.0552   0.0916   0.1198  -0.0348   0.0506  -0.0486   0.00    0.0
2026/01/15 04:51:00.000   30.531676660  114.357263747    27.6827   6  15   0.0549   0.0914   0.1193  -0.0348   0.0505  -0.0484   0.00    0.0
2026/01/15 04:51:30.000   30.531676685  114.357263767    27.6857   6  15   0.0547   0.0911   0.1188  -0.0348   0.0504  -0.0482   0.00    0.0
2026/01/15 04:52:00.000   30.531676708  114.357263787    27.6882   6  15   0.0544   0.0908   0.1183  -0.0348   0.0503  -0.0480   0.00    0.0
2026/01/15 04:52:30.000   30.531676731  114.357263805    27.6907   6  15   0.0541   0.0906   0.1178  -0.0348   0.0501  -0.0479   0.00    0.0
2026/01/15 04:53:00.000   30.531676754  114.357263827    27.6932   6  15   0.0539   0.0903   0.1173  -0.0348   0.0500  -0.0477   0.00    0.0
2026/01/15 04:53:30.000   30.531676773  114.357263845    27.6956   6  15   0.0536   0.0901   0.1167  -0.0348   0.0498  -0.0475   0.00    0.0
2026/01/15 04:54:00.000   30.531676796  114.357263862    27.6981   6  15   0.0533   0.0898   0.1162  -0.0348   0.0497  -0.0473   0.00    0.0
2026/01/15 04:54:30.000   30.531676814  114.357263880    27.7007   6  15   0.0530   0.0896   0.1157  -0.0348   0.0496  -0.0471   0.00    0.0
2026/01/15 04:55:00.000   30.531676835  114.357263911    27.7030   6  15   0.0528   0.0893   0.1152  -0.0348   0.0494  -0.0470   0.00    0.0
2026/01/15 04:55:30.000   30.531676857  114.357263927    27.7054   6  15   0.0525   0.0890   0.1147  -0.0348   0.0493  -0.0468   0.00    0.0
2026/01/15 04:56:00.000   30.531676878  114.357263951    27.7079   6  15   0.0522   0.0888   0.1142  -0.0348   0.0491  -0.0466   0.00    0.0
2026/01/15 04:56:30.000   30.531676895  114.357263979    27.7108   6  15   0.0520   0.0885   0.1136  -0.0348   0.0489  -0.0464   0.00    0.0
2026/01/15 04:57:00.000   30.531676912  114.357264001    27.7132   6  15   0.0517   0.0882   0.1131  -0.0347   0.0488  -0.0462   0.00    0.0
2026/01/15 04:57:30.000   30.531676931  114.357264025    27.7151   6  15   0.0515   0.0880   0.1126  -0.0347   0.0486  -0.0460   0.00    0.0
2026/01/15 04:58:00.000   30.531676949  114.357264041    27.7179   6  15   0.0512   0.0877   0.1120  -0.0347   0.0485  -0.0458   0.00    0.0
2026/01/15 04:58:30.000   30.531676967  114.357264067    27.7206   6  15   0.0509   0.0875   0.1115  -0.0347   0.0483  -0.0457   0.00    0.0
2026/01/15 04:59:00.000   30.531676987  114.357264090    27.7230   6  15   0.0507   0.0872   0.1110  -0.0346   0.0481  -0.0455   0.00    0.0
2026/01/15 05:03:00.000   30.531676990  114.357264015    27.7271   6  16   0.0503   0.0865   0.1103  -0.0345   0.0479  -0.0452   0.00    0.0
2026/01/15 05:04:00.000   30.531677011  114.357264040    27.7276   6  16   0.0500   0.0862   0.1096  -0.0345   0.0477  -0.0449   0.00    0.0
2026/01/15 05:04:30.000   30.531677034  114.357264070    27.7294   6  16   0.0497   0.0859   0.1091  -0.0344   0.0476  -0.0447   0.00    0.0
2026/01/15 05:05:00.000   30.531677056  114.357264097    27.7312   6  16   0.0494   0.0856   0.1085  -0.0344   0.0475  -0.0445   0.00    0.0
2026/01/15 05:05:30.000   30.531677077  114.357264129    27.7332   6  16   0.0491   0.0853   0.1079  -0.0343   0.0473  -0.0442   0.00    0.0
2026/01/15 05:06:00.000   30.531677096  114.357264158    27.7349   6  16   0.0488   0.0850   0.1073  -0.0343   0.0472  -0.0440   0.00    0.0
2026/01/15 05:06:30.000   30.531677116  114.357264184    27.7371   6  16   0.0485   0.0848   0.1067  -0.0342   0.0470  -0.0438   0.00    0.0
2026/01/15 05:07:00.000   30.531677136  114.357264214    27.7391   6  16   0.0482   0.0845   0.1061  -0.0342   0.0469  -0.0436   0.00    0.0
2026/01/15 05:07:30.000   30.531677155  114.357264238    27.7411   6  16   0.0479   0.0842   0.1056  -0.0341   0.0467  -0.0434   0.00    0.0
2026/01/15 05:08:00.000   30.531677173  114.357264266    27.7428   6  16   0.0476   0.0839   0.1050  -0.0340   0.0466  -0.0431   0.00    0.0
2026/01/15 05:08:30.000   30.531677192  114.357264299    27.7446   6  16   0.0473   0.0836   0.1044  -0.0340   0.0465  -0.0429   0.00    0.0
2026/01/15 05:09:00.000   30.531677209  114.357264328    27.7466   6  16   0.0470   0.0833   0.1038  -0.0339   0.0463  -0.0427   0.00    0.0
2026/01/15 05:09:30.000   30.531677228  114.357264349    27.7480   6  16   0.0468   0.0830   0.1032  -0.0339   0.0461  -0.0425   0.00    0.0
2026/01/15 05:10:00.000   30.531677248  114.357264379    27.7497   6  16   0.0465   0.0827   0.1027  -0.0338   0.0460  -0.0423   0.00    0.0
2026/01/15 05:10:30.000   30.531677264  114.357264407    27.7516   6  16   0.0462   0.0825   0.1021  -0.0337   0.0458  -0.0420   0.00    0.0
2026/01/15 05:11:00.000   30.531677281  114.357264435    27.7533   6  16   0.0459   0.0822   0.1015  -0.0337   0.0457  -0.0418   0.00    0.0
2026/01/15 05:11:30.000   30.531677297  114.357264467    27.7556   6  16   0.0457   0.0819   0.1009  -0.0336   0.0455  -0.0416   0.00    0.0
2026/01/15 05:12:00.000   30.531677314  114.357264497    27.7578   6  16   0.0454   0.0816   0.1004  -0.0335   0.0453  -0.0414   0.00    0.0
2026/01/15 05:12:30.000   30.531677328  114.357264532    27.7607   6  16   0.0451   0.0813   0.0998  -0.0334   0.0452  -0.0412   0.00    0.0
2026/01/15 05:13:00.000   30.531677344  114.357264562    27.7631   6  16   0.0449   0.0811   0.0992  -0.0334   0.0450  -0.0409   0.00    0.0
2026/01/15 05:13:30.000   30.531677357  114.357264595    27.7653   6  16   0.0446   0.0808   0.0987  -0.0333   0.0448  -0.0407   0.00    0.0
2026/01/15 05:14:00.000   30.531677371  114.357264633    27.7678   6  16   0.0444   0.0805   0.0981  -0.0332   0.0447  -0.0405   0.00    0.0
2026/01/15 05:14:30.000   30.531677385  114.357264667    27.7699   6  16   0.0441   0.0802   0.0975  -0.0331   0.0445  -0.0403   0.00    0.0
2026/01/15 05:15:00.000   30.531677399  114.357264698    27.7724   6  16   0.0439   0.0799   0.0970  -0.0330   0.0443  -0.0401   0.00    0.0
2026/01/15 05:15:30.000   30.531677411  114.357264733    27.7751   6  16   0.0436   0.0797   0.0964  -0.0330   0.0441  -0.0399   0.00    0.0
2026/01/15 05:16:00.000   30.531677426  114.357264759    27.7770   6  15   0.0434   0.0794   0.0959  -0.0329   0.0440  -0.0397   0.00    0.0
2026/01/15 05:16:30.000   30.531677438  114.357264789    27.7790   6  16   0.0431   0.0791   0.0953  -0.0328   0.0438  -0.0394   0.00    0.0
2026/01/15 05:17:00.000   30.531677451  114.357264825    27.7813   6  16   0.0429   0.0788   0.0948  -0.0327   0.0436  -0.0392   0.00    0.0
2026/01/15 05:17:30.000   30.531677462  114.357264851    27.7833   6  16   0.0427   0.0786   0.0942  -0.0326   0.0434  -0.0390   0.00    0.0
2026/01/15 05:18:00.000   30.531677474  114.357264874    27.7850   6  16   0.0424   0.0783   0.0936  -0.0325   0.0433  -0.0388   0.00    0.0
2026/01/15 05:18:30.000   30.531677485  114.357264900    27.7866   6  16   0.0422   0.0780   0.0931  -0.0324   0.0431  -0.0386   0.00    0.0
2026/01/15 05:19:00.000   30.531677497  114.357264930    27.7886   6  16   0.0419   0.0777   0.0925  -0.0323   0.0429  -0.0384   0.00    0.0
2026/01/15 05:19:30.000   30.531677507  114.357264957    27.7906   6  16   0.0417   0.0775   0.0920  -0.0322   0.0427  -0.0382   0.00    0.0
2026/01/15 05:20:00.000   30.531677518  114.357264985    27.7925   6  16   0.0415   0.0772   0.0915  -0.0322   0.0425  -0.0380   0.00    0.0
2026/01/15 05:20:30.000   30.531677528  114.357265016    27.7948   6  16   0.0413   0.0769   0.0909  -0.0321   0.0423  -0.0378   0.00    0.0
2026/01/15 05:21:00.000   30.531677538  114.357265046    27.7970   6  16   0.0410   0.0767   0.0904  -0.0320   0.0421  -0.0376   0.00    0.0
2026/01/15 05:21:30.000   30.531677548  114.357265074    27.7992   6  16   0.0408   0.0764   0.0898  -0.0319   0.0420  -0.0374   0.00    0.0
2026/01/15 05:22:00.000   30.531677559  114.357265100    27.8008   6  16   0.0406   0.0761   0.0893  -0.0318   0.0418  -0.0371   0.00    0.0
2026/01/15 05:22:30.000   30.531677569  114.357265134    27.8023   6  16   0.0404   0.0759   0.0888  -0.0317   0.0416  -0.0369   0.00    0.0
2026/01/15 05:23:00.000   30.531677579  114.357265160    27.8040   6  16   0.0402   0.0756   0.0882  -0.0316   0.0414  -0.0367   0.00    0.0
2026/01/15 05:23:30.000   30.531677586  114.357265186    27.8060   6  16   0.0399   0.0753   0.0877  -0.0315   0.0412  -0.0365   0.00    0.0
2026/01/15 05:24:00.000   30.531677594  114.357265217    27.8076   6  16   0.0397   0.0751   0.0872  -0.0314   0.0410  -0.0363   0.00    0.0
2026/01/15 05:24:30.000   30.531677602  114.357265247    27.8092   6  16   0.0395   0.0748   0.0866  -0.0313   0.0408  -0.0361   0.00    0.0
2026/01/15 05:25:00.000   30.531677609  114.357265282    27.8111   6  16   0.0393   0.0746   0.0861  -0.0312   0.0406  -0.0359   0.00    0.0
2026/01/15 05:25:30.000   30.531677617  114.357265305    27.8124   6  16   0.0391   0.0743   0.0856  -0.0311   0.0405  -0.0357   0.00    0.0
2026/01/15 05:26:00.000   30.531677624  114.357265326    27.8137   6  16   0.0389   0.0740   0.0851  -0.0310   0.0403  -0.0355   0.00    0.0
2026/01/15 05:26:30.000   30.531677630  114.357265356    27.8154   6  16   0.0387   0.0738   0.0845  -0.0309   0.0401  -0.0353   0.00    0.0
2026/01/15 05:27:00.000   30.531677637  114.357265384    27.8171   6  15   0.0385   0.0735   0.0840  -0.0308   0.0399  -0.0351   0.00    0.0
2026/01/15 05:27:30.000   30.531677643  114.357265415    27.8189   6  16   0.0383   0.0733   0.0835  -0.0307   0.0397  -0.0349   0.00    0.0
2026/01/15 05:28:00.000   30.531677648  114.357265445    27.8204   6  16   0.0381   0.0730   0.0830  -0.0306   0.0395  -0.0347   0.00    0.0
2026/01/15 05:28:30.000   30.531677654  114.357265473    27.8215   6  16   0.0379   0.0728   0.0825  -0.0305   0.0393  -0.0345   0.00    0.0
2026/01/15 05:29:00.000   30.531677658  114.357265507    27.8228   6  16   0.0377   0.0725   0.0820  -0.0304   0.0391  -0.0343   0.00    0.0
2026/01/15 05:29:30.000   30.531677664  114.357265532    27.8239   6  16   0.0375   0.0722   0.0815  -0.0303   0.0389  -0.0341   0.00    0.0
2026/01/15 05:30:00.000   30.531677670  114.357265555    27.8246   6  15   0.0373   0.0720   0.0810  -0.0302   0.0388  -0.0339   0.00    0.0
2026/01/15 05:30:30.000   30.531677676  114.357265579    27.8255   6  15   0.0371   0.0717   0.0805  -0.0301   0.0386  -0.0337   0.00    0.0
2026/01/15 05:31:00.000   30.531677682  114.357265601    27.8262   6  16   0.0369   0.0715   0.0800  -0.0300   0.0384  -0.0336   0.00    0.0
2026/01/15 05:31:30.000   30.531677687  114.357265629    27.8273   6  16   0.0367   0.0712   0.0795  -0.0299   0.0382  -0.0334   0.00    0.0
2026/01/15 05:32:00.000   30.531677696  114.357265643    27.8286   6  14   0.0365   0.0710   0.0790  -0.0298   0.0380  -0.0332   0.00    0.0
2026/01/15 05:32:30.000   30.531677705  114.357265656    27.8295   6  15   0.0364   0.0708   0.0785  -0.0297   0.0378  -0.0330   0.00    0.0
2026/01/15 05:33:00.000   30.531677712  114.357265678    27.8306   6  15   0.0362   0.0706   0.0780  -0.0296   0.0376  -0.0328   0.00    0.0
2026/01/15 05:33:30.000   30.531677720  114.357265700    27.8318   6  15   0.0360   0.0703   0.0775  -0.0295   0.0374  -0.0326   0.00    0.0
2026/01/15 05:34:00.000   30.531677730  114.357265717    27.8326   6  15   0.0358   0.0701   0.0771  -0.0294   0.0372  -0.0324   0.00    0.0
2026/01/15 05:34:30.000   30.531677737  114.357265738    27.8337   6  14   0.0356   0.0699   0.0766  -0.0293   0.0370  -0.0322   0.00    0.0
2026/01/15 05:35:00.000   30.531677744  114.357265755    27.8341   6  14   0.0355   0.0697   0.0762  -0.0293   0.0369  -0.0320   0.00    0.0
2026/01/15 05:35:30.000   30.531677749  114.357265776    27.8346   6  14   0.0353   0.0695   0.0758  -0.0292   0.0367  -0.0318   0.00    0.0
2026/01/15 05:36:00.000   30.531677754  114.357265795    27.8354   6  15   0.0351   0.0692   0.0754  -0.0291   0.0366  -0.0316   0.00    0.0
2026/01/15 05:36:30.000   30.531677761  114.357265808    27.8358   6  15   0.0350   0.0690   0.0749  -0.0290   0.0364  -0.0314   0.00    0.0
2026/01/15 05:37:00.000   30.531677767  114.357265824    27.8363   6  16   0.0348   0.0688   0.0745  -0.0289   0.0363  -0.0312   0.00    0.0
2026/01/15 05:37:30.000   30.531677772  114.357265840    27.8370   6  15   0.0346   0.0686   0.0741  -0.0288   0.0361  -0.0310   0.00    0.0
2026/01/15 05:38:00.000   30.531677778  114.357265849    27.8373   6  16   0.0345   0.0684   0.0737  -0.0287   0.0360  -0.0308   0.00    0.0
2026/01/15 05:38:30.000   30.531677784  114.357265864    27.8378   6  16   0.0343   0.0682   0.0733  -0.0286   0.0358  -0.0306   0.00    0.0
2026/01/15 05:39:00.000   30.531677789  114.357265873    27.8381   6  16   0.0342   0.0680   0.0729  -0.0285   0.0357  -0.0304   0.00    0.0
2026/01/15 05:39:30.000   30.531677795  114.357265887    27.8387   6  16   0.0340   0.0677   0.0725  -0.0284   0.0355  -0.0302   0.00    0.0
2026/01/15 05:40:00.000   30.531677802  114.357265901    27.8392   6  15   0.0338   0.0675   0.0721  -0.0283   0.0354  -0.0300   0.00    0.0
2026/01/15 05:40:30.000   30.531677808  114.357265919    27.8396   6  15   0.0337   0.0673   0.0717  -0.0282   0.0352  -0.0298   0.00    0.0
2026/01/15 05:41:00.000   30.531677814  114.357265936    27.8401   6  16   0.0335   0.0671   0.0713  -0.0281   0.0351  -0.0296   0.00    0.0
2026/01/15 05:41:30.000   30.531677819  114.357265956    27.8408   6  15   0.0334   0.0669   0.0709  -0.0280   0.0349  -0.0294   0.00    0.0
2026/01/15 05:42:00.000   30.531677825  114.357265970    27.8412   6  14   0.0332   0.0667   0.0705  -0.0279   0.0348  -0.0292   0.00    0.0
2026/01/15 05:42:30.000   30.531677831  114.357265985    27.8416   6  15   0.0331   0.0665   0.0701  -0.0278   0.0346  -0.0291   0.00    0.0
2026/01/15 05:43:00.000   30.531677838  114.357265996    27.8418   6  14   0.0329   0.0663   0.0698  -0.0277   0.0345  -0.0289   0.00    0.0
2026/01/15 05:43:30.000   30.531677843  114.357266010    27.8423   6  15   0.0328   0.0661   0.0694  -0.0276   0.0343  -0.0287   0.00    0.0
2026/01/15 05:44:00.000   30.531677848  114.357266023    27.8426   6  15   0.0326   0.0659   0.0690  -0.0275   0.0342  -0.0285   0.00    0.0
2026/01/15 05:44:30.000   30.531677855  114.357266031    27.8427   6  16   0.0325   0.0657   0.0686  -0.0274   0.0340  -0.0283   0.00    0.0
2026/01/15 05:45:00.000   30.531677861  114.357266044    27.8426   6  16   0.0323   0.0655   0.0682  -0.0273   0.0339  -0.0281   0.00    0.0
2026/01/15 05:45:30.000   30.531677867  114.357266052    27.8426   6  17   0.0322   0.0652   0.0678  -0.0272   0.0337  -0.0280   0.00    0.0
2026/01/15 05:46:00.000   30.531677873  114.357266060    27.8426   6  16   0.0320   0.0650   0.0674  -0.0271   0.0336  -0.0278   0.00    0.0
2026/01/15 05:46:30.000   30.531677878  114.357266074    27.8426   6  16   0.0319   0.0648   0.0671  -0.0270   0.0334  -0.0276   0.00    0.0
2026/01/15 05:47:00.000   30.531677884  114.357266090    27.8426   6  17   0.0317   0.0646   0.0667  -0.0269   0.0333  -0.0274   0.00    0.0
2026/01/15 05:47:30.000   30.531677888  114.357266108    27.8426   6  17   0.0316   0.0644   0.0663  -0.0268   0.0332  -0.0273   0.00    0.0
2026/01/15 05:48:00.000   30.531677893  114.357266123    27.8427   6  17   0.0314   0.0642   0.0659  -0.0267   0.0330  -0.0271   0.00    0.0
2026/01/15 05:48:30.000   30.531677898  114.357266141    27.8429   6  17   0.0313   0.0640   0.0656  -0.0266   0.0329  -0.0269   0.00    0.0
2026/01/15 05:49:00.000   30.531677903  114.357266154    27.8426   6  17   0.0312   0.0638   0.0652  -0.0265   0.0327  -0.0268   0.00    0.0
2026/01/15 05:49:30.000   30.531677909  114.357266164    27.8421   6  17   0.0310   0.0636   0.0648  -0.0265   0.0326  -0.0266   0.00    0.0
2026/01/15 05:50:00.000   30.531677915  114.357266179    27.8417   6  17   0.0309   0.0634   0.0645  -0.0264   0.0325  -0.0265   0.00    0.0
2026/01/15 05:50:30.000   30.531677920  114.357266195    27.8413   6  17   0.0308   0.0632   0.0641  -0.0263   0.0323  -0.0263   0.00    0.0
2026/01/15 05:51:00.000   30.531677925  114.357266212    27.8408   6  17   0.0306   0.0630   0.0638  -0.0262   0.0322  -0.0261   0.00    0.0
2026/01/15 05:51:30.000   30.531677930  114.357266226    27.8404   6  17   0.0305   0.0628   0.0634  -0.0261   0.0320  -0.0260   0.00    0.0
2026/01/15 05:52:00.000   30.531677935  114.357266237    27.8398   6  17   0.0304   0.0626   0.0630  -0.0260   0.0319  -0.0258   0.00    0.0
2026/01/15 05:52:30.000   30.531677940  114.357266249    27.8395   6  17   0.0302   0.0624   0.0627  -0.0259   0.0318  -0.0257   0.00    0.0
