% program   : RTKPOST-EX 2.5.0
% inp file  : C:\PPP_PROJECT\New_Data\obs\RNXDATA\WUH200CHN_R_20260150000_01D_30S_MO.rnx
% inp file  : C:\PPP_PROJECT\New_Data\nav\BRDC00IGS_R_20260150000_01D_MN.rnx
% inp file  : C:\PPP_PROJECT\New_Data\DATA_FINAL_ANT_EXTRA\COD0MGXFIN_20260150000_01D_05M_ORB.SP3
% inp file  : C:\PPP_PROJECT\New_Data\DATA_FINAL_ANT_EXTRA\COD0MGXFIN_20260150000_01D_30S_CLK.CLK
% obs start : 2026/01/15 00:00:00.0 GPST (week2401 345600.0s)
% obs end   : 2026/01/15 23:59:30.0 GPST (week2401 431970.0s)
% pos mode  : PPP Static
% freqs     : L1+L2/E5b
% solution  : Forward
% elev mask : 15.0 deg
% dynamics  : on
% tidecorr  :
% ionos opt : Iono-Free LC
% tropo opt : Saastamoinen
% ephemeris : Precise
% navi sys  : GPS
% antenna1  :                       ( 0.0000  0.0000  0.0000)
%
% (lat/lon/height=WGS84/ellipsoidal,Q=1:fix,2:float,3:sbas,4:dgps,5:single,6:ppp,ns=# of satellites)
%  GPST                  latitude(deg) longitude(deg)  height(m)   Q  ns   sdn(m)   sde(m)   sdu(m)  sdne(m)  sdeu(m)  sdun(m) age(s)  ratio
2026/01/15 00:00:00.000   30.531662214  114.357269518    28.8289   6   6   4.2490   4.4480  11.9302  -2.1488   4.2100  -3.9795   0.00    0.0
2026/01/15 00:01:00.000   30.531670428  114.357266191    28.5686   6   7   2.4588   2.5810   6.9052  -1.2463   2.4548  -2.3064   0.00    0.0
2026/01/15 00:01:30.000   30.531671400  114.357265550    28.7546   6   7   2.1273   2.2350   5.9333  -1.0756   2.1164  -1.9896   0.00    0.0
2026/01/15 00:02:00.000   30.531670829  114.357268438    29.0792   6   7   1.8996   1.9975   5.2500  -0.9571   1.8786  -1.7689   0.00    0.0
2026/01/15 00:03:00.000   30.531670901  114.357268565    28.3222   6   7   1.5994   1.6846   4.3362  -0.7990   1.5600  -1.4720   0.00    0.0
2026/01/15 00:03:30.000   30.531670947  114.357270829    28.4596   6   7   1.4897   1.5703   3.9587  -0.7394   1.4281  -1.3630   0.00    0.0
2026/01/15 00:04:00.000   30.531671094  114.357271426    28.5456   6   7   1.3984   1.4755   3.6447  -0.6895   1.3183  -1.2721   0.00    0.0
2026/01/15 00:05:00.000   30.531672679  114.357270271    28.5009   6   7   1.2579   1.3297   3.2020  -0.6137   1.1633  -1.1313   0.00    0.0
2026/01/15 00:05:30.000   30.531672277  114.357270783    28.5823   6   7   1.1963   1.2663   2.9659  -0.5782   1.0792  -1.0698   0.00    0.0
2026/01/15 00:06:00.000   30.531672661  114.357270826    28.6021   6   7   1.1418   1.2104   2.7628  -0.5468   1.0067  -1.0158   0.00    0.0
2026/01/15 00:06:30.000   30.531672617  114.357270206    28.4822   6   7   1.0930   1.1606   2.5847  -0.5185   0.9427  -0.9678   0.00    0.0
2026/01/15 00:07:00.000   30.531672384  114.357269539    28.5109   6   7   1.0488   1.1158   2.4264  -0.4928   0.8855  -0.9247   0.00    0.0
2026/01/15 00:07:30.000   30.531671922  114.357269354    28.6610   6   7   1.0085   1.0751   2.2842  -0.4692   0.8338  -0.8856   0.00    0.0
2026/01/15 00:08:00.000   30.531672043  114.357269555    28.7905   6   7   0.9704   1.0356   2.1480  -0.4508   0.7788  -0.8548   0.00    0.0
2026/01/15 00:08:30.000   30.531672188  114.357269461    28.7857   6   7   0.9352   0.9996   2.0261  -0.4331   0.7300  -0.8256   0.00    0.0
2026/01/15 00:09:30.000   30.531672319  114.357270397    28.7033   6   7   0.8800   0.9419   1.8684  -0.4078   0.6677  -0.7786   0.00    0.0
2026/01/15 00:10:00.000   30.531672494  114.357270189    28.6628   6   8   0.8497   0.9121   1.7625  -0.3906   0.6256  -0.7520   0.00    0.0
2026/01/15 00:11:30.000   30.531672481  114.357270260    28.5843   6   8   0.7873   0.8473   1.5997  -0.3615   0.5636  -0.6965   0.00    0.0
2026/01/15 00:12:30.000   30.531672583  114.357270256    28.5451   6   8   0.7461   0.8065   1.4760  -0.3386   0.5159  -0.6590   0.00    0.0
2026/01/15 00:13:00.000   30.531672940  114.357269613    28.4980   6   8   0.7209   0.7832   1.3882  -0.3214   0.4808  -0.6358   0.00    0.0
2026/01/15 00:14:00.000   30.531673427  114.357269388    28.4134   6   8   0.6862   0.7491   1.2923  -0.3018   0.4441  -0.6040   0.00    0.0
2026/01/15 00:14:30.000   30.531673582  114.357269235    28.3837   6   8   0.6640   0.7289   1.2214  -0.2863   0.4155  -0.5836   0.00    0.0
2026/01/15 00:15:30.000   30.531674159  114.357269131    28.3246   6   8   0.6343   0.6996   1.1447  -0.2693   0.3864  -0.5564   0.00    0.0
2026/01/15 00:16:00.000   30.531674223  114.357269027    28.2945   6   8   0.6146   0.6818   1.0863  -0.2551   0.3626  -0.5383   0.00    0.0
2026/01/15 00:16:30.000   30.531674368  114.357268885    28.2539   6   8   0.5962   0.6650   1.0349  -0.2420   0.3416  -0.5216   0.00    0.0
2026/01/15 00:17:00.000   30.531674518  114.357268672    28.2096   6   8   0.5791   0.6493   0.9889  -0.2298   0.3228  -0.5061   0.00    0.0
2026/01/15 00:17:30.000   30.531674573  114.357268602    28.1734   6   8   0.5630   0.6343   0.9475  -0.2184   0.3057  -0.4916   0.00    0.0
2026/01/15 00:18:00.000   30.531674641  114.357268749    28.1585   6   8   0.5479   0.6202   0.9098  -0.2078   0.2902  -0.4779   0.00    0.0
2026/01/15 00:18:30.000   30.531674884  114.357268691    28.1209   6   8   0.5336   0.6067   0.8752  -0.1977   0.2760  -0.4650   0.00    0.0
2026/01/15 00:19:00.000   30.531675038  114.357268743    28.1005   6   8   0.5200   0.5939   0.8433  -0.1882   0.2629  -0.4529   0.00    0.0
2026/01/15 00:19:30.000   30.531675124  114.357269034    28.0839   6   8   0.5071   0.5816   0.8138  -0.1792   0.2508  -0.4413   0.00    0.0
2026/01/15 00:20:00.000   30.531675253  114.357269467    28.0735   6   8   0.4949   0.5698   0.7862  -0.1706   0.2396  -0.4303   0.00    0.0
2026/01/15 00:20:30.000   30.531675364  114.357269513    28.0701   6   8   0.4832   0.5584   0.7604  -0.1624   0.2291  -0.4198   0.00    0.0
2026/01/15 00:21:00.000   30.531675442  114.357269550    28.0560   6   8   0.4720   0.5475   0.7362  -0.1545   0.2192  -0.4098   0.00    0.0
2026/01/15 00:21:30.000   30.531675610  114.357269650    28.0350   6   8   0.4613   0.5370   0.7135  -0.1470   0.2100  -0.4002   0.00    0.0
2026/01/15 00:22:00.000   30.531675794  114.357269879    27.9988   6   8   0.4510   0.5269   0.6920  -0.1398   0.2014  -0.3910   0.00    0.0
2026/01/15 00:23:30.000   30.531676006  114.357270098    27.9442   6   8   0.4342   0.5085   0.6541  -0.1336   0.1914  -0.3753   0.00    0.0
2026/01/15 00:24:00.000   30.531676147  114.357270129    27.9188   6   8   0.4240   0.4984   0.6338  -0.1258   0.1829  -0.3662   0.00    0.0
2026/01/15 00:24:30.000   30.531676241  114.357270043    27.8995   6   8   0.4143   0.4887   0.6147  -0.1183   0.1750  -0.3575   0.00    0.0
2026/01/15 00:25:00.000   30.531676335  114.357269967    27.8872   6   8   0.4051   0.4794   0.5967  -0.1111   0.1676  -0.3493   0.00    0.0
2026/01/15 00:25:30.000   30.531676347  114.357269944    27.8751   6   8   0.3962   0.4704   0.5798  -0.1042   0.1606  -0.3415   0.00    0.0
2026/01/15 00:26:00.000   30.531676414  114.357269773    27.8571   6   9   0.3874   0.4612   0.5632  -0.0956   0.1522  -0.3333   0.00    0.0
2026/01/15 00:26:30.000   30.531676600  114.357269740    27.8438   6   9   0.3789   0.4526   0.5520  -0.0874   0.1479  -0.3259   0.00    0.0
2026/01/15 00:27:00.000   30.531676704  114.357269614    27.8403   6   9   0.3709   0.4443   0.5411  -0.0795   0.1439  -0.3188   0.00    0.0
2026/01/15 00:27:30.000   30.531676924  114.357269502    27.8224   6   9   0.3631   0.4363   0.5305  -0.0716   0.1401  -0.3120   0.00    0.0
2026/01/15 00:28:00.000   30.531677034  114.357269444    27.8194   6   8   0.3558   0.4286   0.5202  -0.0638   0.1365  -0.3054   0.00    0.0
2026/01/15 00:28:30.000   30.531677128  114.357269456    27.8216   6   8   0.3487   0.4210   0.5102  -0.0559   0.1332  -0.2991   0.00    0.0
2026/01/15 00:29:00.000   30.531677178  114.357269378    27.8210   6   8   0.3419   0.4138   0.5005  -0.0478   0.1300  -0.2930   0.00    0.0
2026/01/15 00:29:30.000   30.531677179  114.357269470    27.8285   6   8   0.3353   0.4067   0.4911  -0.0392   0.1270  -0.2871   0.00    0.0
2026/01/15 00:30:00.000   30.531677201  114.357269495    27.8410   6   8   0.3289   0.3998   0.4819  -0.0295   0.1241  -0.2815   0.00    0.0
2026/01/15 00:30:30.000   30.531677265  114.357269388    27.8408   6   8   0.3228   0.3931   0.4729  -0.0167   0.1214  -0.2760   0.00    0.0
2026/01/15 00:31:00.000   30.531677307  114.357269468    27.8444   6   8   0.3168   0.3866   0.4642   0.0156   0.1188  -0.2708   0.00    0.0
2026/01/15 00:31:30.000   30.531677333  114.357269480    27.8456   6   8   0.3110   0.3803   0.4557   0.0266   0.1164  -0.2657   0.00    0.0
2026/01/15 00:32:00.000   30.531677434  114.357269666    27.8396   6   8   0.3054   0.3741   0.4474   0.0333   0.1141  -0.2607   0.00    0.0
2026/01/15 00:32:30.000   30.531677482  114.357269743    27.8358   6   8   0.2999   0.3681   0.4393   0.0383   0.1119  -0.2559   0.00    0.0
2026/01/15 00:33:00.000   30.531677603  114.357269728    27.8227   6   8   0.2946   0.3622   0.4314   0.0421   0.1098  -0.2513   0.00    0.0
2026/01/15 00:33:30.000   30.531677668  114.357269683    27.8128   6   8   0.2895   0.3565   0.4238   0.0452   0.1078  -0.2468   0.00    0.0
2026/01/15 00:34:00.000   30.531677733  114.357269638    27.8025   6   8   0.2844   0.3508   0.4163   0.0477   0.1058  -0.2424   0.00    0.0
2026/01/15 00:34:30.000   30.531677794  114.357269663    27.7958   6   8   0.2795   0.3454   0.4090   0.0497   0.1040  -0.2381   0.00    0.0
2026/01/15 00:35:00.000   30.531677842  114.357269668    27.7921   6   8   0.2748   0.3400   0.4018   0.0514   0.1023  -0.2340   0.00    0.0
2026/01/15 00:35:30.000   30.531677866  114.357269794    27.7904   6   8   0.2701   0.3348   0.3949   0.0527   0.1006  -0.2300   0.00    0.0
2026/01/15 00:36:00.000   30.531677886  114.357269772    27.7836   6   8   0.2656   0.3296   0.3881   0.0538   0.0990  -0.2260   0.00    0.0
2026/01/15 00:36:30.000   30.531678007  114.357269768    27.7650   6   8   0.2612   0.3246   0.3815   0.0547   0.0975  -0.2222   0.00    0.0
2026/01/15 00:37:00.000   30.531677994  114.357269750    27.7616   6   8   0.2569   0.3197   0.3750   0.0553   0.0960  -0.2185   0.00    0.0
2026/01/15 00:37:30.000   30.531678000  114.357269695    27.7599   6   8   0.2527   0.3149   0.3687   0.0558   0.0946  -0.2149   0.00    0.0
2026/01/15 00:38:00.000   30.531678028  114.357269661    27.7562   6   8   0.2486   0.3102   0.3625   0.0562   0.0932  -0.2113   0.00    0.0
2026/01/15 00:38:30.000   30.531678051  114.357269715    27.7617   6   7   0.2452   0.3057   0.3607   0.0549   0.0947  -0.2102   0.00    0.0
2026/01/15 00:39:00.000   30.531678082  114.357269797    27.7644   6   7   0.2419   0.3013   0.3588   0.0535   0.0961  -0.2090   0.00    0.0
2026/01/15 00:39:30.000   30.531678100  114.357269828    27.7688   6   7   0.2387   0.2970   0.3569   0.0521   0.0974  -0.2078   0.00    0.0
2026/01/15 00:40:00.000   30.531678095  114.357269853    27.7762   6   8   0.2355   0.2928   0.3549   0.0507   0.0985  -0.2066   0.00    0.0
2026/01/15 00:40:30.000   30.531678103  114.357269924    27.7814   6   7   0.2324   0.2887   0.3529   0.0492   0.0996  -0.2054   0.00    0.0
2026/01/15 00:41:00.000   30.531678110  114.357269993    27.7849   6   8   0.2293   0.2846   0.3509   0.0476   0.1005  -0.2042   0.00    0.0
2026/01/15 00:41:30.000   30.531678146  114.357270017    27.7863   6   7   0.2264   0.2807   0.3490   0.0463   0.1013  -0.2030   0.00    0.0
2026/01/15 00:42:00.000   30.531678167  114.357270088    27.7908   6   7   0.2235   0.2768   0.3470   0.0449   0.1019  -0.2019   0.00    0.0
2026/01/15 00:42:30.000   30.531678200  114.357270158    27.7913   6   7   0.2206   0.2730   0.3449   0.0434   0.1025  -0.2006   0.00    0.0
2026/01/15 00:43:00.000   30.531678229  114.357270170    27.7932   6   7   0.2178   0.2693   0.3429   0.0419   0.1031  -0.1994   0.00    0.0
2026/01/15 00:43:30.000   30.531678232  114.357270169    27.7948   6   7   0.2151   0.2656   0.3408   0.0403   0.1035  -0.1982   0.00    0.0
2026/01/15 00:44:00.000   30.531678266  114.357270248    27.7973   6   7   0.2124   0.2621   0.3387   0.0388   0.1040  -0.1969   0.00    0.0
2026/01/15 00:44:30.000   30.531678291  114.357270264    27.7995   6   7   0.2097   0.2585   0.3365   0.0371   0.1043  -0.1956   0.00    0.0
2026/01/15 00:45:00.000   30.531678316  114.357270280    27.8031   6   7   0.2071   0.2551   0.3343   0.0355   0.1046  -0.1943   0.00    0.0
2026/01/15 00:45:30.000   30.531678321  114.357270277    27.8075   6   7   0.2045   0.2516   0.3321   0.0338   0.1048  -0.1930   0.00    0.0
2026/01/15 00:46:00.000   30.531678315  114.357270252    27.8129   6   7   0.2020   0.2483   0.3299   0.0320   0.1050  -0.1917   0.00    0.0
2026/01/15 00:46:30.000   30.531678327  114.357270305    27.8174   6   7   0.1995   0.2450   0.3277   0.0303   0.1051  -0.1903   0.00    0.0
2026/01/15 00:47:00.000   30.531678345  114.357270351    27.8215   6   7   0.1970   0.2418   0.3254   0.0284   0.1052  -0.1890   0.00    0.0
2026/01/15 00:47:30.000   30.531678362  114.357270342    27.8230   6   7   0.1946   0.2386   0.3231   0.0265   0.1052  -0.1876   0.00    0.0
2026/01/15 00:48:00.000   30.531678370  114.357270341    27.8263   6   7   0.1922   0.2355   0.3208   0.0246   0.1052  -0.1862   0.00    0.0
2026/01/15 00:48:30.000   30.531678393  114.357270361    27.8287   6   7   0.1899   0.2324   0.3185   0.0226   0.1051  -0.1848   0.00    0.0
2026/01/15 00:49:00.000   30.531678389  114.357270414    27.8361   6   7   0.1876   0.2294   0.3161   0.0204   0.1050  -0.1834   0.00    0.0
2026/01/15 00:49:30.000   30.531678414  114.357270460    27.8397   6   7   0.1853   0.2264   0.3138   0.0182   0.1048  -0.1820   0.00    0.0
2026/01/15 00:50:00.000   30.531678437  114.357270495    27.8427   6   7   0.1831   0.2235   0.3114   0.0157   0.1046  -0.1806   0.00    0.0
2026/01/15 00:50:30.000   30.531678445  114.357270531    27.8459   6   7   0.1809   0.2207   0.3090   0.0130   0.1044  -0.1791   0.00    0.0
2026/01/15 00:51:00.000   30.531678449  114.357270545    27.8506   6   7   0.1787   0.2179   0.3066   0.0097   0.1041  -0.1777   0.00    0.0
2026/01/15 00:51:30.000   30.531678436  114.357270553    27.8571   6   7   0.1766   0.2151   0.3042   0.0047   0.1038  -0.1763   0.00    0.0
2026/01/15 00:52:00.000   30.531678432  114.357270583    27.8621   6   7   0.1745   0.2124   0.3018  -0.0067   0.1034  -0.1748   0.00    0.0
2026/01/15 00:52:30.000   30.531678429  114.357270617    27.8659   6   7   0.1724   0.2097   0.2994  -0.0104   0.1030  -0.1734   0.00    0.0
2026/01/15 00:53:00.000   30.531678432  114.357270603    27.8686   6   7   0.1704   0.2071   0.2970  -0.0129   0.1026  -0.1719   0.00    0.0
2026/01/15 00:53:30.000   30.531678423  114.357270569    27.8732   6   7   0.1684   0.2045   0.2945  -0.0149   0.1021  -0.1705   0.00    0.0
2026/01/15 00:54:30.000   30.531678439  114.357270645    27.8746   6   7   0.1661   0.2016   0.2918  -0.0167   0.1015  -0.1687   0.00    0.0
2026/01/15 00:55:00.000   30.531678444  114.357270657    27.8776   6   7   0.1641   0.1990   0.2892  -0.0181   0.1010  -0.1672   0.00    0.0
2026/01/15 00:55:30.000   30.531678454  114.357270656    27.8810   6   7   0.1621   0.1964   0.2867  -0.0194   0.1004  -0.1657   0.00    0.0
2026/01/15 00:56:00.000   30.531678468  114.357270677    27.8825   6   7   0.1601   0.1940   0.2842  -0.0205   0.0998  -0.1642   0.00    0.0
2026/01/15 00:56:30.000   30.531678496  114.357270699    27.8821   6   7   0.1582   0.1915   0.2816  -0.0214   0.0992  -0.1627   0.00    0.0
2026/01/15 00:57:00.000   30.531678513  114.357270693    27.8835   6   7   0.1563   0.1891   0.2791  -0.0222   0.0985  -0.1612   0.00    0.0
2026/01/15 00:57:30.000   30.531678517  114.357270718    27.8876   6   7   0.1544   0.1867   0.2766  -0.0229   0.0979  -0.1597   0.00    0.0
2026/01/15 00:58:00.000   30.531678535  114.357270757    27.8908   6   7   0.1526   0.1844   0.2741  -0.0236   0.0972  -0.1582   0.00    0.0
2026/01/15 00:58:30.000   30.531678558  114.357270761    27.8923   6   7   0.1508   0.1821   0.2716  -0.0241   0.0965  -0.1567   0.00    0.0
2026/01/15 00:59:00.000   30.531678571  114.357270763    27.8939   6   7   0.1490   0.1799   0.2691  -0.0246   0.0957  -0.1552   0.00    0.0
2026/01/15 00:59:30.000   30.531678571  114.357270769    27.8970   6   7   0.1473   0.1777   0.2667  -0.0250   0.0950  -0.1538   0.00    0.0
2026/01/15 01:01:00.000   30.531678593  114.357270756    27.8952   6   7   0.1452   0.1750   0.2637  -0.0254   0.0940  -0.1519   0.00    0.0
2026/01/15 01:02:30.000   30.531678609  114.357270812    27.8964   6   7   0.1431   0.1723   0.2606  -0.0258   0.0930  -0.1499   0.00    0.0
2026/01/15 01:03:00.000   30.531678613  114.357270812    27.9002   6   7   0.1412   0.1699   0.2578  -0.0261   0.0920  -0.1483   0.00    0.0
2026/01/15 01:03:30.000   30.531678630  114.357270822    27.9003   6   7   0.1393   0.1676   0.2550  -0.0264   0.0911  -0.1466   0.00    0.0
2026/01/15 01:04:00.000   30.531678636  114.357270826    27.9025   6   7   0.1375   0.1654   0.2523  -0.0265   0.0901  -0.1450   0.00    0.0
2026/01/15 01:04:30.000   30.531678634  114.357270814    27.9058   6   7   0.1357   0.1632   0.2496  -0.0267   0.0892  -0.1434   0.00    0.0
2026/01/15 01:05:00.000   30.531678640  114.357270805    27.9075   6   7   0.1340   0.1611   0.2469  -0.0267   0.0882  -0.1418   0.00    0.0
2026/01/15 01:05:30.000   30.531678642  114.357270817    27.9103   6   7   0.1323   0.1590   0.2443  -0.0268   0.0873  -0.1403   0.00    0.0
2026/01/15 01:06:00.000   30.531678641  114.357270809    27.9129   6   7   0.1307   0.1569   0.2417  -0.0268   0.0863  -0.1387   0.00    0.0
2026/01/15 01:06:30.000   30.531678646  114.357270809    27.9154   6   7   0.1290   0.1549   0.2391  -0.0268   0.0853  -0.1372   0.00    0.0
2026/01/15 01:07:00.000   30.531678638  114.357270796    27.9191   6   7   0.1275   0.1530   0.2366  -0.0267   0.0844  -0.1357   0.00    0.0
2026/01/15 01:08:00.000   30.531678637  114.357270802    27.9217   6   7   0.1258   0.1509   0.2339  -0.0267   0.0833  -0.1341   0.00    0.0
2026/01/15 01:09:00.000   30.531678632  114.357270793    27.9250   6   7   0.1241   0.1488   0.2312  -0.0266   0.0822  -0.1325   0.00    0.0
2026/01/15 01:09:30.000   30.531678634  114.357270796    27.9267   6   7   0.1225   0.1469   0.2287  -0.0264   0.0812  -0.1310   0.00    0.0
2026/01/15 01:10:00.000   30.531678632  114.357270770    27.9279   6   7   0.1210   0.1450   0.2261  -0.0263   0.0801  -0.1295   0.00    0.0
2026/01/15 01:10:30.000   30.531678631  114.357270768    27.9313   6   7   0.1195   0.1431   0.2236  -0.0261   0.0791  -0.1280   0.00    0.0
2026/01/15 01:11:00.000   30.531678633  114.357270772    27.9329   6   7   0.1180   0.1413   0.2212  -0.0259   0.0781  -0.1266   0.00    0.0
2026/01/15 01:11:30.000   30.531678634  114.357270777    27.9350   6   7   0.1166   0.1396   0.2188  -0.0257   0.0770  -0.1252   0.00    0.0
2026/01/15 01:12:00.000   30.531678635  114.357270782    27.9374   6   7   0.1152   0.1378   0.2164  -0.0254   0.0760  -0.1238   0.00    0.0
2026/01/15 01:12:30.000   30.531678631  114.357270776    27.9395   6   7   0.1138   0.1361   0.2141  -0.0252   0.0750  -0.1224   0.00    0.0
2026/01/15 01:13:00.000   30.531678621  114.357270786    27.9433   6   7   0.1125   0.1345   0.2118  -0.0249   0.0740  -0.1211   0.00    0.0
2026/01/15 01:13:30.000   30.531678617  114.357270783    27.9461   6   7   0.1111   0.1329   0.2095  -0.0247   0.0730  -0.1198   0.00    0.0
2026/01/15 01:14:00.000   30.531678608  114.357270778    27.9489   6   7   0.1098   0.1313   0.2073  -0.0244   0.0720  -0.1185   0.00    0.0
2026/01/15 01:14:30.000   30.531678604  114.357270775    27.9513   6   7   0.1086   0.1298   0.2051  -0.0241   0.0710  -0.1172   0.00    0.0
2026/01/15 01:16:00.000   30.531678597  114.357270772    27.9541   6   7   0.1064   0.1279   0.2022  -0.0253   0.0703  -0.1152   0.00    0.0
2026/01/15 01:16:30.000   30.531678596  114.357270760    27.9564   6   7   0.1052   0.1263   0.2000  -0.0249   0.0692  -0.1139   0.00    0.0
2026/01/15 01:18:00.000   30.531678600  114.357270778    27.9573   6   7   0.1039   0.1246   0.1976  -0.0245   0.0681  -0.1125   0.00    0.0
2026/01/15 01:18:30.000   30.531678599  114.357270762    27.9595   6   7   0.1026   0.1230   0.1953  -0.0241   0.0670  -0.1112   0.00    0.0
2026/01/15 01:19:00.000   30.531678598  114.357270756    27.9615   6   7   0.1014   0.1215   0.1931  -0.0236   0.0659  -0.1099   0.00    0.0
2026/01/15 01:19:30.000   30.531678597  114.357270744    27.9630   6   7   0.1002   0.1200   0.1910  -0.0232   0.0648  -0.1087   0.00    0.0
2026/01/15 01:20:00.000   30.531678594  114.357270734    27.9652   6   7   0.0990   0.1186   0.1888  -0.0228   0.0637  -0.1074   0.00    0.0
2026/01/15 01:20:30.000   30.531678596  114.357270733    27.9670   6   7   0.0979   0.1172   0.1868  -0.0223   0.0627  -0.1062   0.00    0.0
2026/01/15 01:21:30.000   30.531678600  114.357270741    27.9676   6   7   0.0967   0.1157   0.1846  -0.0219   0.0616  -0.1050   0.00    0.0
2026/01/15 01:23:30.000   30.531678607  114.357270753    27.9679   6   7   0.0954   0.1141   0.1823  -0.0215   0.0605  -0.1036   0.00    0.0
2026/01/15 01:25:00.000   30.531678615  114.357270721    27.9664   6   7   0.0941   0.1125   0.1799  -0.0210   0.0592  -0.1022   0.00    0.0
2026/01/15 01:26:00.000   30.531678616  114.357270704    27.9667   6   7   0.0929   0.1109   0.1776  -0.0204   0.0580  -0.1008   0.00    0.0
2026/01/15 01:27:30.000   30.531678624  114.357270682    27.9666   6   7   0.0916   0.1093   0.1752  -0.0199   0.0567  -0.0994   0.00    0.0
2026/01/15 01:30:30.000   30.531678626  114.357270670    27.9689   6   7   0.0901   0.1075   0.1725  -0.0193   0.0552  -0.0978   0.00    0.0
2026/01/15 01:32:30.000   30.531678630  114.357270652    27.9692   6   7   0.0886   0.1057   0.1698  -0.0186   0.0537  -0.0962   0.00    0.0
2026/01/15 01:36:00.000   30.531678651  114.357270619    27.9642   6   8   0.0870   0.1037   0.1668  -0.0179   0.0519  -0.0943   0.00    0.0
2026/01/15 01:37:00.000   30.531678655  114.357270587    27.9641   6   8   0.0855   0.1019   0.1640  -0.0170   0.0502  -0.0927   0.00    0.0
2026/01/15 01:38:30.000   30.531678660  114.357270543    27.9624   6   8   0.0840   0.1001   0.1612  -0.0162   0.0484  -0.0910   0.00    0.0
2026/01/15 01:39:30.000   30.531678663  114.357270516    27.9615   6   8   0.0826   0.0983   0.1585  -0.0153   0.0467  -0.0894   0.00    0.0
2026/01/15 01:42:00.000   30.531678685  114.357270479    27.9557   6   8   0.0801   0.0963   0.1539  -0.0131   0.0436  -0.0864   0.00    0.0
2026/01/15 01:44:00.000   30.531678695  114.357270447    27.9519   6   6   0.0787   0.0949   0.1512  -0.0130   0.0416  -0.0847   0.00    0.0
2026/01/15 01:44:30.000   30.531678705  114.357270433    27.9508   6   6   0.0777   0.0937   0.1488  -0.0113   0.0394  -0.0835   0.00    0.0
2026/01/15 01:45:00.000   30.531678719  114.357270404    27.9491   6   8   0.0764   0.0921   0.1464  -0.0103   0.0378  -0.0821   0.00    0.0
2026/01/15 01:45:30.000   30.531678729  114.357270368    27.9479   6   8   0.0751   0.0906   0.1440  -0.0092   0.0362  -0.0807   0.00    0.0
2026/01/15 01:47:30.000   30.531678743  114.357270317    27.9428   6   8   0.0738   0.0890   0.1416  -0.0079   0.0345  -0.0793   0.00    0.0
2026/01/15 01:48:00.000   30.531678753  114.357270283    27.9417   6   8   0.0726   0.0875   0.1394  -0.0066   0.0329  -0.0780   0.00    0.0
2026/01/15 01:48:30.000   30.531678745  114.357270273    27.9444   6   7   0.0719   0.0866   0.1379  -0.0095   0.0331  -0.0774   0.00    0.0
2026/01/15 01:49:30.000   30.531678744  114.357270269    27.9461   6   5   0.0716   0.0858   0.1367  -0.0109   0.0327  -0.0772   0.00    0.0
2026/01/15 01:51:00.000   30.531678739  114.357270259    27.9470   6   8   0.0709   0.0848   0.1352  -0.0127   0.0328  -0.0766   0.00    0.0
2026/01/15 01:51:30.000   30.531678737  114.357270247    27.9477   6   8   0.0702   0.0839   0.1338  -0.0142   0.0330  -0.0760   0.00    0.0
2026/01/15 02:57:30.000   30.531678780  114.357270430    27.8951   6   6   0.0692   0.0814   0.1323  -0.0141   0.0319  -0.0748   0.00    0.0
2026/01/15 03:21:00.000   30.531678709  114.357270512    27.8958   6   4   0.0686   0.0805   0.1316  -0.0139   0.0316  -0.0741   0.00    0.0
2026/01/15 03:25:30.000   30.531678702  114.357270515    27.8952   6   5   0.0685   0.0804   0.1314  -0.0139   0.0316  -0.0739   0.00    0.0
2026/01/15 03:29:00.000   30.531678694  114.357270522    27.8950   6   5   0.0684   0.0802   0.1313  -0.0139   0.0316  -0.0738   0.00    0.0
2026/01/15 03:45:30.000   30.531678633  114.357270473    27.8992   6   5   0.0680   0.0797   0.1307  -0.0140   0.0316  -0.0732   0.00    0.0
2026/01/15 12:41:30.000   30.531677173  114.357270498    27.9548   6   5   0.0591   0.0659   0.1171  -0.0125   0.0244  -0.0611   0.00    0.0
2026/01/15 12:56:00.000   30.531677195  114.357270406    27.9447   6   6   0.0589   0.0655   0.1168  -0.0123   0.0241  -0.0609   0.00    0.0
2026/01/15 12:56:30.000   30.531677196  114.357270402    27.9447   6   7   0.0589   0.0654   0.1168  -0.0123   0.0241  -0.0609   0.00    0.0
2026/01/15 12:57:00.000   30.531677198  114.357270403    27.9445   6   7   0.0589   0.0654   0.1168  -0.0123   0.0241  -0.0609   0.00    0.0
2026/01/15 12:57:30.000   30.531677198  114.357270398    27.9445   6   7   0.0589   0.0654   0.1168  -0.0123   0.0241  -0.0608   0.00    0.0
2026/01/15 12:58:30.000   30.531677198  114.357270392    27.9444   6   7   0.0588   0.0654   0.1168  -0.0123   0.0241  -0.0608   0.00    0.0
2026/01/15 13:00:30.000   30.531677204  114.357270378    27.9433   6   7   0.0588   0.0653   0.1167  -0.0122   0.0241  -0.0608   0.00    0.0
2026/01/15 13:03:00.000   30.531677216  114.357270363    27.9413   6   7   0.0588   0.0652   0.1167  -0.0122   0.0240  -0.0608   0.00    0.0
2026/01/15 13:04:00.000   30.531677220  114.357270362    27.9409   6   7   0.0588   0.0652   0.1167  -0.0122   0.0240  -0.0607   0.00    0.0
2026/01/15 13:05:00.000   30.531677220  114.357270358    27.9412   6   7   0.0587   0.0652   0.1166  -0.0122   0.0240  -0.0607   0.00    0.0
2026/01/15 13:06:30.000   30.531677225  114.357270343    27.9406   6   7   0.0587   0.0651   0.1166  -0.0122   0.0240  -0.0607   0.00    0.0
2026/01/15 13:07:00.000   30.531677226  114.357270339    27.9407   6   6   0.0587   0.0651   0.1166  -0.0122   0.0240  -0.0607   0.00    0.0
2026/01/15 13:09:30.000   30.531677238  114.357270324    27.9395   6   7   0.0587   0.0650   0.1165  -0.0122   0.0240  -0.0606   0.00    0.0
2026/01/15 13:10:00.000   30.531677240  114.357270318    27.9397   6   7   0.0586   0.0650   0.1164  -0.0122   0.0240  -0.0606   0.00    0.0
2026/01/15 13:12:00.000   30.531677247  114.357270301    27.9393   6   7   0.0586   0.0649   0.1164  -0.0122   0.0240  -0.0606   0.00    0.0
2026/01/15 13:12:30.000   30.531677249  114.357270296    27.9397   6   7   0.0586   0.0649   0.1163  -0.0122   0.0239  -0.0605   0.00    0.0
2026/01/15 13:13:00.000   30.531677249  114.357270293    27.9400   6   7   0.0586   0.0649   0.1163  -0.0122   0.0239  -0.0605   0.00    0.0
2026/01/15 13:14:00.000   30.531677254  114.357270282    27.9395   6   7   0.0585   0.0648   0.1162  -0.0122   0.0239  -0.0605   0.00    0.0
2026/01/15 13:14:30.000   30.531677256  114.357270275    27.9396   6   7   0.0585   0.0648   0.1162  -0.0122   0.0239  -0.0605   0.00    0.0
2026/01/15 13:15:00.000   30.531677258  114.357270273    27.9396   6   7   0.0585   0.0648   0.1161  -0.0122   0.0239  -0.0604   0.00    0.0
2026/01/15 13:15:30.000   30.531677261  114.357270268    27.9397   6   7   0.0585   0.0647   0.1161  -0.0122   0.0239  -0.0604   0.00    0.0
2026/01/15 13:17:30.000   30.531677270  114.357270251    27.9388   6   7   0.0584   0.0647   0.1160  -0.0122   0.0238  -0.0604   0.00    0.0
2026/01/15 13:18:00.000   30.531677271  114.357270251    27.9396   6   7   0.0584   0.0646   0.1159  -0.0122   0.0238  -0.0603   0.00    0.0
2026/01/15 13:18:30.000   30.531677275  114.357270251    27.9398   6   7   0.0584   0.0646   0.1158  -0.0122   0.0238  -0.0603   0.00    0.0
2026/01/15 13:19:00.000   30.531677276  114.357270250    27.9405   6   7   0.0583   0.0646   0.1158  -0.0122   0.0238  -0.0603   0.00    0.0
2026/01/15 13:19:30.000   30.531677280  114.357270248    27.9408   6   7   0.0583   0.0645   0.1157  -0.0122   0.0237  -0.0603   0.00    0.0
2026/01/15 13:20:00.000   30.531677282  114.357270245    27.9412   6   7   0.0583   0.0645   0.1156  -0.0122   0.0237  -0.0602   0.00    0.0
2026/01/15 13:20:30.000   30.531677283  114.357270243    27.9416   6   7   0.0583   0.0645   0.1156  -0.0122   0.0237  -0.0602   0.00    0.0
2026/01/15 13:21:00.000   30.531677285  114.357270244    27.9422   6   8   0.0582   0.0644   0.1155  -0.0121   0.0237  -0.0602   0.00    0.0
2026/01/15 13:21:30.000   30.531677287  114.357270242    27.9428   6   8   0.0582   0.0644   0.1154  -0.0121   0.0236  -0.0601   0.00    0.0
2026/01/15 13:22:00.000   30.531677287  114.357270240    27.9435   6   8   0.0582   0.0644   0.1154  -0.0121   0.0236  -0.0601   0.00    0.0
2026/01/15 13:22:30.000   30.531677287  114.357270238    27.9440   6   8   0.0581   0.0643   0.1153  -0.0121   0.0236  -0.0601   0.00    0.0
2026/01/15 13:23:00.000   30.531677290  114.357270234    27.9443   6   8   0.0581   0.0643   0.1152  -0.0121   0.0235  -0.0601   0.00    0.0
2026/01/15 13:23:30.000   30.531677294  114.357270229    27.9445   6   8   0.0581   0.0643   0.1152  -0.0121   0.0235  -0.0600   0.00    0.0
2026/01/15 13:24:00.000   30.531677295  114.357270224    27.9449   6   8   0.0580   0.0642   0.1151  -0.0121   0.0235  -0.0600   0.00    0.0
2026/01/15 13:25:00.000   30.531677299  114.357270224    27.9452   6   9   0.0580   0.0642   0.1150  -0.0121   0.0234  -0.0599   0.00    0.0
2026/01/15 13:26:00.000   30.531677306  114.357270222    27.9451   6   9   0.0580   0.0641   0.1149  -0.0120   0.0234  -0.0599   0.00    0.0
2026/01/15 13:26:30.000   30.531677307  114.357270223    27.9460   6   9   0.0579   0.0641   0.1148  -0.0120   0.0233  -0.0599   0.00    0.0
2026/01/15 13:27:00.000   30.531677308  114.357270223    27.9467   6   9   0.0579   0.0640   0.1147  -0.0120   0.0232  -0.0598   0.00    0.0
2026/01/15 13:27:30.000   30.531677311  114.357270226    27.9471   6   9   0.0578   0.0640   0.1146  -0.0120   0.0232  -0.0598   0.00    0.0
2026/01/15 13:28:00.000   30.531677313  114.357270224    27.9481   6   9   0.0578   0.0640   0.1145  -0.0119   0.0231  -0.0597   0.00    0.0
2026/01/15 13:28:30.000   30.531677314  114.357270223    27.9490   6   9   0.0578   0.0639   0.1144  -0.0119   0.0231  -0.0597   0.00    0.0
2026/01/15 13:29:00.000   30.531677318  114.357270220    27.9498   6   9   0.0577   0.0639   0.1143  -0.0119   0.0230  -0.0597   0.00    0.0
2026/01/15 13:29:30.000   30.531677322  114.357270226    27.9504   6   9   0.0577   0.0638   0.1142  -0.0118   0.0229  -0.0596   0.00    0.0
2026/01/15 13:30:00.000   30.531677327  114.357270227    27.9507   6   9   0.0576   0.0638   0.1141  -0.0118   0.0228  -0.0596   0.00    0.0
2026/01/15 13:30:30.000   30.531677330  114.357270225    27.9515   6   9   0.0576   0.0637   0.1140  -0.0118   0.0228  -0.0595   0.00    0.0
2026/01/15 13:31:00.000   30.531677334  114.357270228    27.9519   6   9   0.0575   0.0637   0.1139  -0.0117   0.0227  -0.0595   0.00    0.0
2026/01/15 13:31:30.000   30.531677336  114.357270230    27.9528   6   9   0.0575   0.0636   0.1138  -0.0117   0.0226  -0.0594   0.00    0.0
2026/01/15 13:32:00.000   30.531677339  114.357270231    27.9534   6   9   0.0574   0.0636   0.1137  -0.0117   0.0225  -0.0594   0.00    0.0
2026/01/15 13:32:30.000   30.531677343  114.357270227    27.9530   6   5   0.0574   0.0636   0.1136  -0.0116   0.0225  -0.0593   0.00    0.0
2026/01/15 13:33:00.000   30.531677349  114.357270226    27.9530   6   9   0.0574   0.0635   0.1135  -0.0115   0.0224  -0.0593   0.00    0.0
2026/01/15 13:33:30.000   30.531677351  114.357270223    27.9541   6   9   0.0573   0.0635   0.1134  -0.0115   0.0223  -0.0592   0.00    0.0
2026/01/15 13:34:00.000   30.531677353  114.357270221    27.9550   6   9   0.0573   0.0634   0.1133  -0.0115   0.0222  -0.0592   0.00    0.0
2026/01/15 13:34:30.000   30.531677357  114.357270224    27.9558   6   8   0.0572   0.0634   0.1131  -0.0114   0.0221  -0.0591   0.00    0.0
2026/01/15 13:35:30.000   30.531677362  114.357270223    27.9565   6   8   0.0572   0.0633   0.1130  -0.0114   0.0220  -0.0591   0.00    0.0
2026/01/15 13:36:00.000   30.531677366  114.357270222    27.9573   6   8   0.0571   0.0632   0.1128  -0.0113   0.0218  -0.0590   0.00    0.0
2026/01/15 13:36:30.000   30.531677368  114.357270219    27.9585   6   8   0.0570   0.0632   0.1127  -0.0112   0.0217  -0.0590   0.00    0.0
2026/01/15 13:37:00.000   30.531677370  114.357270219    27.9597   6   8   0.0570   0.0631   0.1126  -0.0112   0.0216  -0.0589   0.00    0.0
2026/01/15 13:37:30.000   30.531677371  114.357270218    27.9612   6   8   0.0569   0.0631   0.1124  -0.0111   0.0215  -0.0589   0.00    0.0
2026/01/15 13:38:00.000   30.531677373  114.357270219    27.9628   6   8   0.0569   0.0630   0.1123  -0.0110   0.0213  -0.0588   0.00    0.0
2026/01/15 13:38:30.000   30.531677375  114.357270218    27.9639   6   8   0.0568   0.0630   0.1121  -0.0110   0.0212  -0.0587   0.00    0.0
2026/01/15 13:39:00.000   30.531677377  114.357270215    27.9652   6   8   0.0567   0.0629   0.1120  -0.0109   0.0210  -0.0587   0.00    0.0
2026/01/15 13:40:00.000   30.531677383  114.357270211    27.9656   6   8   0.0567   0.0628   0.1118  -0.0108   0.0209  -0.0586   0.00    0.0
2026/01/15 13:40:30.000   30.531677389  114.357270209    27.9663   6   8   0.0566   0.0628   0.1116  -0.0107   0.0207  -0.0585   0.00    0.0
2026/01/15 13:41:00.000   30.531677390  114.357270207    27.9682   6   8   0.0565   0.0627   0.1115  -0.0107   0.0206  -0.0585   0.00    0.0
2026/01/15 13:41:30.000   30.531677395  114.357270206    27.9694   6   8   0.0565   0.0626   0.1113  -0.0106   0.0204  -0.0584   0.00    0.0
2026/01/15 13:42:00.000   30.531677398  114.357270207    27.9707   6   8   0.0564   0.0626   0.1111  -0.0105   0.0202  -0.0583   0.00    0.0
2026/01/15 13:42:30.000   30.531677402  114.357270206    27.9719   6   8   0.0563   0.0625   0.1110  -0.0104   0.0200  -0.0583   0.00    0.0
2026/01/15 13:43:00.000   30.531677405  114.357270205    27.9734   6   8   0.0562   0.0624   0.1108  -0.0103   0.0198  -0.0582   0.00    0.0
2026/01/15 13:43:30.000   30.531677410  114.357270203    27.9741   6   8   0.0562   0.0624   0.1106  -0.0102   0.0196  -0.0581   0.00    0.0
2026/01/15 13:44:00.000   30.531677415  114.357270203    27.9745   6   8   0.0561   0.0623   0.1104  -0.0101   0.0194  -0.0581   0.00    0.0
2026/01/15 13:44:30.000   30.531677420  114.357270203    27.9752   6   8   0.0560   0.0622   0.1103  -0.0100   0.0192  -0.0580   0.00    0.0
2026/01/15 13:45:00.000   30.531677428  114.357270201    27.9759   6   9   0.0559   0.0622   0.1101  -0.0099   0.0190  -0.0579   0.00    0.0
2026/01/15 13:45:30.000   30.531677432  114.357270200    27.9768   6   9   0.0559   0.0621   0.1099  -0.0098   0.0188  -0.0578   0.00    0.0
2026/01/15 13:46:00.000   30.531677437  114.357270198    27.9779   6   9   0.0558   0.0620   0.1097  -0.0096   0.0186  -0.0578   0.00    0.0
2026/01/15 13:46:30.000   30.531677442  114.357270200    27.9790   6   9   0.0557   0.0620   0.1095  -0.0095   0.0183  -0.0577   0.00    0.0
2026/01/15 13:47:00.000   30.531677450  114.357270200    27.9798   6   9   0.0556   0.0619   0.1093  -0.0094   0.0181  -0.0576   0.00    0.0
2026/01/15 13:47:30.000   30.531677455  114.357270199    27.9809   6   9   0.0555   0.0618   0.1091  -0.0093   0.0178  -0.0575   0.00    0.0
2026/01/15 13:48:00.000   30.531677461  114.357270198    27.9820   6   9   0.0555   0.0617   0.1089  -0.0091   0.0176  -0.0574   0.00    0.0
2026/01/15 13:48:30.000   30.531677466  114.357270194    27.9830   6   9   0.0554   0.0617   0.1087  -0.0090   0.0173  -0.0574   0.00    0.0
2026/01/15 13:49:00.000   30.531677472  114.357270195    27.9842   6   9   0.0553   0.0616   0.1085  -0.0088   0.0170  -0.0573   0.00    0.0
2026/01/15 13:49:30.000   30.531677479  114.357270195    27.9853   6   9   0.0552   0.0615   0.1083  -0.0087   0.0167  -0.0572   0.00    0.0
2026/01/15 13:50:00.000   30.531677484  114.357270192    27.9867   6   9   0.0551   0.0614   0.1081  -0.0085   0.0164  -0.0571   0.00    0.0
2026/01/15 13:50:30.000   30.531677490  114.357270192    27.9881   6   9   0.0550   0.0614   0.1078  -0.0084   0.0161  -0.0570   0.00    0.0
2026/01/15 13:51:00.000   30.531677498  114.357270190    27.9886   6   9   0.0549   0.0613   0.1076  -0.0082   0.0158  -0.0569   0.00    0.0
2026/01/15 13:51:30.000   30.531677505  114.357270190    27.9892   6   9   0.0548   0.0612   0.1074  -0.0080   0.0155  -0.0568   0.00    0.0
2026/01/15 13:52:00.000   30.531677512  114.357270187    27.9904   6   7   0.0548   0.0611   0.1073  -0.0079   0.0152  -0.0568   0.00    0.0
2026/01/15 13:52:30.000   30.531677519  114.357270187    27.9916   6   8   0.0547   0.0611   0.1071  -0.0077   0.0150  -0.0567   0.00    0.0
2026/01/15 13:53:00.000   30.531677525  114.357270190    27.9927   6   8   0.0546   0.0610   0.1069  -0.0075   0.0148  -0.0566   0.00    0.0
2026/01/15 13:53:30.000   30.531677531  114.357270191    27.9937   6   8   0.0545   0.0609   0.1068  -0.0073   0.0145  -0.0565   0.00    0.0
2026/01/15 13:54:00.000   30.531677538  114.357270189    27.9949   6   8   0.0544   0.0608   0.1066  -0.0071   0.0142  -0.0564   0.00    0.0
2026/01/15 13:54:30.000   30.531677546  114.357270187    27.9956   6   8   0.0543   0.0608   0.1064  -0.0069   0.0140  -0.0563   0.00    0.0
2026/01/15 13:55:00.000   30.531677553  114.357270187    27.9967   6   8   0.0542   0.0607   0.1063  -0.0067   0.0137  -0.0562   0.00    0.0
2026/01/15 13:55:30.000   30.531677560  114.357270186    27.9976   6   8   0.0541   0.0606   0.1061  -0.0065   0.0134  -0.0561   0.00    0.0
2026/01/15 13:56:00.000   30.531677569  114.357270186    27.9982   6   8   0.0540   0.0605   0.1059  -0.0062   0.0131  -0.0560   0.00    0.0
2026/01/15 13:56:30.000   30.531677579  114.357270187    27.9990   6   8   0.0539   0.0605   0.1057  -0.0060   0.0128  -0.0560   0.00    0.0
2026/01/15 13:57:00.000   30.531677587  114.357270187    27.9999   6   8   0.0538   0.0604   0.1055  -0.0057   0.0124  -0.0559   0.00    0.0
2026/01/15 13:57:30.000   30.531677597  114.357270184    28.0003   6   8   0.0537   0.0603   0.1054  -0.0055   0.0121  -0.0558   0.00    0.0
2026/01/15 13:58:00.000   30.531677607  114.357270184    28.0006   6   8   0.0536   0.0602   0.1052  -0.0052   0.0117  -0.0557   0.00    0.0
2026/01/15 13:58:30.000   30.531677615  114.357270185    28.0014   6   8   0.0535   0.0601   0.1050  -0.0048   0.0114  -0.0556   0.00    0.0
2026/01/15 13:59:00.000   30.531677626  114.357270183    28.0017   6   8   0.0534   0.0601   0.1048  -0.0045   0.0110  -0.0555   0.00    0.0
2026/01/15 13:59:30.000   30.531677637  114.357270180    28.0021   6   8   0.0532   0.0600   0.1046  -0.0041   0.0105  -0.0554   0.00    0.0
2026/01/15 14:00:00.000   30.531677647  114.357270174    28.0024   6   8   0.0531   0.0599   0.1044  -0.0037   0.0101  -0.0553   0.00    0.0
2026/01/15 14:00:30.000   30.531677656  114.357270170    28.0031   6   9   0.0530   0.0598   0.1042  -0.0032   0.0096  -0.0552   0.00    0.0
2026/01/15 14:01:00.000   30.531677666  114.357270167    28.0037   6   9   0.0529   0.0597   0.1040  -0.0027   0.0091  -0.0551   0.00    0.0
2026/01/15 14:01:30.000   30.531677676  114.357270161    28.0043   6   9   0.0528   0.0597   0.1038  -0.0019   0.0086  -0.0550   0.00    0.0
2026/01/15 14:02:00.000   30.531677686  114.357270157    28.0048   6   9   0.0527   0.0596   0.1036  -0.0005   0.0080  -0.0549   0.00    0.0
2026/01/15 14:02:30.000   30.531677694  114.357270158    28.0056   6   9   0.0526   0.0595   0.1034   0.0018   0.0074  -0.0547   0.00    0.0
2026/01/15 14:03:00.000   30.531677703  114.357270156    28.0064   6   9   0.0525   0.0594   0.1032   0.0026   0.0067  -0.0546   0.00    0.0
2026/01/15 14:03:30.000   30.531677712  114.357270156    28.0068   6   9   0.0524   0.0593   0.1030   0.0032   0.0058  -0.0545   0.00    0.0
2026/01/15 14:04:00.000   30.531677722  114.357270155    28.0074   6   9   0.0522   0.0592   0.1028   0.0037   0.0049  -0.0544   0.00    0.0
2026/01/15 14:04:30.000   30.531677731  114.357270154    28.0083   6   9   0.0521   0.0592   0.1026   0.0042   0.0037  -0.0543   0.00    0.0
2026/01/15 14:05:00.000   30.531677742  114.357270151    28.0084   6   9   0.0520   0.0591   0.1024   0.0046   0.0018  -0.0542   0.00    0.0
2026/01/15 14:05:30.000   30.531677753  114.357270150    28.0090   6   9   0.0519   0.0590   0.1021   0.0050  -0.0027  -0.0541   0.00    0.0
2026/01/15 14:06:00.000   30.531677760  114.357270149    28.0098   6   9   0.0518   0.0589   0.1019   0.0053  -0.0042  -0.0540   0.00    0.0
2026/01/15 14:06:30.000   30.531677771  114.357270147    28.0106   6   9   0.0516   0.0588   0.1017   0.0056  -0.0053  -0.0539   0.00    0.0
2026/01/15 14:07:00.000   30.531677780  114.357270144    28.0112   6   9   0.0515   0.0587   0.1015   0.0060  -0.0063  -0.0538   0.00    0.0
2026/01/15 14:07:30.000   30.531677791  114.357270144    28.0118   6   9   0.0514   0.0586   0.1012   0.0063  -0.0071  -0.0536   0.00    0.0
2026/01/15 14:08:00.000   30.531677800  114.357270145    28.0125   6   9   0.0513   0.0585   0.1010   0.0065  -0.0078  -0.0535   0.00    0.0
2026/01/15 14:08:30.000   30.531677811  114.357270141    28.0125   6   9   0.0511   0.0585   0.1008   0.0068  -0.0085  -0.0534   0.00    0.0
2026/01/15 14:09:00.000   30.531677819  114.357270144    28.0136   6   9   0.0511   0.0584   0.1007   0.0068  -0.0087  -0.0534   0.00    0.0
2026/01/15 14:09:30.000   30.531677827  114.357270144    28.0145   6   9   0.0510   0.0583   0.1006   0.0068  -0.0088  -0.0534   0.00    0.0
2026/01/15 14:10:00.000   30.531677834  114.357270146    28.0158   6   9   0.0509   0.0583   0.1004   0.0068  -0.0090  -0.0534   0.00    0.0
2026/01/15 14:10:30.000   30.531677839  114.357270145    28.0172   6   8   0.0509   0.0582   0.1003   0.0068  -0.0092  -0.0534   0.00    0.0
2026/01/15 14:11:00.000   30.531677845  114.357270144    28.0186   6   9   0.0508   0.0581   0.1002   0.0067  -0.0094  -0.0533   0.00    0.0
2026/01/15 14:11:30.000   30.531677851  114.357270145    28.0197   6   8   0.0507   0.0581   0.1001   0.0067  -0.0095  -0.0533   0.00    0.0
2026/01/15 14:12:00.000   30.531677857  114.357270146    28.0212   6   8   0.0506   0.0580   0.0999   0.0067  -0.0097  -0.0533   0.00    0.0
2026/01/15 14:13:00.000   30.531677865  114.357270145    28.0222   6   8   0.0506   0.0579   0.0998   0.0067  -0.0099  -0.0533   0.00    0.0
2026/01/15 14:13:30.000   30.531677868  114.357270146    28.0222   6   5   0.0505   0.0579   0.0998   0.0068  -0.0099  -0.0532   0.00    0.0
2026/01/15 14:14:00.000   30.531677876  114.357270149    28.0236   6   8   0.0504   0.0578   0.0996   0.0068  -0.0101  -0.0532   0.00    0.0
2026/01/15 14:14:30.000   30.531677883  114.357270152    28.0252   6   8   0.0504   0.0577   0.0995   0.0068  -0.0103  -0.0532   0.00    0.0
2026/01/15 14:15:00.000   30.531677890  114.357270152    28.0265   6   8   0.0503   0.0577   0.0993   0.0068  -0.0105  -0.0532   0.00    0.0
2026/01/15 14:15:30.000   30.531677897  114.357270154    28.0275   6   8   0.0502   0.0576   0.0992   0.0068  -0.0107  -0.0532   0.00    0.0
2026/01/15 14:16:00.000   30.531677905  114.357270156    28.0286   6   8   0.0501   0.0575   0.0990   0.0067  -0.0109  -0.0531   0.00    0.0
2026/01/15 14:16:30.000   30.531677912  114.357270157    28.0298   6   8   0.0500   0.0575   0.0989   0.0067  -0.0111  -0.0531   0.00    0.0
2026/01/15 14:17:00.000   30.531677921  114.357270160    28.0312   6   8   0.0499   0.0574   0.0987   0.0067  -0.0113  -0.0531   0.00    0.0
2026/01/15 14:17:30.000   30.531677928  114.357270161    28.0326   6   8   0.0498   0.0573   0.0986   0.0067  -0.0114  -0.0530   0.00    0.0
2026/01/15 14:18:00.000   30.531677935  114.357270163    28.0341   6   8   0.0498   0.0573   0.0984   0.0067  -0.0116  -0.0530   0.00    0.0
2026/01/15 14:18:30.000   30.531677942  114.357270167    28.0356   6   8   0.0497   0.0572   0.0983   0.0067  -0.0118  -0.0530   0.00    0.0
2026/01/15 14:19:00.000   30.531677949  114.357270169    28.0370   6   8   0.0496   0.0571   0.0981   0.0067  -0.0120  -0.0529   0.00    0.0
2026/01/15 14:19:30.000   30.531677955  114.357270170    28.0384   6   8   0.0495   0.0570   0.0979   0.0067  -0.0122  -0.0529   0.00    0.0
2026/01/15 14:20:00.000   30.531677961  114.357270173    28.0398   6   8   0.0494   0.0570   0.0978   0.0068  -0.0124  -0.0529   0.00    0.0
2026/01/15 14:20:30.000   30.531677968  114.357270175    28.0411   6   8   0.0493   0.0569   0.0976   0.0068  -0.0126  -0.0528   0.00    0.0
2026/01/15 14:21:00.000   30.531677975  114.357270175    28.0423   6   8   0.0492   0.0568   0.0974   0.0068  -0.0128  -0.0528   0.00    0.0
2026/01/15 14:21:30.000   30.531677982  114.357270178    28.0432   6   8   0.0491   0.0568   0.0972   0.0068  -0.0129  -0.0527   0.00    0.0
2026/01/15 14:22:00.000   30.531677989  114.357270180    28.0442   6   8   0.0490   0.0567   0.0971   0.0068  -0.0131  -0.0527   0.00    0.0
2026/01/15 14:22:30.000   30.531677995  114.357270180    28.0451   6   8   0.0489   0.0566   0.0969   0.0068  -0.0133  -0.0526   0.00    0.0
2026/01/15 14:23:00.000   30.531678003  114.357270181    28.0459   6   8   0.0489   0.0565   0.0967   0.0068  -0.0135  -0.0526   0.00    0.0
2026/01/15 14:23:30.000   30.531678009  114.357270181    28.0468   6   8   0.0488   0.0565   0.0965   0.0068  -0.0137  -0.0525   0.00    0.0
2026/01/15 14:24:00.000   30.531678016  114.357270182    28.0471   6   8   0.0487   0.0564   0.0963   0.0068  -0.0138  -0.0525   0.00    0.0
2026/01/15 14:24:30.000   30.531678023  114.357270183    28.0479   6   8   0.0486   0.0563   0.0961   0.0068  -0.0140  -0.0524   0.00    0.0
2026/01/15 14:25:00.000   30.531678029  114.357270183    28.0489   6   8   0.0485   0.0562   0.0960   0.0068  -0.0142  -0.0524   0.00    0.0
2026/01/15 14:25:30.000   30.531678036  114.357270185    28.0495   6   8   0.0484   0.0562   0.0958   0.0068  -0.0144  -0.0523   0.00    0.0
2026/01/15 14:26:00.000   30.531678041  114.357270188    28.0503   6   8   0.0483   0.0561   0.0956   0.0069  -0.0145  -0.0523   0.00    0.0
2026/01/15 14:26:30.000   30.531678048  114.357270188    28.0510   6   8   0.0482   0.0560   0.0954   0.0069  -0.0147  -0.0522   0.00    0.0
2026/01/15 14:27:00.000   30.531678055  114.357270189    28.0516   6   8   0.0481   0.0559   0.0952   0.0069  -0.0149  -0.0521   0.00    0.0
2026/01/15 14:27:30.000   30.531678061  114.357270190    28.0522   6   8   0.0480   0.0559   0.0950   0.0069  -0.0151  -0.0521   0.00    0.0
2026/01/15 14:28:00.000   30.531678068  114.357270191    28.0528   6   8   0.0479   0.0558   0.0947   0.0069  -0.0152  -0.0520   0.00    0.0
2026/01/15 14:28:30.000   30.531678075  114.357270192    28.0535   6   8   0.0478   0.0557   0.0945   0.0069  -0.0154  -0.0519   0.00    0.0
2026/01/15 14:29:00.000   30.531678081  114.357270191    28.0541   6   8   0.0477   0.0556   0.0943   0.0069  -0.0156  -0.0519   0.00    0.0
2026/01/15 14:29:30.000   30.531678086  114.357270189    28.0547   6   8   0.0475   0.0556   0.0941   0.0070  -0.0157  -0.0518   0.00    0.0
2026/01/15 14:30:00.000   30.531678092  114.357270189    28.0553   6   8   0.0474   0.0555   0.0939   0.0070  -0.0159  -0.0517   0.00    0.0
2026/01/15 14:30:30.000   30.531678097  114.357270189    28.0559   6   8   0.0473   0.0554   0.0937   0.0070  -0.0160  -0.0516   0.00    0.0
2026/01/15 14:31:30.000   30.531678104  114.357270187    28.0561   6   8   0.0472   0.0553   0.0934   0.0070  -0.0162  -0.0515   0.00    0.0
2026/01/15 14:32:00.000   30.531678111  114.357270189    28.0565   6   8   0.0471   0.0553   0.0932   0.0070  -0.0164  -0.0515   0.00    0.0
2026/01/15 14:32:30.000   30.531678116  114.357270189    28.0569   6   8   0.0470   0.0552   0.0930   0.0070  -0.0165  -0.0514   0.00    0.0
2026/01/15 14:33:00.000   30.531678122  114.357270188    28.0571   6   8   0.0469   0.0551   0.0927   0.0071  -0.0167  -0.0513   0.00    0.0
2026/01/15 14:33:30.000   30.531678127  114.357270187    28.0577   6   8   0.0468   0.0550   0.0925   0.0071  -0.0168  -0.0512   0.00    0.0
2026/01/15 14:34:00.000   30.531678132  114.357270188    28.0582   6   7   0.0467   0.0550   0.0924   0.0070  -0.0168  -0.0511   0.00    0.0
2026/01/15 14:34:30.000   30.531678139  114.357270188    28.0587   6   6   0.0466   0.0549   0.0923   0.0070  -0.0168  -0.0511   0.00    0.0
2026/01/15 14:35:00.000   30.531678143  114.357270187    28.0593   6   7   0.0465   0.0548   0.0921   0.0070  -0.0168  -0.0510   0.00    0.0
2026/01/15 14:35:30.000   30.531678149  114.357270187    28.0598   6   7   0.0464   0.0548   0.0920   0.0070  -0.0168  -0.0510   0.00    0.0
2026/01/15 14:36:00.000   30.531678153  114.357270184    28.0602   6   7   0.0462   0.0547   0.0919   0.0070  -0.0168  -0.0509   0.00    0.0
2026/01/15 14:36:30.000   30.531678158  114.357270183    28.0603   6   7   0.0461   0.0547   0.0917   0.0070  -0.0168  -0.0508   0.00    0.0
2026/01/15 14:37:00.000   30.531678163  114.357270182    28.0606   6   7   0.0460   0.0546   0.0916   0.0070  -0.0168  -0.0508   0.00    0.0
2026/01/15 14:38:30.000   30.531678169  114.357270179    28.0608   6   7   0.0459   0.0546   0.0914   0.0069  -0.0168  -0.0507   0.00    0.0
2026/01/15 14:39:30.000   30.531678174  114.357270180    28.0610   6   7   0.0458   0.0545   0.0913   0.0069  -0.0167  -0.0506   0.00    0.0
2026/01/15 14:40:00.000   30.531678179  114.357270177    28.0613   6   7   0.0457   0.0544   0.0911   0.0069  -0.0167  -0.0505   0.00    0.0
2026/01/15 14:41:00.000   30.531678184  114.357270179    28.0615   6   7   0.0456   0.0544   0.0909   0.0069  -0.0167  -0.0505   0.00    0.0
2026/01/15 14:41:30.000   30.531678189  114.357270179    28.0619   6   7   0.0455   0.0543   0.0908   0.0068  -0.0167  -0.0504   0.00    0.0
2026/01/15 14:42:30.000   30.531678193  114.357270178    28.0621   6   7   0.0453   0.0543   0.0906   0.0068  -0.0167  -0.0503   0.00    0.0
2026/01/15 14:43:00.000   30.531678197  114.357270175    28.0623   6   7   0.0452   0.0542   0.0904   0.0068  -0.0166  -0.0502   0.00    0.0
2026/01/15 14:44:00.000   30.531678201  114.357270174    28.0626   6   7   0.0451   0.0541   0.0902   0.0068  -0.0166  -0.0501   0.00    0.0
2026/01/15 14:44:30.000   30.531678205  114.357270173    28.0628   6   7   0.0450   0.0541   0.0900   0.0067  -0.0166  -0.0500   0.00    0.0
2026/01/15 14:45:00.000   30.531678209  114.357270170    28.0633   6   7   0.0448   0.0540   0.0898   0.0067  -0.0166  -0.0499   0.00    0.0
2026/01/15 14:46:30.000   30.531678214  114.357270169    28.0635   6   8   0.0447   0.0539   0.0896   0.0067  -0.0165  -0.0498   0.00    0.0
2026/01/15 14:47:00.000   30.531678219  114.357270165    28.0640   6   8   0.0446   0.0539   0.0894   0.0067  -0.0165  -0.0497   0.00    0.0
2026/01/15 14:47:30.000   30.531678222  114.357270163    28.0643   6   8   0.0444   0.0538   0.0892   0.0066  -0.0165  -0.0496   0.00    0.0
2026/01/15 14:48:00.000   30.531678225  114.357270158    28.0647   6   8   0.0443   0.0538   0.0890   0.0066  -0.0165  -0.0495   0.00    0.0
2026/01/15 14:48:30.000   30.531678229  114.357270156    28.0651   6   8   0.0442   0.0537   0.0888   0.0066  -0.0164  -0.0494   0.00    0.0
2026/01/15 14:49:00.000   30.531678231  114.357270152    28.0653   6   8   0.0440   0.0536   0.0886   0.0065  -0.0164  -0.0493   0.00    0.0
2026/01/15 14:49:30.000   30.531678233  114.357270150    28.0656   6   8   0.0439   0.0536   0.0884   0.0065  -0.0164  -0.0492   0.00    0.0
2026/01/15 14:50:00.000   30.531678235  114.357270145    28.0661   6   8   0.0438   0.0535   0.0881   0.0064  -0.0163  -0.0491   0.00    0.0
2026/01/15 14:50:30.000   30.531678236  114.357270142    28.0662   6   8   0.0436   0.0535   0.0879   0.0064  -0.0163  -0.0490   0.00    0.0
2026/01/15 14:51:00.000   30.531678239  114.357270142    28.0665   6   8   0.0435   0.0534   0.0877   0.0063  -0.0163  -0.0489   0.00    0.0
2026/01/15 14:51:30.000   30.531678241  114.357270140    28.0666   6   8   0.0434   0.0533   0.0875   0.0063  -0.0162  -0.0487   0.00    0.0
2026/01/15 14:52:00.000   30.531678243  114.357270136    28.0669   6   8   0.0433   0.0533   0.0872   0.0062  -0.0162  -0.0486   0.00    0.0
2026/01/15 14:52:30.000   30.531678245  114.357270134    28.0673   6   8   0.0431   0.0532   0.0870   0.0062  -0.0162  -0.0485   0.00    0.0
2026/01/15 14:53:00.000   30.531678247  114.357270133    28.0679   6   8   0.0430   0.0532   0.0868   0.0061  -0.0161  -0.0484   0.00    0.0
2026/01/15 14:53:30.000   30.531678248  114.357270133    28.0686   6   8   0.0429   0.0531   0.0866   0.0061  -0.0161  -0.0483   0.00    0.0
2026/01/15 14:54:00.000   30.531678251  114.357270135    28.0689   6   8   0.0427   0.0530   0.0863   0.0060  -0.0160  -0.0482   0.00    0.0
2026/01/15 14:54:30.000   30.531678253  114.357270135    28.0693   6   8   0.0426   0.0530   0.0861   0.0060  -0.0160  -0.0480   0.00    0.0
2026/01/15 14:55:00.000   30.531678255  114.357270132    28.0697   6   8   0.0425   0.0529   0.0858   0.0059  -0.0160  -0.0479   0.00    0.0
2026/01/15 14:55:30.000   30.531678258  114.357270130    28.0704   6   8   0.0423   0.0529   0.0856   0.0058  -0.0159  -0.0478   0.00    0.0
2026/01/15 14:57:00.000   30.531678260  114.357270128    28.0706   6   8   0.0422   0.0528   0.0853   0.0057  -0.0159  -0.0477   0.00    0.0
2026/01/15 14:57:30.000   30.531678263  114.357270127    28.0715   6   7   0.0420   0.0527   0.0851   0.0057  -0.0157  -0.0475   0.00    0.0
2026/01/15 14:58:00.000   30.531678266  114.357270126    28.0722   6   7   0.0419   0.0527   0.0849   0.0057  -0.0156  -0.0474   0.00    0.0
2026/01/15 14:58:30.000   30.531678269  114.357270124    28.0730   6   7   0.0418   0.0526   0.0847   0.0056  -0.0154  -0.0472   0.00    0.0
2026/01/15 14:59:00.000   30.531678272  114.357270125    28.0739   6   7   0.0417   0.0526   0.0844   0.0056  -0.0153  -0.0471   0.00    0.0
2026/01/15 14:59:30.000   30.531678274  114.357270124    28.0749   6   7   0.0415   0.0525   0.0842   0.0056  -0.0151  -0.0469   0.00    0.0
2026/01/15 15:00:00.000   30.531678277  114.357270126    28.0760   6   7   0.0414   0.0525   0.0840   0.0056  -0.0150  -0.0468   0.00    0.0
2026/01/15 15:00:30.000   30.531678280  114.357270126    28.0769   6   7   0.0413   0.0524   0.0837   0.0055  -0.0148  -0.0466   0.00    0.0
2026/01/15 15:01:00.000   30.531678283  114.357270123    28.0778   6   7   0.0411   0.0524   0.0835   0.0055  -0.0147  -0.0465   0.00    0.0
2026/01/15 15:01:30.000   30.531678285  114.357270120    28.0787   6   7   0.0410   0.0523   0.0833   0.0054  -0.0145  -0.0463   0.00    0.0
2026/01/15 15:02:00.000   30.531678287  114.357270119    28.0796   6   7   0.0409   0.0523   0.0830   0.0054  -0.0143  -0.0462   0.00    0.0
2026/01/15 15:02:30.000   30.531678290  114.357270118    28.0805   6   7   0.0408   0.0522   0.0828   0.0053  -0.0142  -0.0460   0.00    0.0
2026/01/15 15:03:00.000   30.531678292  114.357270118    28.0815   6   7   0.0406   0.0522   0.0826   0.0053  -0.0140  -0.0459   0.00    0.0
2026/01/15 15:03:30.000   30.531678294  114.357270118    28.0825   6   7   0.0405   0.0521   0.0823   0.0052  -0.0138  -0.0457   0.00    0.0
2026/01/15 15:04:00.000   30.531678295  114.357270118    28.0835   6   7   0.0404   0.0521   0.0821   0.0052  -0.0136  -0.0456   0.00    0.0
2026/01/15 15:04:30.000   30.531678297  114.357270116    28.0844   6   7   0.0402   0.0520   0.0819   0.0051  -0.0134  -0.0454   0.00    0.0
2026/01/15 15:05:00.000   30.531678298  114.357270113    28.0852   6   7   0.0401   0.0520   0.0816   0.0050  -0.0133  -0.0453   0.00    0.0
2026/01/15 15:05:30.000   30.531678300  114.357270113    28.0860   6   7   0.0400   0.0519   0.0814   0.0050  -0.0131  -0.0451   0.00    0.0
2026/01/15 15:06:00.000   30.531678301  114.357270113    28.0869   6   7   0.0399   0.0519   0.0811   0.0049  -0.0129  -0.0449   0.00    0.0
2026/01/15 15:06:30.000   30.531678303  114.357270112    28.0879   6   7   0.0397   0.0518   0.0809   0.0048  -0.0127  -0.0448   0.00    0.0
2026/01/15 15:07:00.000   30.531678304  114.357270111    28.0890   6   7   0.0396   0.0518   0.0806   0.0047  -0.0125  -0.0446   0.00    0.0
2026/01/15 15:07:30.000   30.531678304  114.357270109    28.0901   6   7   0.0395   0.0517   0.0804   0.0046  -0.0123  -0.0445   0.00    0.0
2026/01/15 15:08:00.000   30.531678304  114.357270109    28.0911   6   7   0.0393   0.0517   0.0801   0.0045  -0.0120  -0.0443   0.00    0.0
2026/01/15 15:08:30.000   30.531678305  114.357270108    28.0922   6   7   0.0392   0.0516   0.0799   0.0044  -0.0118  -0.0442   0.00    0.0
2026/01/15 15:09:00.000   30.531678306  114.357270108    28.0932   6   7   0.0391   0.0516   0.0797   0.0043  -0.0116  -0.0440   0.00    0.0
2026/01/15 15:09:30.000   30.531678308  114.357270107    28.0942   6   7   0.0390   0.0515   0.0794   0.0041  -0.0114  -0.0439   0.00    0.0
2026/01/15 15:10:00.000   30.531678310  114.357270105    28.0950   6   7   0.0388   0.0515   0.0792   0.0040  -0.0111  -0.0437   0.00    0.0
2026/01/15 15:10:30.000   30.531678311  114.357270101    28.0959   6   7   0.0387   0.0514   0.0789   0.0039  -0.0109  -0.0435   0.00    0.0
2026/01/15 15:11:00.000   30.531678311  114.357270101    28.0969   6   7   0.0386   0.0514   0.0787   0.0037  -0.0107  -0.0434   0.00    0.0
2026/01/15 15:11:30.000   30.531678311  114.357270099    28.0979   6   7   0.0384   0.0513   0.0784   0.0036  -0.0104  -0.0432   0.00    0.0
2026/01/15 15:12:00.000   30.531678312  114.357270098    28.0991   6   7   0.0383   0.0513   0.0782   0.0034  -0.0101  -0.0431   0.00    0.0
2026/01/15 15:13:00.000   30.531678312  114.357270098    28.1000   6   7   0.0382   0.0512   0.0779   0.0032  -0.0099  -0.0429   0.00    0.0
2026/01/15 15:14:00.000   30.531678312  114.357270097    28.1011   6   7   0.0381   0.0511   0.0776   0.0030  -0.0096  -0.0427   0.00    0.0
2026/01/15 15:14:30.000   30.531678312  114.357270096    28.1023   6   7   0.0379   0.0511   0.0774   0.0027  -0.0093  -0.0426   0.00    0.0
2026/01/15 15:15:30.000   30.531678313  114.357270096    28.1035   6   7   0.0378   0.0510   0.0771   0.0024  -0.0089  -0.0424   0.00    0.0
2026/01/15 15:17:30.000   30.531678312  114.357270099    28.1049   6   7   0.0376   0.0509   0.0768   0.0020  -0.0086  -0.0422   0.00    0.0
2026/01/15 15:18:00.000   30.531678313  114.357270097    28.1064   6   7   0.0375   0.0509   0.0765   0.0015  -0.0082  -0.0421   0.00    0.0
2026/01/15 15:18:30.000   30.531678314  114.357270095    28.1079   6   7   0.0374   0.0508   0.0762   0.0005  -0.0077  -0.0419   0.00    0.0
2026/01/15 15:19:30.000   30.531678313  114.357270092    28.1092   6   7   0.0372   0.0508   0.0759  -0.0013  -0.0073  -0.0417   0.00    0.0
2026/01/15 15:20:00.000   30.531678313  114.357270089    28.1107   6   7   0.0371   0.0507   0.0756  -0.0019  -0.0068  -0.0415   0.00    0.0
2026/01/15 15:20:30.000   30.531678314  114.357270087    28.1120   6   7   0.0370   0.0506   0.0753  -0.0024  -0.0063  -0.0413   0.00    0.0
2026/01/15 15:21:30.000   30.531678314  114.357270087    28.1132   6   7   0.0368   0.0506   0.0750  -0.0028  -0.0057  -0.0412   0.00    0.0
2026/01/15 15:22:00.000   30.531678313  114.357270086    28.1146   6   7   0.0367   0.0505   0.0747  -0.0032  -0.0051  -0.0410   0.00    0.0
2026/01/15 15:22:30.000   30.531678312  114.357270084    28.1161   6   7   0.0365   0.0504   0.0744  -0.0035  -0.0044  -0.0408   0.00    0.0
2026/01/15 15:23:00.000   30.531678312  114.357270082    28.1176   6   7   0.0364   0.0504   0.0741  -0.0038  -0.0035  -0.0406   0.00    0.0
2026/01/15 15:23:30.000   30.531678311  114.357270079    28.1191   6   7   0.0363   0.0503   0.0738  -0.0040  -0.0023  -0.0404   0.00    0.0
2026/01/15 15:24:00.000   30.531678310  114.357270075    28.1204   6   7   0.0361   0.0502   0.0735  -0.0043   0.0011  -0.0403   0.00    0.0
