% program   : RTKPOST-EX 2.5.0
% inp file  : C:\PPP_PROJECT\New_Data\obs\RNXDATA\WUH200CHN_R_20260150000_01D_30S_MO.rnx
% inp file  : C:\PPP_PROJECT\New_Data\nav\BRDC00IGS_R_20260150000_01D_MN.rnx
% inp file  : C:\PPP_PROJECT\New_Data\DATA_FINAL_ANT_EXTRA\COD0MGXFIN_20260150000_01D_05M_ORB.SP3
% inp file  : C:\PPP_PROJECT\New_Data\DATA_FINAL_ANT_EXTRA\COD0MGXFIN_20260150000_01D_30S_CLK.CLK
% obs start : 2026/01/15 00:00:00.0 GPST (week2401 345600.0s)
% obs end   : 2026/01/15 23:59:30.0 GPST (week2401 431970.0s)
% pos mode  : PPP Static
% freqs     : L1+L2/E5b
% solution  : Forward
% elev mask : 15.0 deg
% dynamics  : on
% tidecorr  :
% ionos opt : Iono-Free LC
% tropo opt : Saastamoinen
% ephemeris : Precise
% navi sys  : GPS GLONASS Galileo QZSS BDS
% antenna1  :                       ( 0.0000  0.0000  0.0000)
%
% (lat/lon/height=WGS84/ellipsoidal,Q=1:fix,2:float,3:sbas,4:dgps,5:single,6:ppp,ns=# of satellites)
%  GPST                  latitude(deg) longitude(deg)  height(m)   Q  ns   sdn(m)   sde(m)   sdu(m)  sdne(m)  sdeu(m)  sdun(m) age(s)  ratio
2026/01/15 00:00:00.000   30.531658157  114.357261719    26.5253   6  13   2.6089   2.8384   7.0759   0.7157   1.7485  -2.4640   0.00    0.0
2026/01/15 00:00:30.000   30.531662333  114.357262674    26.6319   6  17   1.8458   2.0115   5.0127   0.5066   1.2422  -1.7431   0.00    0.0
2026/01/15 00:01:00.000   30.531662055  114.357264480    27.3347   6  17   1.5057   1.6440   4.0786   0.4166   1.0132  -1.4187   0.00    0.0
2026/01/15 00:01:30.000   30.531663812  114.357264286    27.5924   6  17   1.3012   1.4243   3.5102   0.3634   0.8738  -1.2224   0.00    0.0
2026/01/15 00:02:00.000   30.531664917  114.357266470    27.8566   6  17   1.1603   1.2739   3.1135   0.3273   0.7762  -1.0866   0.00    0.0
2026/01/15 00:02:30.000   30.531664550  114.357267224    27.7915   6  14   1.0572   1.1625   2.8136   0.3017   0.7018  -0.9854   0.00    0.0
2026/01/15 00:03:00.000   30.531664776  114.357267429    27.5439   6  14   0.9763   1.0757   2.5745   0.2821   0.6421  -0.9056   0.00    0.0
2026/01/15 00:03:30.000   30.531665762  114.357268205    27.5412   6  14   0.9106   1.0054   2.3767   0.2665   0.5921  -0.8404   0.00    0.0
2026/01/15 00:04:00.000   30.531666223  114.357268376    27.6214   6  14   0.8556   0.9470   2.2084   0.2539   0.5491  -0.7856   0.00    0.0
2026/01/15 00:04:30.000   30.531666163  114.357268438    27.6565   6  14   0.8087   0.8973   2.0625   0.2433   0.5114  -0.7388   0.00    0.0
2026/01/15 00:05:00.000   30.531666909  114.357268548    27.5879   6  14   0.7679   0.8543   1.9339   0.2344   0.4777  -0.6979   0.00    0.0
2026/01/15 00:05:30.000   30.531667484  114.357269154    27.5316   6  17   0.7243   0.8165   1.8183   0.2236   0.4473  -0.6598   0.00    0.0
2026/01/15 00:06:00.000   30.531667792  114.357269537    27.5320   6  14   0.6932   0.7822   1.7117   0.2169   0.4145  -0.6282   0.00    0.0
2026/01/15 00:06:30.000   30.531667759  114.357269290    27.4329   6  14   0.6650   0.7515   1.6158   0.2110   0.3852  -0.5998   0.00    0.0
2026/01/15 00:07:00.000   30.531667737  114.357268739    27.4091   6  14   0.6394   0.7239   1.5289   0.2058   0.3588  -0.5740   0.00    0.0
2026/01/15 00:07:30.000   30.531667809  114.357268386    27.5391   6  14   0.6159   0.6989   1.4496   0.2010   0.3346  -0.5505   0.00    0.0
2026/01/15 00:08:00.000   30.531667833  114.357268804    27.6223   6  14   0.5939   0.6750   1.3751   0.1947   0.3083  -0.5303   0.00    0.0
2026/01/15 00:08:30.000   30.531667651  114.357268462    27.6628   6  15   0.5735   0.6531   1.3069   0.1891   0.2843  -0.5114   0.00    0.0
2026/01/15 00:09:00.000   30.531667792  114.357268435    27.5902   6  14   0.5545   0.6330   1.2444   0.1842   0.2627  -0.4937   0.00    0.0
2026/01/15 00:09:30.000   30.531668226  114.357268721    27.6240   6  19   0.5269   0.6129   1.1839   0.1781   0.2346  -0.4702   0.00    0.0
2026/01/15 00:10:00.000   30.531668285  114.357268721    27.6820   6  16   0.5106   0.5947   1.1280   0.1766   0.2101  -0.4532   0.00    0.0
2026/01/15 00:10:30.000   30.531668395  114.357268600    27.6809   6  15   0.4957   0.5788   1.0790   0.1728   0.1941  -0.4392   0.00    0.0
2026/01/15 00:11:00.000   30.531668640  114.357268744    27.6811   6  15   0.4817   0.5639   1.0334   0.1693   0.1791  -0.4259   0.00    0.0
2026/01/15 00:11:30.000   30.531668814  114.357269107    27.7035   6  15   0.4683   0.5499   0.9907   0.1661   0.1650  -0.4133   0.00    0.0
2026/01/15 00:12:00.000   30.531668957  114.357269366    27.6721   6  15   0.4556   0.5367   0.9507   0.1631   0.1517  -0.4012   0.00    0.0
2026/01/15 00:12:30.000   30.531669149  114.357269554    27.7212   6  15   0.4435   0.5242   0.9131   0.1603   0.1391  -0.3897   0.00    0.0
2026/01/15 00:13:00.000   30.531669389  114.357269366    27.7514   6  16   0.4318   0.5120   0.8774   0.1570   0.1251  -0.3791   0.00    0.0
2026/01/15 00:13:30.000   30.531669764  114.357269518    27.7481   6  16   0.4206   0.5004   0.8438   0.1540   0.1118  -0.3689   0.00    0.0
2026/01/15 00:14:00.000   30.531669978  114.357269464    27.7767   6  16   0.4099   0.4894   0.8122   0.1512   0.0990  -0.3590   0.00    0.0
2026/01/15 00:14:30.000   30.531670124  114.357269374    27.7719   6  16   0.3997   0.4788   0.7824   0.1485   0.0865  -0.3495   0.00    0.0
2026/01/15 00:15:00.000   30.531670307  114.357269196    27.7675   6  16   0.3898   0.4688   0.7542   0.1460   0.0741  -0.3404   0.00    0.0
2026/01/15 00:15:30.000   30.531670576  114.357269420    27.7649   6  17   0.3801   0.4587   0.7267   0.1446   0.0552  -0.3310   0.00    0.0
2026/01/15 00:16:00.000   30.531670722  114.357269419    27.7871   6  17   0.3708   0.4490   0.7009   0.1431   0.0319  -0.3219   0.00    0.0
2026/01/15 00:16:30.000   30.531671008  114.357269341    27.7603   6  17   0.3619   0.4398   0.6764   0.1416  -0.0260  -0.3133   0.00    0.0
2026/01/15 00:17:00.000   30.531671234  114.357269357    27.7531   6  16   0.3535   0.4313   0.6539   0.1393  -0.0395  -0.3056   0.00    0.0
2026/01/15 00:17:30.000   30.531671316  114.357269383    27.7596   6  16   0.3454   0.4232   0.6325   0.1371  -0.0481  -0.2982   0.00    0.0
2026/01/15 00:18:00.000   30.531671470  114.357269552    27.7570   6  17   0.3374   0.4149   0.6116   0.1356  -0.0581  -0.2905   0.00    0.0
2026/01/15 00:18:30.000   30.531671680  114.357269685    27.7518   6  17   0.3298   0.4070   0.5919   0.1341  -0.0651  -0.2832   0.00    0.0
2026/01/15 00:19:00.000   30.531671854  114.357269665    27.7508   6  17   0.3223   0.3994   0.5731   0.1326  -0.0704  -0.2762   0.00    0.0
2026/01/15 00:19:30.000   30.531672048  114.357269819    27.7517   6  16   0.3153   0.3924   0.5556   0.1306  -0.0722  -0.2698   0.00    0.0
2026/01/15 00:20:00.000   30.531672245  114.357270076    27.7552   6  18   0.3084   0.3852   0.5386   0.1291  -0.0756  -0.2633   0.00    0.0
2026/01/15 00:20:30.000   30.531672396  114.357270192    27.7646   6  18   0.3017   0.3783   0.5224   0.1277  -0.0781  -0.2571   0.00    0.0
2026/01/15 00:21:00.000   30.531672474  114.357270199    27.7696   6  18   0.2953   0.3717   0.5069   0.1262  -0.0801  -0.2511   0.00    0.0
2026/01/15 00:21:30.000   30.531672581  114.357270234    27.7772   6  18   0.2890   0.3652   0.4921   0.1247  -0.0816  -0.2453   0.00    0.0
2026/01/15 00:22:00.000   30.531672759  114.357270255    27.7545   6  17   0.2830   0.3589   0.4781   0.1232  -0.0826  -0.2397   0.00    0.0
2026/01/15 00:22:30.000   30.531672876  114.357270240    27.7373   6  17   0.2772   0.3528   0.4646   0.1217  -0.0834  -0.2343   0.00    0.0
2026/01/15 00:23:00.000   30.531672984  114.357270240    27.7252   6  17   0.2715   0.3469   0.4517   0.1203  -0.0838  -0.2291   0.00    0.0
2026/01/15 00:23:30.000   30.531673086  114.357270242    27.7258   6  17   0.2660   0.3412   0.4394   0.1188  -0.0841  -0.2241   0.00    0.0
2026/01/15 00:24:00.000   30.531673197  114.357270306    27.7220   6  17   0.2607   0.3356   0.4276   0.1174  -0.0842  -0.2193   0.00    0.0
2026/01/15 00:24:30.000   30.531673261  114.357270258    27.7227   6  17   0.2556   0.3301   0.4164   0.1159  -0.0841  -0.2146   0.00    0.0
2026/01/15 00:25:00.000   30.531673335  114.357270292    27.7259   6  17   0.2506   0.3248   0.4055   0.1145  -0.0839  -0.2101   0.00    0.0
2026/01/15 00:25:30.000   30.531673460  114.357270260    27.7154   6  17   0.2457   0.3197   0.3951   0.1131  -0.0835  -0.2057   0.00    0.0
2026/01/15 00:26:00.000   30.531673480  114.357270156    27.7059   6  16   0.2416   0.3147   0.3856   0.1121  -0.0824  -0.2009   0.00    0.0
2026/01/15 00:26:30.000   30.531673549  114.357270110    27.6928   6  10   0.2386   0.3102   0.3806   0.1104  -0.0795  -0.1983   0.00    0.0
2026/01/15 00:27:00.000   30.531673689  114.357270091    27.6913   6  18   0.2339   0.3052   0.3726   0.1093  -0.0790  -0.1941   0.00    0.0
2026/01/15 00:27:30.000   30.531673826  114.357270044    27.6810   6  10   0.2311   0.3009   0.3678   0.1077  -0.0761  -0.1917   0.00    0.0
2026/01/15 00:28:00.000   30.531673954  114.357270045    27.6826   6  17   0.2266   0.2962   0.3599   0.1066  -0.0756  -0.1876   0.00    0.0
2026/01/15 00:28:30.000   30.531674089  114.357270092    27.6894   6  17   0.2222   0.2915   0.3523   0.1054  -0.0751  -0.1837   0.00    0.0
2026/01/15 00:29:00.000   30.531674165  114.357270036    27.6938   6  17   0.2179   0.2870   0.3449   0.1043  -0.0745  -0.1799   0.00    0.0
2026/01/15 00:29:30.000   30.531674238  114.357269999    27.6996   6  17   0.2138   0.2826   0.3378   0.1031  -0.0739  -0.1762   0.00    0.0
2026/01/15 00:30:00.000   30.531674319  114.357269987    27.7075   6  17   0.2098   0.2783   0.3309   0.1019  -0.0731  -0.1727   0.00    0.0
2026/01/15 00:30:30.000   30.531674392  114.357269908    27.7106   6   9   0.2074   0.2746   0.3268   0.1004  -0.0704  -0.1707   0.00    0.0
2026/01/15 00:31:00.000   30.531674468  114.357269889    27.7167   6  17   0.2035   0.2705   0.3201   0.0992  -0.0698  -0.1673   0.00    0.0
2026/01/15 00:31:30.000   30.531674536  114.357269840    27.7212   6  17   0.1998   0.2664   0.3135   0.0981  -0.0692  -0.1639   0.00    0.0
2026/01/15 00:32:00.000   30.531674594  114.357269918    27.7242   6  14   0.1965   0.2625   0.3075   0.0966  -0.0687  -0.1609   0.00    0.0
2026/01/15 00:32:30.000   30.531674660  114.357269915    27.7256   6  17   0.1929   0.2586   0.3013   0.0955  -0.0680  -0.1578   0.00    0.0
2026/01/15 00:33:00.000   30.531674728  114.357269955    27.7229   6   9   0.1909   0.2553   0.2978   0.0941  -0.0654  -0.1561   0.00    0.0
2026/01/15 00:33:30.000   30.531674775  114.357269946    27.7214   6  11   0.1887   0.2520   0.2942   0.0927  -0.0630  -0.1543   0.00    0.0
2026/01/15 00:34:00.000   30.531674804  114.357269938    27.7151   6  10   0.1867   0.2488   0.2908   0.0914  -0.0605  -0.1527   0.00    0.0
2026/01/15 00:34:30.000   30.531674949  114.357269892    27.7135   6  17   0.1832   0.2451   0.2846   0.0903  -0.0601  -0.1496   0.00    0.0
2026/01/15 00:35:00.000   30.531675024  114.357269899    27.7126   6  10   0.1813   0.2420   0.2813   0.0889  -0.0577  -0.1480   0.00    0.0
2026/01/15 00:35:30.000   30.531675067  114.357269946    27.7075   6  10   0.1794   0.2390   0.2781   0.0876  -0.0553  -0.1465   0.00    0.0
2026/01/15 00:36:00.000   30.531675113  114.357269942    27.7015   6  10   0.1775   0.2360   0.2749   0.0864  -0.0528  -0.1449   0.00    0.0
2026/01/15 00:37:00.000   30.531675197  114.357269954    27.6863   6  10   0.1750   0.2320   0.2697   0.0847  -0.0506  -0.1427   0.00    0.0
2026/01/15 00:37:30.000   30.531675265  114.357269954    27.6808   6   9   0.1731   0.2290   0.2665   0.0834  -0.0481  -0.1412   0.00    0.0
2026/01/15 00:38:00.000   30.531675321  114.357269980    27.6793   6   9   0.1712   0.2261   0.2634   0.0821  -0.0456  -0.1397   0.00    0.0
2026/01/15 00:38:30.000   30.531675370  114.357269983    27.6799   6   8   0.1696   0.2233   0.2622   0.0807  -0.0427  -0.1392   0.00    0.0
2026/01/15 00:39:00.000   30.531675434  114.357270027    27.6820   6   8   0.1680   0.2205   0.2610   0.0794  -0.0398  -0.1386   0.00    0.0
2026/01/15 00:39:30.000   30.531675460  114.357270037    27.6883   6   8   0.1664   0.2177   0.2598   0.0781  -0.0366  -0.1381   0.00    0.0
2026/01/15 00:40:00.000   30.531675481  114.357270038    27.6954   6   8   0.1648   0.2150   0.2586   0.0768  -0.0334  -0.1376   0.00    0.0
2026/01/15 00:40:30.000   30.531675475  114.357270064    27.6986   6   7   0.1638   0.2124   0.2575   0.0758  -0.0295  -0.1367   0.00    0.0
2026/01/15 01:00:30.000   30.531675589  114.357270602    27.6135   6  15   0.1487   0.1890   0.2465   0.0684  -0.0361  -0.1243   0.00    0.0
2026/01/15 01:01:00.000   30.531675573  114.357270627    27.6135   6  15   0.1483   0.1885   0.2462   0.0682  -0.0361  -0.1240   0.00    0.0
2026/01/15 01:01:30.000   30.531675584  114.357270659    27.6082   6  14   0.1480   0.1880   0.2460   0.0680  -0.0361  -0.1238   0.00    0.0
2026/01/15 01:02:00.000   30.531675602  114.357270679    27.6029   6  15   0.1477   0.1875   0.2457   0.0678  -0.0361  -0.1235   0.00    0.0
2026/01/15 01:02:30.000   30.531675571  114.357270724    27.6026   6  15   0.1473   0.1870   0.2455   0.0676  -0.0361  -0.1232   0.00    0.0
2026/01/15 01:03:00.000   30.531675558  114.357270748    27.6028   6  15   0.1470   0.1865   0.2452   0.0674  -0.0361  -0.1229   0.00    0.0
2026/01/15 01:03:30.000   30.531675548  114.357270765    27.5999   6  14   0.1466   0.1860   0.2450   0.0672  -0.0360  -0.1227   0.00    0.0
2026/01/15 01:04:00.000   30.531675522  114.357270779    27.5997   6  15   0.1463   0.1855   0.2447   0.0670  -0.0360  -0.1224   0.00    0.0
2026/01/15 01:04:30.000   30.531675527  114.357270786    27.5995   6  16   0.1459   0.1850   0.2444   0.0668  -0.0359  -0.1221   0.00    0.0
2026/01/15 01:05:00.000   30.531675521  114.357270792    27.5976   6   8   0.1456   0.1845   0.2442   0.0666  -0.0359  -0.1218   0.00    0.0
2026/01/15 01:05:30.000   30.531675536  114.357270822    27.5953   6  15   0.1452   0.1840   0.2439   0.0663  -0.0358  -0.1215   0.00    0.0
2026/01/15 01:06:00.000   30.531675536  114.357270832    27.5933   6   8   0.1448   0.1835   0.2436   0.0661  -0.0357  -0.1213   0.00    0.0
2026/01/15 01:06:30.000   30.531675555  114.357270852    27.5913   6  15   0.1444   0.1830   0.2433   0.0659  -0.0356  -0.1209   0.00    0.0
2026/01/15 01:07:00.000   30.531675552  114.357270843    27.5905   6  15   0.1440   0.1825   0.2429   0.0656  -0.0355  -0.1206   0.00    0.0
2026/01/15 01:07:30.000   30.531675545  114.357270849    27.5864   6   8   0.1437   0.1820   0.2427   0.0654  -0.0354  -0.1203   0.00    0.0
2026/01/15 01:08:00.000   30.531675537  114.357270821    27.5834   6   8   0.1433   0.1815   0.2424   0.0652  -0.0353  -0.1201   0.00    0.0
2026/01/15 01:08:30.000   30.531675515  114.357270784    27.5804   6   5   0.1430   0.1810   0.2421   0.0649  -0.0351  -0.1198   0.00    0.0
2026/01/15 01:09:00.000   30.531675500  114.357270807    27.5777   6   8   0.1426   0.1805   0.2418   0.0646  -0.0350  -0.1195   0.00    0.0
2026/01/15 01:09:30.000   30.531675521  114.357270828    27.5751   6  15   0.1421   0.1800   0.2413   0.0644  -0.0348  -0.1191   0.00    0.0
2026/01/15 01:10:00.000   30.531675500  114.357270822    27.5734   6   8   0.1417   0.1794   0.2410   0.0641  -0.0346  -0.1188   0.00    0.0
2026/01/15 01:10:30.000   30.531675491  114.357270825    27.5743   6  15   0.1412   0.1789   0.2404   0.0638  -0.0344  -0.1184   0.00    0.0
2026/01/15 01:11:00.000   30.531675489  114.357270835    27.5723   6   9   0.1408   0.1783   0.2401   0.0635  -0.0343  -0.1181   0.00    0.0
2026/01/15 01:12:00.000   30.531675503  114.357270858    27.5677   6   8   0.1401   0.1773   0.2395   0.0631  -0.0340  -0.1175   0.00    0.0
2026/01/15 01:12:30.000   30.531675524  114.357270851    27.5652   6   8   0.1396   0.1767   0.2391   0.0627  -0.0337  -0.1172   0.00    0.0
2026/01/15 01:13:00.000   30.531675523  114.357270883    27.5665   6   8   0.1392   0.1761   0.2387   0.0624  -0.0335  -0.1169   0.00    0.0
2026/01/15 01:14:00.000   30.531675517  114.357270926    27.5597   6   8   0.1384   0.1751   0.2381   0.0619  -0.0332  -0.1163   0.00    0.0
2026/01/15 01:16:00.000   30.531675561  114.357270959    27.5423   6   4   0.1372   0.1734   0.2371   0.0611  -0.0329  -0.1153   0.00    0.0
2026/01/15 01:17:30.000   30.531675620  114.357271002    27.5344   6   8   0.1361   0.1719   0.2361   0.0603  -0.0322  -0.1145   0.00    0.0
2026/01/15 01:18:00.000   30.531675650  114.357271051    27.5370   6  15   0.1351   0.1710   0.2345   0.0598  -0.0317  -0.1135   0.00    0.0
2026/01/15 01:18:30.000   30.531675649  114.357271036    27.5362   6   8   0.1345   0.1703   0.2339   0.0593  -0.0314  -0.1132   0.00    0.0
2026/01/15 01:20:00.000   30.531675661  114.357271062    27.5284   6   6   0.1333   0.1687   0.2328   0.0584  -0.0308  -0.1122   0.00    0.0
2026/01/15 01:20:30.000   30.531675689  114.357271074    27.5288   6   8   0.1327   0.1679   0.2322   0.0578  -0.0304  -0.1118   0.00    0.0
2026/01/15 01:21:00.000   30.531675707  114.357271120    27.5244   6   4   0.1324   0.1674   0.2317   0.0576  -0.0304  -0.1115   0.00    0.0
2026/01/15 01:23:30.000   30.531675760  114.357271261    27.5064   6   4   0.1311   0.1655   0.2306   0.0566  -0.0298  -0.1104   0.00    0.0
2026/01/15 01:24:30.000   30.531675763  114.357271239    27.5005   6   4   0.1305   0.1647   0.2299   0.0561  -0.0297  -0.1099   0.00    0.0
2026/01/15 01:25:00.000   30.531675801  114.357271240    27.5091   6  14   0.1290   0.1635   0.2271   0.0556  -0.0288  -0.1080   0.00    0.0
2026/01/15 01:27:30.000   30.531675883  114.357271217    27.5064   6  15   0.1262   0.1608   0.2232   0.0541  -0.0277  -0.1056   0.00    0.0
2026/01/15 01:28:00.000   30.531675911  114.357271201    27.5122   6   9   0.1253   0.1596   0.2221   0.0533  -0.0273  -0.1051   0.00    0.0
2026/01/15 01:28:30.000   30.531675943  114.357271178    27.5186   6  13   0.1239   0.1584   0.2204   0.0527  -0.0269  -0.1039   0.00    0.0
2026/01/15 01:30:30.000   30.531675985  114.357271187    27.5198   6   8   0.1222   0.1562   0.2188   0.0515  -0.0262  -0.1030   0.00    0.0
2026/01/15 02:05:00.000   30.531676037  114.357270947    27.3937   6   5   0.1106   0.1382   0.2089   0.0448  -0.0215  -0.0957   0.00    0.0
2026/01/15 02:17:00.000   30.531675977  114.357270707    27.3809   6   6   0.1076   0.1329   0.2060   0.0430  -0.0207  -0.0940   0.00    0.0
2026/01/15 02:17:30.000   30.531675968  114.357270709    27.3830   6   7   0.1074   0.1327   0.2058   0.0429  -0.0207  -0.0939   0.00    0.0
2026/01/15 02:24:00.000   30.531675810  114.357270574    27.3892   6  13   0.1060   0.1301   0.2045   0.0421  -0.0206  -0.0932   0.00    0.0
2026/01/15 02:24:30.000   30.531675805  114.357270551    27.3899   6  13   0.1059   0.1299   0.2043   0.0421  -0.0205  -0.0931   0.00    0.0
2026/01/15 02:25:00.000   30.531675788  114.357270548    27.3920   6  14   0.1058   0.1297   0.2042   0.0420  -0.0204  -0.0930   0.00    0.0
2026/01/15 02:25:30.000   30.531675776  114.357270537    27.3918   6  14   0.1057   0.1295   0.2040   0.0419  -0.0204  -0.0930   0.00    0.0
2026/01/15 02:26:00.000   30.531675749  114.357270512    27.3931   6  14   0.1056   0.1293   0.2039   0.0419  -0.0203  -0.0929   0.00    0.0
2026/01/15 02:26:30.000   30.531675740  114.357270485    27.3950   6  15   0.1055   0.1291   0.2037   0.0418  -0.0202  -0.0928   0.00    0.0
2026/01/15 02:27:00.000   30.531675712  114.357270461    27.3973   6  15   0.1053   0.1289   0.2036   0.0417  -0.0202  -0.0927   0.00    0.0
2026/01/15 02:27:30.000   30.531675705  114.357270459    27.3977   6  15   0.1052   0.1287   0.2034   0.0416  -0.0201  -0.0926   0.00    0.0
2026/01/15 02:28:00.000   30.531675697  114.357270443    27.3997   6  18   0.1051   0.1285   0.2033   0.0416  -0.0199  -0.0925   0.00    0.0
2026/01/15 02:28:30.000   30.531675699  114.357270429    27.4009   6  19   0.1050   0.1283   0.2031   0.0415  -0.0198  -0.0924   0.00    0.0
2026/01/15 02:29:00.000   30.531675688  114.357270420    27.4048   6  19   0.1048   0.1282   0.2029   0.0414  -0.0197  -0.0923   0.00    0.0
2026/01/15 02:29:30.000   30.531675676  114.357270403    27.4071   6  19   0.1047   0.1280   0.2027   0.0413  -0.0195  -0.0922   0.00    0.0
2026/01/15 02:30:00.000   30.531675656  114.357270389    27.4087   6  19   0.1046   0.1278   0.2025   0.0412  -0.0193  -0.0921   0.00    0.0
2026/01/15 02:30:30.000   30.531675647  114.357270367    27.4109   6  19   0.1044   0.1276   0.2023   0.0411  -0.0191  -0.0920   0.00    0.0
2026/01/15 02:31:00.000   30.531675634  114.357270348    27.4128   6  19   0.1043   0.1274   0.2020   0.0410  -0.0189  -0.0918   0.00    0.0
2026/01/15 02:31:30.000   30.531675616  114.357270329    27.4159   6  15   0.1042   0.1272   0.2018   0.0409  -0.0187  -0.0917   0.00    0.0
2026/01/15 02:32:00.000   30.531675588  114.357270298    27.4180   6  16   0.1040   0.1270   0.2015   0.0408  -0.0185  -0.0916   0.00    0.0
2026/01/15 02:32:30.000   30.531675574  114.357270286    27.4203   6  16   0.1038   0.1268   0.2013   0.0407  -0.0182  -0.0914   0.00    0.0
2026/01/15 02:33:00.000   30.531675553  114.357270261    27.4245   6  16   0.1037   0.1266   0.2010   0.0406  -0.0180  -0.0912   0.00    0.0
2026/01/15 02:33:30.000   30.531675538  114.357270249    27.4275   6  11   0.1035   0.1264   0.2007   0.0405  -0.0177  -0.0911   0.00    0.0
2026/01/15 02:34:00.000   30.531675523  114.357270236    27.4304   6  16   0.1033   0.1262   0.2004   0.0404  -0.0174  -0.0909   0.00    0.0
2026/01/15 02:34:30.000   30.531675512  114.357270228    27.4334   6  16   0.1032   0.1260   0.2000   0.0402  -0.0170  -0.0908   0.00    0.0
2026/01/15 02:35:00.000   30.531675505  114.357270197    27.4364   6  15   0.1030   0.1258   0.1996   0.0401  -0.0166  -0.0905   0.00    0.0
2026/01/15 02:35:30.000   30.531675499  114.357270181    27.4387   6  17   0.1028   0.1256   0.1992   0.0399  -0.0162  -0.0903   0.00    0.0
2026/01/15 02:36:00.000   30.531675486  114.357270158    27.4422   6  16   0.1026   0.1254   0.1988   0.0398  -0.0158  -0.0901   0.00    0.0
2026/01/15 02:36:30.000   30.531675484  114.357270135    27.4465   6  16   0.1023   0.1252   0.1984   0.0396  -0.0153  -0.0899   0.00    0.0
2026/01/15 02:37:00.000   30.531675469  114.357270097    27.4492   6   9   0.1022   0.1250   0.1981   0.0395  -0.0148  -0.0897   0.00    0.0
2026/01/15 02:37:30.000   30.531675450  114.357270068    27.4547   6  16   0.1019   0.1248   0.1976   0.0393  -0.0142  -0.0895   0.00    0.0
2026/01/15 02:38:00.000   30.531675433  114.357270032    27.4590   6  16   0.1017   0.1246   0.1971   0.0391  -0.0136  -0.0892   0.00    0.0
2026/01/15 02:38:30.000   30.531675423  114.357270000    27.4623   6  16   0.1014   0.1243   0.1965   0.0389  -0.0129  -0.0889   0.00    0.0
2026/01/15 02:39:00.000   30.531675408  114.357269978    27.4668   6  16   0.1012   0.1241   0.1959   0.0387  -0.0122  -0.0886   0.00    0.0
2026/01/15 02:39:30.000   30.531675405  114.357269970    27.4710   6  16   0.1009   0.1239   0.1954   0.0385  -0.0113  -0.0883   0.00    0.0
2026/01/15 02:40:00.000   30.531675391  114.357269934    27.4760   6  16   0.1006   0.1237   0.1948   0.0383  -0.0104  -0.0879   0.00    0.0
2026/01/15 02:40:30.000   30.531675382  114.357269907    27.4805   6  16   0.1003   0.1235   0.1941   0.0380  -0.0093  -0.0876   0.00    0.0
2026/01/15 02:41:00.000   30.531675378  114.357269895    27.4851   6  16   0.1001   0.1232   0.1935   0.0378  -0.0080  -0.0873   0.00    0.0
2026/01/15 02:41:30.000   30.531675376  114.357269897    27.4886   6  18   0.0997   0.1230   0.1928   0.0375  -0.0064  -0.0869   0.00    0.0
2026/01/15 02:42:00.000   30.531675366  114.357269882    27.4939   6  19   0.0994   0.1228   0.1921   0.0373  -0.0042  -0.0865   0.00    0.0
2026/01/15 02:42:30.000   30.531675354  114.357269873    27.4990   6  16   0.0991   0.1226   0.1914   0.0370   0.0026  -0.0861   0.00    0.0
2026/01/15 02:43:00.000   30.531675336  114.357269850    27.5046   6  16   0.0988   0.1223   0.1906   0.0368   0.0056  -0.0857   0.00    0.0
2026/01/15 02:43:30.000   30.531675331  114.357269840    27.5089   6  15   0.0984   0.1221   0.1899   0.0365   0.0076  -0.0853   0.00    0.0
2026/01/15 02:44:00.000   30.531675316  114.357269818    27.5136   6  16   0.0981   0.1218   0.1891   0.0362   0.0092  -0.0849   0.00    0.0
2026/01/15 02:44:30.000   30.531675308  114.357269800    27.5187   6  20   0.0977   0.1216   0.1883   0.0359   0.0106  -0.0845   0.00    0.0
2026/01/15 02:45:00.000   30.531675307  114.357269780    27.5243   6  20   0.0974   0.1214   0.1874   0.0356   0.0118  -0.0840   0.00    0.0
2026/01/15 02:45:30.000   30.531675292  114.357269751    27.5299   6  20   0.0970   0.1211   0.1866   0.0353   0.0129  -0.0836   0.00    0.0
2026/01/15 02:46:00.000   30.531675285  114.357269726    27.5327   6  16   0.0966   0.1209   0.1857   0.0349   0.0140  -0.0831   0.00    0.0
2026/01/15 02:46:30.000   30.531675275  114.357269701    27.5369   6  20   0.0962   0.1206   0.1848   0.0346   0.0150  -0.0826   0.00    0.0
2026/01/15 02:47:00.000   30.531675280  114.357269691    27.5423   6  20   0.0958   0.1204   0.1839   0.0342   0.0160  -0.0821   0.00    0.0
2026/01/15 02:47:30.000   30.531675278  114.357269673    27.5472   6  16   0.0954   0.1201   0.1830   0.0339   0.0169  -0.0816   0.00    0.0
2026/01/15 02:48:00.000   30.531675270  114.357269644    27.5538   6  21   0.0950   0.1198   0.1820   0.0335   0.0178  -0.0811   0.00    0.0
2026/01/15 02:48:30.000   30.531675272  114.357269624    27.5593   6  21   0.0946   0.1196   0.1811   0.0331   0.0187  -0.0806   0.00    0.0
2026/01/15 02:49:00.000   30.531675273  114.357269610    27.5637   6  21   0.0941   0.1193   0.1801   0.0327   0.0195  -0.0801   0.00    0.0
2026/01/15 02:49:30.000   30.531675269  114.357269594    27.5694   6  21   0.0937   0.1190   0.1791   0.0323   0.0203  -0.0795   0.00    0.0
2026/01/15 02:50:00.000   30.531675262  114.357269575    27.5744   6  21   0.0932   0.1188   0.1780   0.0319   0.0211  -0.0790   0.00    0.0
2026/01/15 02:50:30.000   30.531675266  114.357269570    27.5801   6  21   0.0928   0.1185   0.1770   0.0315   0.0219  -0.0784   0.00    0.0
2026/01/15 02:51:00.000   30.531675269  114.357269555    27.5841   6  21   0.0923   0.1182   0.1759   0.0310   0.0227  -0.0779   0.00    0.0
2026/01/15 02:51:30.000   30.531675268  114.357269528    27.5890   6  21   0.0918   0.1179   0.1749   0.0306   0.0234  -0.0773   0.00    0.0
2026/01/15 02:52:00.000   30.531675271  114.357269494    27.5941   6  21   0.0914   0.1177   0.1738   0.0301   0.0241  -0.0767   0.00    0.0
2026/01/15 02:52:30.000   30.531675282  114.357269484    27.5988   6  21   0.0909   0.1174   0.1727   0.0296   0.0248  -0.0761   0.00    0.0
2026/01/15 02:53:00.000   30.531675298  114.357269459    27.6023   6  21   0.0904   0.1171   0.1716   0.0292   0.0255  -0.0756   0.00    0.0
2026/01/15 02:53:30.000   30.531675302  114.357269448    27.6067   6  22   0.0899   0.1168   0.1704   0.0287   0.0261  -0.0750   0.00    0.0
2026/01/15 02:54:00.000   30.531675304  114.357269423    27.6111   6  22   0.0894   0.1165   0.1693   0.0282   0.0267  -0.0743   0.00    0.0
2026/01/15 02:54:30.000   30.531675304  114.357269409    27.6159   6  22   0.0889   0.1162   0.1681   0.0277   0.0273  -0.0737   0.00    0.0
2026/01/15 02:55:00.000   30.531675306  114.357269400    27.6219   6  22   0.0883   0.1158   0.1669   0.0272   0.0279  -0.0731   0.00    0.0
2026/01/15 02:55:30.000   30.531675313  114.357269406    27.6271   6  21   0.0878   0.1155   0.1658   0.0267   0.0286  -0.0725   0.00    0.0
2026/01/15 02:56:00.000   30.531675319  114.357269392    27.6330   6  21   0.0873   0.1152   0.1647   0.0262   0.0293  -0.0718   0.00    0.0
2026/01/15 02:56:30.000   30.531675327  114.357269378    27.6378   6  21   0.0868   0.1149   0.1635   0.0257   0.0299  -0.0712   0.00    0.0
2026/01/15 02:57:00.000   30.531675329  114.357269352    27.6424   6  21   0.0862   0.1146   0.1624   0.0252   0.0305  -0.0705   0.00    0.0
2026/01/15 02:57:30.000   30.531675329  114.357269336    27.6498   6  21   0.0857   0.1143   0.1612   0.0247   0.0311  -0.0698   0.00    0.0
2026/01/15 02:58:00.000   30.531675338  114.357269314    27.6549   6  21   0.0851   0.1140   0.1601   0.0241   0.0317  -0.0692   0.00    0.0
2026/01/15 02:58:30.000   30.531675344  114.357269303    27.6611   6  21   0.0846   0.1136   0.1589   0.0236   0.0323  -0.0685   0.00    0.0
2026/01/15 02:59:00.000   30.531675346  114.357269312    27.6661   6  21   0.0841   0.1133   0.1577   0.0230   0.0329  -0.0678   0.00    0.0
2026/01/15 02:59:30.000   30.531675356  114.357269295    27.6726   6  21   0.0835   0.1130   0.1566   0.0224   0.0334  -0.0672   0.00    0.0
2026/01/15 03:00:00.000   30.531675366  114.357269279    27.6787   6  21   0.0829   0.1126   0.1554   0.0218   0.0339  -0.0665   0.00    0.0
2026/01/15 03:00:30.000   30.531675377  114.357269272    27.6847   6  21   0.0824   0.1123   0.1542   0.0212   0.0344  -0.0659   0.00    0.0
2026/01/15 03:01:00.000   30.531675391  114.357269264    27.6898   6  21   0.0818   0.1119   0.1530   0.0206   0.0349  -0.0652   0.00    0.0
2026/01/15 03:01:30.000   30.531675400  114.357269245    27.6948   6  21   0.0813   0.1116   0.1518   0.0199   0.0354  -0.0646   0.00    0.0
2026/01/15 03:02:00.000   30.531675411  114.357269228    27.7012   6  21   0.0807   0.1112   0.1506   0.0193   0.0358  -0.0639   0.00    0.0
2026/01/15 03:02:30.000   30.531675425  114.357269212    27.7066   6  21   0.0801   0.1108   0.1495   0.0186   0.0362  -0.0633   0.00    0.0
2026/01/15 03:03:00.000   30.531675444  114.357269201    27.7115   6  21   0.0796   0.1105   0.1483   0.0179   0.0367  -0.0626   0.00    0.0
2026/01/15 03:03:30.000   30.531675466  114.357269191    27.7146   6  21   0.0790   0.1101   0.1471   0.0172   0.0371  -0.0620   0.00    0.0
2026/01/15 03:04:00.000   30.531675490  114.357269183    27.7175   6  21   0.0784   0.1097   0.1459   0.0165   0.0374  -0.0614   0.00    0.0
2026/01/15 03:04:30.000   30.531675509  114.357269172    27.7217   6  21   0.0778   0.1093   0.1447   0.0157   0.0378  -0.0608   0.00    0.0
2026/01/15 03:05:00.000   30.531675527  114.357269157    27.7268   6  21   0.0773   0.1089   0.1435   0.0149   0.0382  -0.0602   0.00    0.0
2026/01/15 03:05:30.000   30.531675547  114.357269149    27.7304   6  21   0.0767   0.1085   0.1423   0.0141   0.0385  -0.0595   0.00    0.0
2026/01/15 03:06:00.000   30.531675561  114.357269153    27.7340   6  22   0.0761   0.1081   0.1412   0.0132   0.0388  -0.0589   0.00    0.0
2026/01/15 03:06:30.000   30.531675584  114.357269144    27.7358   6  22   0.0755   0.1077   0.1400   0.0123   0.0391  -0.0583   0.00    0.0
2026/01/15 03:07:00.000   30.531675594  114.357269139    27.7409   6  22   0.0750   0.1073   0.1388   0.0114   0.0394  -0.0578   0.00    0.0
2026/01/15 03:07:30.000   30.531675607  114.357269149    27.7453   6  21   0.0744   0.1069   0.1376   0.0104   0.0397  -0.0572   0.00    0.0
2026/01/15 03:08:00.000   30.531675615  114.357269142    27.7504   6  21   0.0738   0.1065   0.1365   0.0093   0.0400  -0.0566   0.00    0.0
2026/01/15 03:08:30.000   30.531675633  114.357269144    27.7547   6  21   0.0733   0.1061   0.1353   0.0080   0.0402  -0.0560   0.00    0.0
2026/01/15 03:09:00.000   30.531675652  114.357269130    27.7577   6  21   0.0727   0.1057   0.1343   0.0065   0.0407  -0.0555   0.00    0.0
2026/01/15 03:09:30.000   30.531675662  114.357269115    27.7622   6  20   0.0721   0.1053   0.1334   0.0046   0.0411  -0.0549   0.00    0.0
2026/01/15 03:10:00.000   30.531675680  114.357269104    27.7665   6  20   0.0716   0.1049   0.1324   0.0006   0.0415  -0.0544   0.00    0.0
2026/01/15 03:10:30.000   30.531675702  114.357269100    27.7710   6  20   0.0710   0.1045   0.1315  -0.0045   0.0419  -0.0539   0.00    0.0
2026/01/15 03:11:00.000   30.531675729  114.357269101    27.7756   6  20   0.0704   0.1041   0.1305  -0.0063   0.0423  -0.0534   0.00    0.0
2026/01/15 03:11:30.000   30.531675749  114.357269090    27.7799   6  21   0.0699   0.1037   0.1296  -0.0077   0.0427  -0.0529   0.00    0.0
2026/01/15 03:12:00.000   30.531675770  114.357269088    27.7833   6  21   0.0693   0.1033   0.1286  -0.0089   0.0430  -0.0524   0.00    0.0
2026/01/15 03:12:30.000   30.531675793  114.357269098    27.7865   6  21   0.0688   0.1029   0.1277  -0.0098   0.0434  -0.0519   0.00    0.0
2026/01/15 03:13:00.000   30.531675813  114.357269081    27.7895   6  21   0.0682   0.1025   0.1267  -0.0107   0.0437  -0.0514   0.00    0.0
2026/01/15 03:13:30.000   30.531675837  114.357269052    27.7912   6  21   0.0677   0.1021   0.1258  -0.0115   0.0440  -0.0509   0.00    0.0
2026/01/15 03:14:00.000   30.531675856  114.357269036    27.7939   6  20   0.0671   0.1017   0.1249  -0.0122   0.0443  -0.0504   0.00    0.0
2026/01/15 03:14:30.000   30.531675880  114.357269022    27.7961   6  20   0.0666   0.1012   0.1239  -0.0129   0.0445  -0.0500   0.00    0.0
2026/01/15 03:15:00.000   30.531675900  114.357268999    27.7993   6  20   0.0660   0.1008   0.1230  -0.0135   0.0448  -0.0495   0.00    0.0
2026/01/15 03:15:30.000   30.531675921  114.357268990    27.8027   6  20   0.0655   0.1004   0.1221  -0.0141   0.0450  -0.0491   0.00    0.0
2026/01/15 03:16:00.000   30.531675941  114.357268969    27.8058   6  20   0.0650   0.1000   0.1212  -0.0146   0.0452  -0.0486   0.00    0.0
2026/01/15 03:16:30.000   30.531675960  114.357268947    27.8082   6  20   0.0644   0.0995   0.1203  -0.0151   0.0454  -0.0482   0.00    0.0
2026/01/15 03:17:00.000   30.531675977  114.357268928    27.8112   6  20   0.0639   0.0991   0.1194  -0.0156   0.0456  -0.0478   0.00    0.0
2026/01/15 03:17:30.000   30.531675993  114.357268921    27.8139   6  20   0.0634   0.0987   0.1185  -0.0160   0.0458  -0.0474   0.00    0.0
2026/01/15 03:18:00.000   30.531675996  114.357268913    27.8153   6  12   0.0631   0.0984   0.1181  -0.0161   0.0457  -0.0471   0.00    0.0
2026/01/15 03:18:30.000   30.531676018  114.357268894    27.8173   6  21   0.0625   0.0979   0.1172  -0.0165   0.0459  -0.0467   0.00    0.0
2026/01/15 03:19:00.000   30.531676039  114.357268895    27.8194   6  22   0.0620   0.0975   0.1163  -0.0169   0.0460  -0.0463   0.00    0.0
2026/01/15 03:19:30.000   30.531676049  114.357268891    27.8194   6  20   0.0615   0.0970   0.1156  -0.0173   0.0461  -0.0458   0.00    0.0
2026/01/15 03:20:00.000   30.531676071  114.357268864    27.8213   6  22   0.0610   0.0966   0.1147  -0.0177   0.0463  -0.0454   0.00    0.0
2026/01/15 03:20:30.000   30.531676091  114.357268849    27.8238   6  22   0.0605   0.0961   0.1139  -0.0180   0.0464  -0.0450   0.00    0.0
2026/01/15 03:21:00.000   30.531676113  114.357268831    27.8271   6  22   0.0600   0.0957   0.1130  -0.0183   0.0465  -0.0447   0.00    0.0
2026/01/15 03:21:30.000   30.531676137  114.357268812    27.8292   6  22   0.0595   0.0952   0.1121  -0.0186   0.0465  -0.0443   0.00    0.0
2026/01/15 03:22:00.000   30.531676164  114.357268791    27.8311   6  22   0.0590   0.0947   0.1112  -0.0189   0.0466  -0.0440   0.00    0.0
2026/01/15 03:22:30.000   30.531676177  114.357268776    27.8316   6  13   0.0587   0.0944   0.1109  -0.0189   0.0465  -0.0437   0.00    0.0
2026/01/15 03:23:00.000   30.531676202  114.357268760    27.8332   6  22   0.0582   0.0939   0.1100  -0.0191   0.0466  -0.0434   0.00    0.0
2026/01/15 03:23:30.000   30.531676224  114.357268750    27.8344   6  22   0.0577   0.0935   0.1092  -0.0194   0.0466  -0.0430   0.00    0.0
2026/01/15 03:24:00.000   30.531676249  114.357268739    27.8364   6  21   0.0572   0.0930   0.1084  -0.0196   0.0468  -0.0427   0.00    0.0
2026/01/15 03:24:30.000   30.531676259  114.357268747    27.8362   6  13   0.0570   0.0927   0.1081  -0.0196   0.0467  -0.0424   0.00    0.0
2026/01/15 03:25:00.000   30.531676277  114.357268757    27.8387   6  21   0.0565   0.0923   0.1074  -0.0197   0.0469  -0.0420   0.00    0.0
2026/01/15 03:25:30.000   30.531676298  114.357268757    27.8416   6  21   0.0560   0.0918   0.1066  -0.0199   0.0470  -0.0417   0.00    0.0
2026/01/15 03:26:00.000   30.531676299  114.357268755    27.8420   6   6   0.0559   0.0915   0.1065  -0.0198   0.0469  -0.0417   0.00    0.0
2026/01/15 03:26:30.000   30.531676311  114.357268766    27.8426   6  12   0.0556   0.0912   0.1062  -0.0198   0.0467  -0.0414   0.00    0.0
2026/01/15 03:27:00.000   30.531676331  114.357268758    27.8454   6  21   0.0551   0.0907   0.1054  -0.0199   0.0469  -0.0411   0.00    0.0
2026/01/15 03:27:30.000   30.531676326  114.357268755    27.8463   6  10   0.0550   0.0904   0.1051  -0.0199   0.0468  -0.0409   0.00    0.0
2026/01/15 03:28:00.000   30.531676325  114.357268755    27.8471   6   6   0.0549   0.0901   0.1050  -0.0198   0.0466  -0.0408   0.00    0.0
2026/01/15 03:28:30.000   30.531676329  114.357268750    27.8472   6   5   0.0548   0.0899   0.1049  -0.0198   0.0464  -0.0408   0.00    0.0
2026/01/15 03:29:00.000   30.531676332  114.357268750    27.8477   6   5   0.0547   0.0896   0.1048  -0.0197   0.0462  -0.0408   0.00    0.0
2026/01/15 03:29:30.000   30.531676335  114.357268738    27.8476   6   5   0.0546   0.0893   0.1047  -0.0196   0.0460  -0.0408   0.00    0.0
2026/01/15 03:31:30.000   30.531676328  114.357268709    27.8492   6   5   0.0545   0.0888   0.1045  -0.0195   0.0457  -0.0407   0.00    0.0
2026/01/15 03:40:00.000   30.531676248  114.357268521    27.8579   6   5   0.0540   0.0873   0.1041  -0.0193   0.0451  -0.0404   0.00    0.0
2026/01/15 03:45:00.000   30.531676205  114.357268410    27.8646   6  18   0.0538   0.0864   0.1038  -0.0196   0.0449  -0.0405   0.00    0.0
2026/01/15 03:45:30.000   30.531676208  114.357268420    27.8676   6  18   0.0536   0.0860   0.1037  -0.0198   0.0449  -0.0407   0.00    0.0
2026/01/15 03:46:00.000   30.531676216  114.357268431    27.8698   6  18   0.0535   0.0856   0.1035  -0.0201   0.0448  -0.0408   0.00    0.0
2026/01/15 03:46:30.000   30.531676227  114.357268452    27.8726   6  18   0.0534   0.0853   0.1034  -0.0203   0.0448  -0.0410   0.00    0.0
2026/01/15 03:47:00.000   30.531676237  114.357268463    27.8751   6  18   0.0533   0.0849   0.1032  -0.0205   0.0447  -0.0411   0.00    0.0
2026/01/15 03:47:30.000   30.531676245  114.357268475    27.8774   6  18   0.0531   0.0846   0.1031  -0.0207   0.0447  -0.0413   0.00    0.0
2026/01/15 03:48:00.000   30.531676253  114.357268489    27.8806   6  18   0.0530   0.0842   0.1029  -0.0209   0.0447  -0.0414   0.00    0.0
2026/01/15 03:48:30.000   30.531676261  114.357268495    27.8831   6  18   0.0529   0.0839   0.1028  -0.0211   0.0446  -0.0416   0.00    0.0
2026/01/15 03:49:00.000   30.531676272  114.357268497    27.8853   6  18   0.0528   0.0835   0.1026  -0.0213   0.0446  -0.0417   0.00    0.0
2026/01/15 03:49:30.000   30.531676278  114.357268499    27.8875   6  18   0.0527   0.0832   0.1025  -0.0215   0.0446  -0.0419   0.00    0.0
2026/01/15 03:50:00.000   30.531676283  114.357268513    27.8900   6  18   0.0525   0.0828   0.1024  -0.0217   0.0445  -0.0420   0.00    0.0
2026/01/15 03:50:30.000   30.531676289  114.357268525    27.8927   6  18   0.0524   0.0825   0.1022  -0.0218   0.0445  -0.0421   0.00    0.0
2026/01/15 03:51:00.000   30.531676294  114.357268530    27.8948   6  18   0.0523   0.0821   0.1021  -0.0220   0.0444  -0.0423   0.00    0.0
2026/01/15 03:51:30.000   30.531676303  114.357268523    27.8967   6  18   0.0522   0.0818   0.1019  -0.0221   0.0444  -0.0424   0.00    0.0
2026/01/15 03:52:00.000   30.531676311  114.357268536    27.8989   6  18   0.0521   0.0815   0.1018  -0.0222   0.0444  -0.0425   0.00    0.0
2026/01/15 03:52:30.000   30.531676314  114.357268543    27.9011   6  18   0.0520   0.0811   0.1016  -0.0224   0.0443  -0.0427   0.00    0.0
2026/01/15 03:53:00.000   30.531676321  114.357268548    27.9032   6  18   0.0518   0.0808   0.1015  -0.0225   0.0443  -0.0428   0.00    0.0
2026/01/15 03:53:30.000   30.531676329  114.357268559    27.9051   6  19   0.0517   0.0805   0.1014  -0.0226   0.0442  -0.0429   0.00    0.0
2026/01/15 03:54:00.000   30.531676337  114.357268564    27.9071   6  19   0.0516   0.0802   0.1012  -0.0227   0.0442  -0.0430   0.00    0.0
2026/01/15 03:54:30.000   30.531676344  114.357268568    27.9084   6  19   0.0515   0.0798   0.1011  -0.0228   0.0442  -0.0431   0.00    0.0
2026/01/15 03:55:00.000   30.531676351  114.357268575    27.9105   6  19   0.0514   0.0795   0.1009  -0.0229   0.0441  -0.0432   0.00    0.0
2026/01/15 03:55:30.000   30.531676359  114.357268580    27.9125   6  19   0.0513   0.0792   0.1008  -0.0230   0.0441  -0.0434   0.00    0.0
2026/01/15 03:56:00.000   30.531676365  114.357268583    27.9149   6  19   0.0511   0.0789   0.1006  -0.0231   0.0440  -0.0435   0.00    0.0
2026/01/15 03:56:30.000   30.531676370  114.357268582    27.9176   6  19   0.0510   0.0786   0.1005  -0.0232   0.0440  -0.0436   0.00    0.0
2026/01/15 03:57:00.000   30.531676377  114.357268579    27.9200   6  19   0.0509   0.0783   0.1003  -0.0233   0.0439  -0.0437   0.00    0.0
2026/01/15 03:57:30.000   30.531676384  114.357268583    27.9220   6  19   0.0508   0.0780   0.1002  -0.0234   0.0439  -0.0438   0.00    0.0
2026/01/15 03:58:00.000   30.531676390  114.357268588    27.9239   6  19   0.0507   0.0776   0.1000  -0.0234   0.0439  -0.0439   0.00    0.0
2026/01/15 03:58:30.000   30.531676395  114.357268585    27.9265   6  19   0.0506   0.0773   0.0999  -0.0235   0.0438  -0.0439   0.00    0.0
2026/01/15 03:59:00.000   30.531676401  114.357268592    27.9292   6  19   0.0504   0.0770   0.0997  -0.0236   0.0438  -0.0440   0.00    0.0
2026/01/15 03:59:30.000   30.531676405  114.357268601    27.9317   6  19   0.0503   0.0767   0.0995  -0.0236   0.0437  -0.0441   0.00    0.0
2026/01/15 04:00:00.000   30.531676413  114.357268604    27.9343   6  19   0.0502   0.0764   0.0994  -0.0237   0.0437  -0.0442   0.00    0.0
2026/01/15 04:00:30.000   30.531676421  114.357268603    27.9362   6  20   0.0501   0.0761   0.0992  -0.0237   0.0436  -0.0443   0.00    0.0
2026/01/15 04:01:00.000   30.531676427  114.357268610    27.9383   6  20   0.0500   0.0758   0.0991  -0.0238   0.0436  -0.0444   0.00    0.0
2026/01/15 04:01:30.000   30.531676434  114.357268620    27.9403   6  20   0.0499   0.0755   0.0989  -0.0238   0.0435  -0.0444   0.00    0.0
2026/01/15 04:02:00.000   30.531676440  114.357268624    27.9424   6  20   0.0497   0.0752   0.0987  -0.0239   0.0435  -0.0445   0.00    0.0
2026/01/15 04:02:30.000   30.531676447  114.357268630    27.9447   6  20   0.0496   0.0749   0.0986  -0.0239   0.0434  -0.0446   0.00    0.0
2026/01/15 04:03:00.000   30.531676453  114.357268630    27.9465   6  20   0.0495   0.0746   0.0984  -0.0239   0.0434  -0.0446   0.00    0.0
2026/01/15 04:03:30.000   30.531676462  114.357268632    27.9482   6  20   0.0494   0.0743   0.0982  -0.0240   0.0433  -0.0447   0.00    0.0
2026/01/15 04:04:00.000   30.531676472  114.357268637    27.9500   6  20   0.0492   0.0740   0.0981  -0.0240   0.0433  -0.0447   0.00    0.0
2026/01/15 04:04:30.000   30.531676483  114.357268648    27.9514   6  20   0.0491   0.0737   0.0979  -0.0240   0.0432  -0.0448   0.00    0.0
2026/01/15 04:05:00.000   30.531676492  114.357268654    27.9528   6  20   0.0490   0.0734   0.0977  -0.0240   0.0431  -0.0449   0.00    0.0
2026/01/15 04:05:30.000   30.531676500  114.357268661    27.9546   6  20   0.0489   0.0731   0.0976  -0.0241   0.0431  -0.0449   0.00    0.0
2026/01/15 04:06:00.000   30.531676505  114.357268662    27.9561   6  20   0.0487   0.0728   0.0974  -0.0241   0.0430  -0.0449   0.00    0.0
2026/01/15 04:06:30.000   30.531676511  114.357268658    27.9579   6  20   0.0486   0.0725   0.0972  -0.0241   0.0430  -0.0450   0.00    0.0
2026/01/15 04:07:00.000   30.531676516  114.357268659    27.9597   6  20   0.0485   0.0722   0.0970  -0.0241   0.0429  -0.0450   0.00    0.0
2026/01/15 04:07:30.000   30.531676522  114.357268664    27.9617   6  20   0.0484   0.0719   0.0968  -0.0241   0.0428  -0.0451   0.00    0.0
2026/01/15 04:08:00.000   30.531676528  114.357268665    27.9635   6  20   0.0482   0.0716   0.0967  -0.0241   0.0428  -0.0451   0.00    0.0
2026/01/15 04:08:30.000   30.531676532  114.357268670    27.9658   6  20   0.0481   0.0713   0.0965  -0.0241   0.0427  -0.0451   0.00    0.0
2026/01/15 04:09:00.000   30.531676540  114.357268671    27.9676   6  20   0.0480   0.0710   0.0963  -0.0241   0.0426  -0.0451   0.00    0.0
2026/01/15 04:09:30.000   30.531676544  114.357268673    27.9699   6  20   0.0478   0.0708   0.0961  -0.0241   0.0426  -0.0452   0.00    0.0
2026/01/15 04:10:00.000   30.531676550  114.357268677    27.9718   6  20   0.0477   0.0705   0.0959  -0.0241   0.0425  -0.0452   0.00    0.0
2026/01/15 04:10:30.000   30.531676555  114.357268675    27.9734   6  20   0.0476   0.0702   0.0957  -0.0241   0.0424  -0.0452   0.00    0.0
2026/01/15 04:11:00.000   30.531676561  114.357268679    27.9752   6  20   0.0474   0.0699   0.0955  -0.0241   0.0424  -0.0452   0.00    0.0
2026/01/15 04:11:30.000   30.531676567  114.357268664    27.9768   6  20   0.0473   0.0696   0.0953  -0.0240   0.0423  -0.0452   0.00    0.0
2026/01/15 04:12:00.000   30.531676575  114.357268665    27.9783   6  20   0.0472   0.0693   0.0951  -0.0240   0.0422  -0.0452   0.00    0.0
2026/01/15 04:12:30.000   30.531676578  114.357268664    27.9802   6  20   0.0470   0.0690   0.0949  -0.0240   0.0421  -0.0452   0.00    0.0
2026/01/15 04:13:00.000   30.531676585  114.357268660    27.9813   6  20   0.0469   0.0687   0.0947  -0.0240   0.0421  -0.0452   0.00    0.0
2026/01/15 04:13:30.000   30.531676589  114.357268653    27.9827   6  20   0.0468   0.0685   0.0945  -0.0240   0.0420  -0.0452   0.00    0.0
2026/01/15 04:14:00.000   30.531676595  114.357268659    27.9846   6  20   0.0466   0.0682   0.0943  -0.0239   0.0419  -0.0452   0.00    0.0
2026/01/15 04:14:30.000   30.531676599  114.357268657    27.9865   6  20   0.0465   0.0679   0.0941  -0.0239   0.0418  -0.0452   0.00    0.0
2026/01/15 04:15:00.000   30.531676604  114.357268655    27.9885   6  20   0.0463   0.0676   0.0939  -0.0239   0.0417  -0.0452   0.00    0.0
2026/01/15 04:15:30.000   30.531676610  114.357268656    27.9901   6  20   0.0462   0.0673   0.0937  -0.0238   0.0416  -0.0452   0.00    0.0
2026/01/15 04:16:00.000   30.531676614  114.357268657    27.9915   6  20   0.0461   0.0670   0.0935  -0.0238   0.0415  -0.0452   0.00    0.0
2026/01/15 04:16:30.000   30.531676621  114.357268661    27.9926   6  20   0.0459   0.0668   0.0933  -0.0237   0.0415  -0.0451   0.00    0.0
2026/01/15 04:17:00.000   30.531676627  114.357268661    27.9940   6  20   0.0458   0.0665   0.0931  -0.0237   0.0414  -0.0451   0.00    0.0
2026/01/15 04:17:30.000   30.531676634  114.357268666    27.9948   6  20   0.0456   0.0662   0.0928  -0.0236   0.0413  -0.0451   0.00    0.0
2026/01/15 04:18:00.000   30.531676640  114.357268672    27.9958   6  20   0.0455   0.0659   0.0926  -0.0236   0.0412  -0.0451   0.00    0.0
2026/01/15 04:18:30.000   30.531676647  114.357268679    27.9969   6  20   0.0453   0.0657   0.0924  -0.0235   0.0411  -0.0450   0.00    0.0
2026/01/15 04:19:00.000   30.531676654  114.357268682    27.9979   6  20   0.0452   0.0654   0.0922  -0.0235   0.0410  -0.0450   0.00    0.0
2026/01/15 04:19:30.000   30.531676660  114.357268682    27.9994   6  20   0.0450   0.0651   0.0919  -0.0234   0.0409  -0.0449   0.00    0.0
2026/01/15 04:20:00.000   30.531676668  114.357268684    27.9997   6  20   0.0449   0.0648   0.0917  -0.0234   0.0408  -0.0449   0.00    0.0
2026/01/15 04:20:30.000   30.531676676  114.357268690    28.0005   6  20   0.0447   0.0645   0.0915  -0.0233   0.0407  -0.0448   0.00    0.0
2026/01/15 04:21:00.000   30.531676682  114.357268694    28.0016   6  20   0.0446   0.0643   0.0912  -0.0233   0.0406  -0.0448   0.00    0.0
2026/01/15 04:21:30.000   30.531676692  114.357268689    28.0020   6  20   0.0444   0.0640   0.0910  -0.0232   0.0404  -0.0447   0.00    0.0
2026/01/15 04:22:00.000   30.531676698  114.357268688    28.0026   6  20   0.0443   0.0637   0.0908  -0.0231   0.0403  -0.0447   0.00    0.0
2026/01/15 04:22:30.000   30.531676704  114.357268687    28.0034   6  20   0.0441   0.0635   0.0905  -0.0231   0.0402  -0.0446   0.00    0.0
2026/01/15 04:23:00.000   30.531676710  114.357268691    28.0044   6  20   0.0439   0.0632   0.0903  -0.0230   0.0401  -0.0446   0.00    0.0
2026/01/15 04:23:30.000   30.531676717  114.357268689    28.0049   6  20   0.0438   0.0629   0.0900  -0.0229   0.0400  -0.0445   0.00    0.0
2026/01/15 04:24:00.000   30.531676725  114.357268689    28.0055   6  20   0.0436   0.0626   0.0898  -0.0228   0.0399  -0.0444   0.00    0.0
2026/01/15 04:24:30.000   30.531676732  114.357268688    28.0059   6  20   0.0435   0.0624   0.0896  -0.0228   0.0397  -0.0444   0.00    0.0
2026/01/15 04:25:00.000   30.531676738  114.357268690    28.0062   6  20   0.0433   0.0621   0.0893  -0.0227   0.0396  -0.0443   0.00    0.0
2026/01/15 04:25:30.000   30.531676747  114.357268689    28.0061   6  20   0.0431   0.0618   0.0891  -0.0226   0.0395  -0.0442   0.00    0.0
2026/01/15 04:26:00.000   30.531676754  114.357268693    28.0066   6  20   0.0430   0.0616   0.0888  -0.0225   0.0394  -0.0441   0.00    0.0
2026/01/15 04:26:30.000   30.531676762  114.357268703    28.0073   6  20   0.0428   0.0613   0.0885  -0.0224   0.0392  -0.0440   0.00    0.0
2026/01/15 04:27:00.000   30.531676768  114.357268699    28.0077   6  20   0.0427   0.0610   0.0883  -0.0224   0.0391  -0.0440   0.00    0.0
2026/01/15 04:27:30.000   30.531676776  114.357268698    28.0076   6  21   0.0425   0.0608   0.0880  -0.0223   0.0390  -0.0439   0.00    0.0
2026/01/15 04:28:00.000   30.531676783  114.357268702    28.0082   6  21   0.0423   0.0605   0.0878  -0.0222   0.0389  -0.0438   0.00    0.0
2026/01/15 04:28:30.000   30.531676789  114.357268695    28.0081   6  21   0.0422   0.0602   0.0875  -0.0221   0.0387  -0.0437   0.00    0.0
2026/01/15 04:29:00.000   30.531676797  114.357268694    28.0080   6  21   0.0420   0.0600   0.0872  -0.0220   0.0386  -0.0436   0.00    0.0
2026/01/15 04:29:30.000   30.531676806  114.357268694    28.0077   6  21   0.0418   0.0597   0.0870  -0.0219   0.0384  -0.0435   0.00    0.0
2026/01/15 04:30:00.000   30.531676815  114.357268696    28.0073   6  22   0.0417   0.0595   0.0867  -0.0218   0.0383  -0.0434   0.00    0.0
2026/01/15 04:30:30.000   30.531676824  114.357268694    28.0072   6  22   0.0415   0.0592   0.0864  -0.0217   0.0382  -0.0433   0.00    0.0
2026/01/15 04:31:00.000   30.531676832  114.357268700    28.0068   6  22   0.0413   0.0589   0.0862  -0.0216   0.0380  -0.0432   0.00    0.0
2026/01/15 04:31:30.000   30.531676837  114.357268706    28.0065   6  22   0.0412   0.0587   0.0860  -0.0215   0.0379  -0.0430   0.00    0.0
2026/01/15 04:32:00.000   30.531676843  114.357268706    28.0062   6  22   0.0410   0.0584   0.0858  -0.0214   0.0379  -0.0429   0.00    0.0
2026/01/15 04:32:30.000   30.531676850  114.357268703    28.0055   6  22   0.0408   0.0582   0.0857  -0.0213   0.0378  -0.0428   0.00    0.0
2026/01/15 04:33:00.000   30.531676859  114.357268706    28.0043   6  22   0.0407   0.0580   0.0855  -0.0212   0.0377  -0.0426   0.00    0.0
2026/01/15 04:33:30.000   30.531676868  114.357268705    28.0031   6  22   0.0405   0.0577   0.0853  -0.0210   0.0377  -0.0425   0.00    0.0
2026/01/15 04:34:00.000   30.531676876  114.357268705    28.0018   6  22   0.0403   0.0575   0.0852  -0.0209   0.0376  -0.0424   0.00    0.0
2026/01/15 04:34:30.000   30.531676883  114.357268707    28.0008   6  22   0.0402   0.0573   0.0850  -0.0208   0.0375  -0.0422   0.00    0.0
2026/01/15 04:35:00.000   30.531676891  114.357268709    27.9995   6  22   0.0400   0.0570   0.0848  -0.0207   0.0374  -0.0421   0.00    0.0
2026/01/15 04:35:30.000   30.531676899  114.357268710    27.9983   6  22   0.0398   0.0568   0.0846  -0.0206   0.0374  -0.0419   0.00    0.0
2026/01/15 04:36:00.000   30.531676906  114.357268710    27.9974   6  22   0.0396   0.0565   0.0845  -0.0204   0.0373  -0.0418   0.00    0.0
2026/01/15 04:36:30.000   30.531676913  114.357268710    27.9964   6  22   0.0395   0.0563   0.0843  -0.0203   0.0372  -0.0417   0.00    0.0
2026/01/15 04:37:00.000   30.531676923  114.357268708    27.9950   6  22   0.0393   0.0561   0.0841  -0.0202   0.0371  -0.0415   0.00    0.0
2026/01/15 04:37:30.000   30.531676930  114.357268714    27.9940   6  22   0.0391   0.0558   0.0839  -0.0201   0.0370  -0.0414   0.00    0.0
2026/01/15 04:38:00.000   30.531676937  114.357268713    27.9931   6  22   0.0389   0.0556   0.0837  -0.0200   0.0369  -0.0412   0.00    0.0
2026/01/15 04:38:30.000   30.531676944  114.357268718    27.9922   6  22   0.0388   0.0554   0.0835  -0.0198   0.0368  -0.0411   0.00    0.0
2026/01/15 04:39:00.000   30.531676951  114.357268719    27.9914   6  22   0.0386   0.0551   0.0833  -0.0197   0.0367  -0.0409   0.00    0.0
2026/01/15 04:39:30.000   30.531676956  114.357268724    27.9911   6  23   0.0384   0.0549   0.0831  -0.0196   0.0366  -0.0408   0.00    0.0
2026/01/15 04:40:00.000   30.531676961  114.357268726    27.9906   6  23   0.0383   0.0547   0.0829  -0.0195   0.0365  -0.0406   0.00    0.0
2026/01/15 04:40:30.000   30.531676965  114.357268727    27.9901   6  22   0.0381   0.0544   0.0827  -0.0193   0.0364  -0.0405   0.00    0.0
2026/01/15 04:41:00.000   30.531676973  114.357268729    27.9894   6  22   0.0379   0.0542   0.0825  -0.0192   0.0363  -0.0403   0.00    0.0
2026/01/15 04:41:30.000   30.531676980  114.357268733    27.9887   6  23   0.0377   0.0540   0.0824  -0.0191   0.0362  -0.0402   0.00    0.0
2026/01/15 04:42:00.000   30.531676984  114.357268738    27.9884   6  23   0.0376   0.0538   0.0822  -0.0189   0.0361  -0.0400   0.00    0.0
2026/01/15 04:42:30.000   30.531676990  114.357268740    27.9875   6  23   0.0374   0.0536   0.0820  -0.0188   0.0360  -0.0398   0.00    0.0
2026/01/15 04:43:00.000   30.531676998  114.357268739    27.9865   6  23   0.0372   0.0533   0.0818  -0.0187   0.0359  -0.0397   0.00    0.0
2026/01/15 04:43:30.000   30.531677005  114.357268741    27.9854   6  23   0.0370   0.0531   0.0816  -0.0185   0.0358  -0.0395   0.00    0.0
2026/01/15 04:44:00.000   30.531677012  114.357268743    27.9855   6  22   0.0369   0.0529   0.0814  -0.0184   0.0357  -0.0394   0.00    0.0
2026/01/15 04:44:30.000   30.531677018  114.357268744    27.9857   6  22   0.0367   0.0527   0.0812  -0.0183   0.0356  -0.0392   0.00    0.0
2026/01/15 04:45:00.000   30.531677022  114.357268745    27.9862   6  21   0.0365   0.0525   0.0810  -0.0182   0.0355  -0.0390   0.00    0.0
2026/01/15 04:45:30.000   30.531677028  114.357268749    27.9861   6  22   0.0363   0.0523   0.0808  -0.0180   0.0354  -0.0389   0.00    0.0
2026/01/15 04:46:00.000   30.531677034  114.357268747    27.9859   6  21   0.0362   0.0520   0.0806  -0.0179   0.0353  -0.0387   0.00    0.0
2026/01/15 04:46:30.000   30.531677037  114.357268742    27.9860   6  17   0.0361   0.0520   0.0805  -0.0179   0.0353  -0.0386   0.00    0.0
2026/01/15 04:47:00.000   30.531677040  114.357268740    27.9861   6  19   0.0360   0.0519   0.0803  -0.0179   0.0352  -0.0385   0.00    0.0
2026/01/15 04:47:30.000   30.531677043  114.357268741    27.9859   6  18   0.0359   0.0519   0.0801  -0.0180   0.0352  -0.0384   0.00    0.0
2026/01/15 04:48:00.000   30.531677047  114.357268738    27.9860   6  17   0.0358   0.0518   0.0800  -0.0180   0.0352  -0.0383   0.00    0.0
2026/01/15 04:48:30.000   30.531677052  114.357268741    27.9860   6  18   0.0357   0.0518   0.0798  -0.0180   0.0351  -0.0382   0.00    0.0
2026/01/15 04:49:00.000   30.531677057  114.357268741    27.9858   6  16   0.0357   0.0517   0.0796  -0.0180   0.0351  -0.0381   0.00    0.0
2026/01/15 04:49:30.000   30.531677060  114.357268744    27.9861   6  18   0.0356   0.0516   0.0795  -0.0180   0.0350  -0.0380   0.00    0.0
2026/01/15 04:50:00.000   30.531677066  114.357268746    27.9862   6  18   0.0355   0.0516   0.0793  -0.0181   0.0350  -0.0379   0.00    0.0
2026/01/15 04:50:30.000   30.531677071  114.357268744    27.9860   6  18   0.0354   0.0515   0.0791  -0.0181   0.0350  -0.0378   0.00    0.0
2026/01/15 04:51:00.000   30.531677078  114.357268748    27.9861   6  20   0.0352   0.0513   0.0789  -0.0179   0.0348  -0.0376   0.00    0.0
2026/01/15 04:51:30.000   30.531677087  114.357268751    27.9862   6  20   0.0350   0.0511   0.0786  -0.0177   0.0347  -0.0374   0.00    0.0
2026/01/15 04:52:00.000   30.531677096  114.357268753    27.9859   6  21   0.0348   0.0508   0.0784  -0.0176   0.0345  -0.0373   0.00    0.0
2026/01/15 04:52:30.000   30.531677100  114.357268754    27.9861   6  17   0.0347   0.0508   0.0782  -0.0176   0.0345  -0.0372   0.00    0.0
2026/01/15 04:53:00.000   30.531677107  114.357268758    27.9860   6  20   0.0345   0.0505   0.0780  -0.0174   0.0343  -0.0370   0.00    0.0
2026/01/15 04:53:30.000   30.531677110  114.357268759    27.9862   6  18   0.0344   0.0505   0.0778  -0.0175   0.0343  -0.0369   0.00    0.0
2026/01/15 04:54:00.000   30.531677117  114.357268762    27.9861   6  20   0.0343   0.0502   0.0776  -0.0173   0.0341  -0.0367   0.00    0.0
2026/01/15 04:54:30.000   30.531677120  114.357268762    27.9862   6  18   0.0342   0.0502   0.0774  -0.0173   0.0341  -0.0366   0.00    0.0
2026/01/15 04:55:00.000   30.531677125  114.357268766    27.9862   6  17   0.0341   0.0501   0.0772  -0.0173   0.0340  -0.0365   0.00    0.0
2026/01/15 04:55:30.000   30.531677129  114.357268767    27.9864   6  17   0.0340   0.0500   0.0770  -0.0173   0.0340  -0.0364   0.00    0.0
2026/01/15 04:56:00.000   30.531677133  114.357268772    27.9866   6  17   0.0339   0.0500   0.0768  -0.0174   0.0339  -0.0362   0.00    0.0
2026/01/15 04:56:30.000   30.531677138  114.357268778    27.9868   6  21   0.0337   0.0497   0.0765  -0.0172   0.0338  -0.0360   0.00    0.0
2026/01/15 04:57:00.000   30.531677145  114.357268781    27.9866   6  21   0.0335   0.0495   0.0763  -0.0170   0.0336  -0.0358   0.00    0.0
2026/01/15 04:57:30.000   30.531677150  114.357268783    27.9865   6  17   0.0334   0.0494   0.0761  -0.0170   0.0335  -0.0357   0.00    0.0
2026/01/15 04:58:00.000   30.531677156  114.357268786    27.9867   6  20   0.0332   0.0492   0.0758  -0.0168   0.0333  -0.0355   0.00    0.0
2026/01/15 04:58:30.000   30.531677160  114.357268791    27.9870   6  17   0.0331   0.0491   0.0756  -0.0168   0.0333  -0.0354   0.00    0.0
2026/01/15 04:59:00.000   30.531677165  114.357268796    27.9873   6  17   0.0330   0.0491   0.0754  -0.0169   0.0332  -0.0353   0.00    0.0
2026/01/15 05:00:00.000   30.531677166  114.357268799    27.9882   6  17   0.0330   0.0490   0.0751  -0.0169   0.0332  -0.0352   0.00    0.0
2026/01/15 05:03:00.000   30.531677161  114.357268784    27.9894   6  18   0.0328   0.0489   0.0749  -0.0169   0.0331  -0.0350   0.00    0.0
2026/01/15 05:04:00.000   30.531677166  114.357268786    27.9889   6  19   0.0327   0.0488   0.0746  -0.0169   0.0331  -0.0349   0.00    0.0
2026/01/15 05:04:30.000   30.531677175  114.357268793    27.9885   6  22   0.0325   0.0485   0.0743  -0.0167   0.0328  -0.0347   0.00    0.0
2026/01/15 05:05:00.000   30.531677181  114.357268796    27.9884   6  18   0.0324   0.0484   0.0741  -0.0167   0.0328  -0.0345   0.00    0.0
2026/01/15 05:05:30.000   30.531677187  114.357268799    27.9882   6  21   0.0322   0.0482   0.0738  -0.0164   0.0326  -0.0343   0.00    0.0
2026/01/15 05:06:00.000   30.531677192  114.357268804    27.9880   6  18   0.0321   0.0481   0.0736  -0.0164   0.0325  -0.0342   0.00    0.0
2026/01/15 05:06:30.000   30.531677199  114.357268809    27.9879   6  21   0.0319   0.0479   0.0733  -0.0162   0.0323  -0.0339   0.00    0.0
2026/01/15 05:07:00.000   30.531677205  114.357268811    27.9877   6  18   0.0318   0.0478   0.0730  -0.0162   0.0323  -0.0338   0.00    0.0
2026/01/15 05:07:30.000   30.531677211  114.357268811    27.9875   6  18   0.0317   0.0477   0.0728  -0.0162   0.0322  -0.0337   0.00    0.0
