% program   : RTKPOST-EX 2.5.0
% inp file  : C:\PPP_PROJECT\New_Data\obs\RNXDATA\WUH200CHN_R_20260150000_01D_30S_MO.rnx
% inp file  : C:\PPP_PROJECT\New_Data\nav\BRDC00IGS_R_20260150000_01D_MN.rnx
% inp file  : C:\PPP_PROJECT\New_Data\DATA_FINAL_ANT_EXTRA\COD0MGXFIN_20260150000_01D_05M_ORB.SP3
% inp file  : C:\PPP_PROJECT\New_Data\DATA_FINAL_ANT_EXTRA\COD0MGXFIN_20260150000_01D_30S_CLK.CLK
% obs start : 2026/01/15 00:00:00.0 GPST (week2401 345600.0s)
% obs end   : 2026/01/15 23:59:30.0 GPST (week2401 431970.0s)
% pos mode  : PPP Static
% freqs     : L1+L2/E5b
% solution  : Forward
% elev mask : 15.0 deg
% dynamics  : on
% tidecorr  :
% ionos opt : Iono-Free LC
% tropo opt : Saastamoinen
% ephemeris : Precise
% navi sys  : GPS Galileo
% antenna1  :                       ( 0.0000  0.0000  0.0000)
%
% (lat/lon/height=WGS84/ellipsoidal,Q=1:fix,2:float,3:sbas,4:dgps,5:single,6:ppp,ns=# of satellites)
%  GPST                  latitude(deg) longitude(deg)  height(m)   Q  ns   sdn(m)   sde(m)   sdu(m)  sdne(m)  sdeu(m)  sdun(m) age(s)  ratio
2026/01/15 00:00:00.000   30.531667460  114.357260331    27.1462   6  11   3.0942   3.2566   8.2363  -0.6292   2.2049  -2.4301   0.00    0.0
2026/01/15 00:00:30.000   30.531670910  114.357259998    27.5591   6  13   2.1912   2.3084   5.8402  -0.4469   1.5769  -1.7176   0.00    0.0
2026/01/15 00:01:00.000   30.531671884  114.357260835    27.6195   6  13   1.7884   1.8867   4.7514  -0.3599   1.2883  -1.3988   0.00    0.0
2026/01/15 00:01:30.000   30.531672263  114.357262019    27.7748   6  13   1.5467   1.6342   4.0849  -0.3058   1.1119  -1.2070   0.00    0.0
2026/01/15 00:02:00.000   30.531672983  114.357264075    27.9037   6  13   1.3804   1.4612   3.6168  -0.2671   0.9876  -1.0751   0.00    0.0
2026/01/15 00:02:30.000   30.531672377  114.357265414    27.7336   6  13   1.2566   1.3330   3.2603  -0.2369   0.8924  -0.9771   0.00    0.0
2026/01/15 00:03:00.000   30.531672692  114.357266258    27.5887   6  13   1.1595   1.2329   2.9743  -0.2120   0.8154  -0.9005   0.00    0.0
2026/01/15 00:03:30.000   30.531672925  114.357267896    27.6898   6  13   1.0803   1.1517   2.7363  -0.1905   0.7506  -0.8384   0.00    0.0
2026/01/15 00:04:00.000   30.531673176  114.357268291    27.8054   6  13   1.0139   1.0841   2.5331  -0.1714   0.6947  -0.7867   0.00    0.0
2026/01/15 00:04:30.000   30.531672737  114.357268125    27.9443   6  13   0.9571   1.0266   2.3562  -0.1538   0.6453  -0.7426   0.00    0.0
2026/01/15 00:05:00.000   30.531673191  114.357268182    27.9475   6  13   0.9075   0.9768   2.2001  -0.1372   0.6012  -0.7045   0.00    0.0
2026/01/15 00:05:30.000   30.531672892  114.357268761    27.9998   6  13   0.8637   0.9331   2.0608  -0.1211   0.5612  -0.6710   0.00    0.0
2026/01/15 00:06:00.000   30.531673404  114.357268876    28.0490   6  13   0.8245   0.8942   1.9355  -0.1052   0.5248  -0.6412   0.00    0.0
2026/01/15 00:06:30.000   30.531673459  114.357268482    27.9568   6  13   0.7890   0.8594   1.8220  -0.0889   0.4912  -0.6144   0.00    0.0
2026/01/15 00:07:00.000   30.531673392  114.357268045    27.9871   6  13   0.7567   0.8279   1.7188  -0.0715   0.4602  -0.5902   0.00    0.0
2026/01/15 00:07:30.000   30.531673270  114.357267577    28.1322   6  13   0.7271   0.7992   1.6245  -0.0511   0.4315  -0.5680   0.00    0.0
2026/01/15 00:08:00.000   30.531673223  114.357267937    28.2185   6  13   0.6990   0.7719   1.5353  -0.0410   0.4002  -0.5503   0.00    0.0
2026/01/15 00:08:30.000   30.531673221  114.357267898    28.2454   6  13   0.6730   0.7469   1.4541  -0.0251   0.3717  -0.5333   0.00    0.0
2026/01/15 00:09:00.000   30.531673312  114.357268187    28.2107   6  13   0.6488   0.7238   1.3798   0.0218   0.3455  -0.5170   0.00    0.0
2026/01/15 00:09:30.000   30.531673375  114.357268687    28.2265   6  13   0.6252   0.7002   1.3069   0.0598   0.3119  -0.4975   0.00    0.0
2026/01/15 00:10:00.000   30.531673482  114.357268567    28.2306   6  15   0.6032   0.6785   1.2406   0.0784   0.2812  -0.4797   0.00    0.0
2026/01/15 00:10:30.000   30.531673723  114.357268426    28.1608   6  14   0.5835   0.6603   1.1834   0.0824   0.2618  -0.4663   0.00    0.0
2026/01/15 00:11:00.000   30.531673931  114.357268393    28.1276   6  14   0.5649   0.6431   1.1303   0.0864   0.2435  -0.4533   0.00    0.0
2026/01/15 00:11:30.000   30.531674069  114.357268587    28.1086   6  14   0.5474   0.6270   1.0807   0.0901   0.2262  -0.4408   0.00    0.0
2026/01/15 00:12:00.000   30.531674225  114.357268707    28.0635   6  14   0.5307   0.6117   1.0345   0.0935   0.2098  -0.4288   0.00    0.0
2026/01/15 00:12:30.000   30.531674286  114.357268862    28.0801   6  14   0.5149   0.5973   0.9912   0.0967   0.1942  -0.4172   0.00    0.0
2026/01/15 00:13:00.000   30.531674409  114.357268676    28.0903   6  15   0.4997   0.5830   0.9501   0.0979   0.1773  -0.4065   0.00    0.0
2026/01/15 00:13:30.000   30.531674556  114.357268908    28.0597   6  15   0.4852   0.5695   0.9117   0.0993   0.1613  -0.3961   0.00    0.0
2026/01/15 00:14:00.000   30.531674621  114.357268947    28.0525   6  15   0.4714   0.5567   0.8756   0.1007   0.1461  -0.3859   0.00    0.0
2026/01/15 00:14:30.000   30.531674670  114.357268849    28.0417   6  15   0.4582   0.5445   0.8418   0.1020   0.1314  -0.3760   0.00    0.0
2026/01/15 00:15:00.000   30.531674739  114.357268709    28.0366   6  15   0.4455   0.5328   0.8099   0.1032   0.1173  -0.3664   0.00    0.0
2026/01/15 00:15:30.000   30.531674968  114.357268975    28.0253   6  16   0.4331   0.5208   0.7788   0.1069   0.0976  -0.3561   0.00    0.0
2026/01/15 00:16:00.000   30.531674930  114.357269069    28.0444   6  16   0.4212   0.5093   0.7496   0.1098   0.0774  -0.3463   0.00    0.0
2026/01/15 00:16:30.000   30.531675062  114.357269003    28.0147   6  16   0.4099   0.4984   0.7221   0.1121   0.0548  -0.3370   0.00    0.0
2026/01/15 00:17:00.000   30.531675117  114.357268926    27.9970   6  15   0.3993   0.4886   0.6970   0.1124   0.0361  -0.3287   0.00    0.0
2026/01/15 00:17:30.000   30.531675134  114.357268860    27.9928   6  15   0.3892   0.4792   0.6732   0.1125  -0.0130  -0.3208   0.00    0.0
2026/01/15 00:18:00.000   30.531675207  114.357269023    27.9763   6  16   0.3792   0.4695   0.6501   0.1140  -0.0458  -0.3124   0.00    0.0
2026/01/15 00:18:30.000   30.531675374  114.357269222    27.9626   6  16   0.3696   0.4602   0.6281   0.1152  -0.0608  -0.3045   0.00    0.0
2026/01/15 00:19:00.000   30.531675530  114.357269222    27.9451   6  16   0.3604   0.4513   0.6074   0.1160  -0.0709  -0.2968   0.00    0.0
2026/01/15 00:19:30.000   30.531675646  114.357269426    27.9259   6  15   0.3517   0.4431   0.5882   0.1156  -0.0754  -0.2899   0.00    0.0
2026/01/15 00:20:00.000   30.531675752  114.357269747    27.9178   6  16   0.3432   0.4348   0.5694   0.1162  -0.0816  -0.2828   0.00    0.0
2026/01/15 00:20:30.000   30.531675805  114.357269862    27.9279   6  16   0.3350   0.4267   0.5517   0.1165  -0.0864  -0.2760   0.00    0.0
2026/01/15 00:21:00.000   30.531675845  114.357269912    27.9241   6  16   0.3272   0.4189   0.5348   0.1166  -0.0901  -0.2694   0.00    0.0
2026/01/15 00:21:30.000   30.531675912  114.357269902    27.9178   6  16   0.3196   0.4113   0.5187   0.1166  -0.0930  -0.2631   0.00    0.0
2026/01/15 00:22:00.000   30.531676022  114.357269977    27.8940   6  16   0.3123   0.4040   0.5034   0.1165  -0.0952  -0.2570   0.00    0.0
2026/01/15 00:22:30.000   30.531676109  114.357270006    27.8758   6  16   0.3052   0.3969   0.4888   0.1163  -0.0969  -0.2511   0.00    0.0
2026/01/15 00:23:00.000   30.531676221  114.357270020    27.8553   6  16   0.2984   0.3901   0.4748   0.1159  -0.0982  -0.2455   0.00    0.0
2026/01/15 00:23:30.000   30.531676281  114.357270001    27.8454   6  16   0.2918   0.3834   0.4615   0.1155  -0.0992  -0.2400   0.00    0.0
2026/01/15 00:24:00.000   30.531676355  114.357270100    27.8364   6  16   0.2855   0.3769   0.4488   0.1150  -0.0999  -0.2347   0.00    0.0
2026/01/15 00:24:30.000   30.531676400  114.357270029    27.8281   6  16   0.2794   0.3705   0.4366   0.1144  -0.1003  -0.2297   0.00    0.0
2026/01/15 00:25:00.000   30.531676463  114.357270037    27.8222   6  16   0.2734   0.3644   0.4249   0.1138  -0.1005  -0.2247   0.00    0.0
2026/01/15 00:25:30.000   30.531676523  114.357269982    27.8072   6  16   0.2677   0.3584   0.4137   0.1131  -0.1005  -0.2200   0.00    0.0
2026/01/15 00:26:00.000   30.531676570  114.357269933    27.7944   6  17   0.2621   0.3524   0.4029   0.1126  -0.1009  -0.2152   0.00    0.0
2026/01/15 00:26:30.000   30.531676675  114.357269909    27.7811   6   9   0.2588   0.3473   0.3977   0.1112  -0.0977  -0.2125   0.00    0.0
2026/01/15 00:27:00.000   30.531676778  114.357269850    27.7769   6  17   0.2534   0.3416   0.3891   0.1108  -0.0970  -0.2078   0.00    0.0
2026/01/15 00:27:30.000   30.531676931  114.357269801    27.7631   6  17   0.2481   0.3361   0.3807   0.1102  -0.0962  -0.2033   0.00    0.0
2026/01/15 00:28:00.000   30.531677002  114.357269788    27.7610   6  16   0.2430   0.3307   0.3726   0.1096  -0.0953  -0.1989   0.00    0.0
2026/01/15 00:28:30.000   30.531677076  114.357269821    27.7639   6  16   0.2381   0.3254   0.3648   0.1089  -0.0944  -0.1946   0.00    0.0
2026/01/15 00:29:00.000   30.531677079  114.357269762    27.7685   6  16   0.2334   0.3203   0.3571   0.1081  -0.0934  -0.1905   0.00    0.0
2026/01/15 00:29:30.000   30.531677074  114.357269763    27.7754   6  16   0.2288   0.3152   0.3497   0.1073  -0.0924  -0.1866   0.00    0.0
2026/01/15 00:30:00.000   30.531677064  114.357269736    27.7853   6  16   0.2244   0.3103   0.3425   0.1064  -0.0914  -0.1828   0.00    0.0
2026/01/15 00:30:30.000   30.531677064  114.357269645    27.7921   6  16   0.2200   0.3055   0.3355   0.1055  -0.0903  -0.1791   0.00    0.0
2026/01/15 00:31:00.000   30.531677073  114.357269629    27.8002   6  16   0.2159   0.3008   0.3287   0.1046  -0.0892  -0.1755   0.00    0.0
2026/01/15 00:31:30.000   30.531677088  114.357269608    27.8042   6  16   0.2118   0.2963   0.3221   0.1036  -0.0881  -0.1721   0.00    0.0
2026/01/15 00:32:00.000   30.531677133  114.357269686    27.8031   6  16   0.2078   0.2918   0.3157   0.1026  -0.0869  -0.1687   0.00    0.0
2026/01/15 00:32:30.000   30.531677166  114.357269683    27.8016   6  16   0.2040   0.2874   0.3094   0.1015  -0.0858  -0.1655   0.00    0.0
2026/01/15 00:33:00.000   30.531677239  114.357269705    27.7937   6  16   0.2003   0.2831   0.3034   0.1005  -0.0846  -0.1623   0.00    0.0
2026/01/15 00:33:30.000   30.531677288  114.357269679    27.7867   6  16   0.1966   0.2789   0.2975   0.0994  -0.0835  -0.1593   0.00    0.0
2026/01/15 00:34:00.000   30.531677331  114.357269634    27.7788   6  16   0.1931   0.2747   0.2917   0.0983  -0.0823  -0.1563   0.00    0.0
2026/01/15 00:34:30.000   30.531677396  114.357269630    27.7737   6  16   0.1897   0.2707   0.2861   0.0972  -0.0811  -0.1534   0.00    0.0
2026/01/15 00:35:00.000   30.531677447  114.357269631    27.7716   6  16   0.1863   0.2667   0.2807   0.0961  -0.0800  -0.1506   0.00    0.0
2026/01/15 00:35:30.000   30.531677486  114.357269697    27.7674   6  16   0.1831   0.2629   0.2754   0.0950  -0.0788  -0.1479   0.00    0.0
2026/01/15 00:36:00.000   30.531677521  114.357269699    27.7607   6  16   0.1799   0.2591   0.2703   0.0939  -0.0777  -0.1452   0.00    0.0
2026/01/15 00:36:30.000   30.531677601  114.357269718    27.7491   6  16   0.1768   0.2553   0.2653   0.0927  -0.0765  -0.1427   0.00    0.0
2026/01/15 00:37:00.000   30.531677617  114.357269721    27.7446   6  16   0.1738   0.2517   0.2605   0.0916  -0.0754  -0.1401   0.00    0.0
2026/01/15 00:37:30.000   30.531677642  114.357269730    27.7412   6  16   0.1709   0.2481   0.2557   0.0905  -0.0743  -0.1377   0.00    0.0
2026/01/15 00:38:00.000   30.531677667  114.357269739    27.7390   6  16   0.1680   0.2446   0.2511   0.0893  -0.0731  -0.1353   0.00    0.0
2026/01/15 00:38:30.000   30.531677692  114.357269745    27.7404   6  15   0.1654   0.2411   0.2482   0.0881  -0.0717  -0.1338   0.00    0.0
2026/01/15 00:39:00.000   30.531677701  114.357269804    27.7424   6  15   0.1628   0.2378   0.2452   0.0869  -0.0703  -0.1322   0.00    0.0
2026/01/15 00:39:30.000   30.531677700  114.357269820    27.7467   6  15   0.1603   0.2344   0.2423   0.0858  -0.0689  -0.1306   0.00    0.0
2026/01/15 00:40:00.000   30.531677694  114.357269823    27.7519   6  16   0.1578   0.2312   0.2394   0.0846  -0.0676  -0.1291   0.00    0.0
2026/01/15 00:40:30.000   30.531677682  114.357269845    27.7554   6  15   0.1554   0.2280   0.2365   0.0834  -0.0663  -0.1276   0.00    0.0
2026/01/15 00:41:00.000   30.531677675  114.357269869    27.7576   6  16   0.1531   0.2249   0.2337   0.0823  -0.0650  -0.1260   0.00    0.0
2026/01/15 00:41:30.000   30.531677681  114.357269854    27.7588   6  15   0.1508   0.2218   0.2308   0.0812  -0.0638  -0.1246   0.00    0.0
2026/01/15 00:42:00.000   30.531677698  114.357269847    27.7608   6  15   0.1486   0.2188   0.2281   0.0801  -0.0626  -0.1231   0.00    0.0
2026/01/15 00:42:30.000   30.531677721  114.357269882    27.7586   6  15   0.1464   0.2159   0.2253   0.0790  -0.0615  -0.1217   0.00    0.0
2026/01/15 00:43:00.000   30.531677734  114.357269862    27.7582   6  15   0.1442   0.2130   0.2226   0.0779  -0.0604  -0.1202   0.00    0.0
2026/01/15 00:43:30.000   30.531677742  114.357269856    27.7574   6  15   0.1421   0.2101   0.2199   0.0768  -0.0593  -0.1188   0.00    0.0
2026/01/15 00:44:00.000   30.531677765  114.357269901    27.7562   6  15   0.1400   0.2074   0.2172   0.0758  -0.0582  -0.1174   0.00    0.0
2026/01/15 00:44:30.000   30.531677788  114.357269898    27.7550   6  15   0.1380   0.2046   0.2145   0.0747  -0.0571  -0.1159   0.00    0.0
2026/01/15 00:45:00.000   30.531677798  114.357269907    27.7563   6  15   0.1360   0.2019   0.2119   0.0737  -0.0561  -0.1145   0.00    0.0
2026/01/15 00:45:30.000   30.531677796  114.357269901    27.7584   6  15   0.1341   0.1993   0.2093   0.0727  -0.0551  -0.1132   0.00    0.0
2026/01/15 00:46:00.000   30.531677779  114.357269863    27.7607   6  15   0.1322   0.1967   0.2068   0.0717  -0.0541  -0.1118   0.00    0.0
2026/01/15 00:46:30.000   30.531677787  114.357269903    27.7620   6  15   0.1303   0.1941   0.2042   0.0707  -0.0531  -0.1104   0.00    0.0
2026/01/15 00:47:00.000   30.531677796  114.357269925    27.7639   6  15   0.1285   0.1916   0.2017   0.0697  -0.0521  -0.1091   0.00    0.0
2026/01/15 00:47:30.000   30.531677799  114.357269917    27.7662   6  15   0.1267   0.1892   0.1992   0.0687  -0.0512  -0.1078   0.00    0.0
2026/01/15 00:48:00.000   30.531677805  114.357269936    27.7711   6  14   0.1250   0.1869   0.1971   0.0680  -0.0496  -0.1063   0.00    0.0
2026/01/15 00:48:30.000   30.531677832  114.357269947    27.7738   6  14   0.1233   0.1847   0.1949   0.0672  -0.0479  -0.1048   0.00    0.0
2026/01/15 00:49:00.000   30.531677838  114.357269992    27.7798   6  14   0.1217   0.1826   0.1928   0.0665  -0.0463  -0.1034   0.00    0.0
2026/01/15 00:49:30.000   30.531677858  114.357270039    27.7844   6  14   0.1201   0.1804   0.1906   0.0658  -0.0447  -0.1019   0.00    0.0
2026/01/15 00:50:00.000   30.531677881  114.357270091    27.7884   6  14   0.1185   0.1783   0.1886   0.0650  -0.0432  -0.1006   0.00    0.0
2026/01/15 00:50:30.000   30.531677902  114.357270135    27.7904   6  14   0.1170   0.1762   0.1865   0.0643  -0.0417  -0.0992   0.00    0.0
2026/01/15 00:51:00.000   30.531677912  114.357270159    27.7950   6  14   0.1154   0.1742   0.1844   0.0636  -0.0402  -0.0978   0.00    0.0
2026/01/15 00:51:30.000   30.531677917  114.357270161    27.7994   6  14   0.1139   0.1722   0.1824   0.0629  -0.0387  -0.0965   0.00    0.0
2026/01/15 00:52:00.000   30.531677926  114.357270188    27.8031   6  14   0.1125   0.1702   0.1804   0.0622  -0.0372  -0.0952   0.00    0.0
2026/01/15 00:52:30.000   30.531677928  114.357270213    27.8067   6  14   0.1110   0.1683   0.1784   0.0615  -0.0358  -0.0939   0.00    0.0
2026/01/15 00:53:00.000   30.531677939  114.357270209    27.8099   6  14   0.1096   0.1664   0.1765   0.0608  -0.0344  -0.0927   0.00    0.0
2026/01/15 00:53:30.000   30.531677941  114.357270191    27.8141   6  14   0.1082   0.1645   0.1745   0.0601  -0.0330  -0.0914   0.00    0.0
2026/01/15 00:54:00.000   30.531677956  114.357270225    27.8166   6  14   0.1069   0.1626   0.1726   0.0594  -0.0317  -0.0902   0.00    0.0
2026/01/15 00:54:30.000   30.531677966  114.357270259    27.8198   6  14   0.1055   0.1608   0.1707   0.0587  -0.0304  -0.0890   0.00    0.0
2026/01/15 00:55:00.000   30.531677973  114.357270275    27.8231   6  14   0.1042   0.1590   0.1688   0.0580  -0.0291  -0.0879   0.00    0.0
2026/01/15 00:55:30.000   30.531677981  114.357270284    27.8268   6  14   0.1029   0.1572   0.1670   0.0574  -0.0278  -0.0867   0.00    0.0
2026/01/15 00:56:00.000   30.531677995  114.357270317    27.8299   6  14   0.1016   0.1555   0.1652   0.0567  -0.0265  -0.0856   0.00    0.0
2026/01/15 00:56:30.000   30.531678014  114.357270354    27.8320   6  14   0.1004   0.1537   0.1634   0.0561  -0.0253  -0.0845   0.00    0.0
2026/01/15 00:57:00.000   30.531678026  114.357270355    27.8350   6  14   0.0991   0.1521   0.1616   0.0554  -0.0240  -0.0834   0.00    0.0
2026/01/15 00:57:30.000   30.531678035  114.357270384    27.8389   6  14   0.0979   0.1504   0.1598   0.0548  -0.0228  -0.0823   0.00    0.0
2026/01/15 00:58:00.000   30.531678057  114.357270428    27.8421   6  14   0.0967   0.1487   0.1581   0.0541  -0.0217  -0.0813   0.00    0.0
2026/01/15 00:58:30.000   30.531678075  114.357270445    27.8453   6  14   0.0956   0.1471   0.1564   0.0535  -0.0205  -0.0802   0.00    0.0
2026/01/15 00:59:00.000   30.531678090  114.357270462    27.8479   6  14   0.0944   0.1455   0.1547   0.0529  -0.0193  -0.0792   0.00    0.0
2026/01/15 00:59:30.000   30.531678100  114.357270487    27.8507   6  14   0.0933   0.1440   0.1530   0.0523  -0.0182  -0.0782   0.00    0.0
2026/01/15 01:00:00.000   30.531678117  114.357270505    27.8524   6  14   0.0922   0.1424   0.1514   0.0517  -0.0170  -0.0773   0.00    0.0
2026/01/15 01:00:30.000   30.531678121  114.357270489    27.8556   6  14   0.0911   0.1409   0.1498   0.0511  -0.0159  -0.0763   0.00    0.0
2026/01/15 01:01:00.000   30.531678127  114.357270486    27.8585   6  14   0.0900   0.1394   0.1482   0.0505  -0.0147  -0.0754   0.00    0.0
2026/01/15 01:01:30.000   30.531678142  114.357270498    27.8609   6  14   0.0890   0.1379   0.1466   0.0499  -0.0136  -0.0744   0.00    0.0
2026/01/15 01:02:00.000   30.531678156  114.357270501    27.8615   6   7   0.0884   0.1366   0.1460   0.0492  -0.0117  -0.0743   0.00    0.0
2026/01/15 01:02:30.000   30.531678159  114.357270525    27.8653   6  14   0.0874   0.1352   0.1445   0.0487  -0.0105  -0.0733   0.00    0.0
2026/01/15 01:03:00.000   30.531678163  114.357270530    27.8693   6  14   0.0864   0.1338   0.1429   0.0481  -0.0092  -0.0724   0.00    0.0
2026/01/15 01:03:30.000   30.531678172  114.357270548    27.8720   6  14   0.0854   0.1324   0.1414   0.0476  -0.0079  -0.0715   0.00    0.0
2026/01/15 01:04:00.000   30.531678177  114.357270555    27.8755   6  14   0.0844   0.1310   0.1398   0.0470  -0.0064  -0.0707   0.00    0.0
2026/01/15 01:04:30.000   30.531678182  114.357270560    27.8792   6  14   0.0834   0.1296   0.1383   0.0465  -0.0047  -0.0698   0.00    0.0
2026/01/15 01:05:00.000   30.531678189  114.357270564    27.8820   6  14   0.0825   0.1283   0.1369   0.0460  -0.0021  -0.0689   0.00    0.0
2026/01/15 01:05:30.000   30.531678193  114.357270577    27.8850   6  14   0.0815   0.1270   0.1354   0.0455   0.0034  -0.0681   0.00    0.0
2026/01/15 01:06:00.000   30.531678194  114.357270577    27.8883   6  14   0.0806   0.1257   0.1340   0.0450   0.0051  -0.0673   0.00    0.0
2026/01/15 01:06:30.000   30.531678197  114.357270581    27.8917   6  14   0.0797   0.1244   0.1326   0.0445   0.0062  -0.0665   0.00    0.0
2026/01/15 01:07:00.000   30.531678192  114.357270579    27.8956   6  14   0.0788   0.1232   0.1312   0.0440   0.0071  -0.0657   0.00    0.0
2026/01/15 01:07:30.000   30.531678195  114.357270582    27.8978   6  14   0.0779   0.1219   0.1298   0.0435   0.0078  -0.0650   0.00    0.0
2026/01/15 01:08:00.000   30.531678192  114.357270575    27.9012   6  14   0.0771   0.1207   0.1285   0.0430   0.0084  -0.0642   0.00    0.0
2026/01/15 01:08:30.000   30.531678190  114.357270559    27.9041   6  14   0.0762   0.1195   0.1271   0.0426   0.0089  -0.0635   0.00    0.0
2026/01/15 01:09:00.000   30.531678191  114.357270566    27.9074   6  14   0.0754   0.1183   0.1258   0.0421   0.0093  -0.0627   0.00    0.0
2026/01/15 01:09:30.000   30.531678197  114.357270578    27.9097   6  14   0.0746   0.1172   0.1245   0.0416   0.0096  -0.0620   0.00    0.0
2026/01/15 01:10:00.000   30.531678196  114.357270571    27.9122   6  14   0.0738   0.1160   0.1233   0.0412   0.0099  -0.0613   0.00    0.0
2026/01/15 01:10:30.000   30.531678201  114.357270574    27.9148   6  14   0.0730   0.1149   0.1220   0.0408   0.0102  -0.0606   0.00    0.0
2026/01/15 01:11:00.000   30.531678206  114.357270583    27.9168   6  14   0.0722   0.1138   0.1208   0.0403   0.0104  -0.0599   0.00    0.0
2026/01/15 01:11:30.000   30.531678211  114.357270593    27.9192   6  14   0.0715   0.1127   0.1196   0.0399   0.0105  -0.0593   0.00    0.0
2026/01/15 01:12:00.000   30.531678213  114.357270595    27.9216   6  14   0.0707   0.1116   0.1184   0.0395   0.0106  -0.0586   0.00    0.0
2026/01/15 01:12:30.000   30.531678218  114.357270596    27.9236   6  14   0.0700   0.1105   0.1172   0.0390   0.0107  -0.0580   0.00    0.0
2026/01/15 01:13:00.000   30.531678219  114.357270608    27.9264   6  14   0.0693   0.1095   0.1160   0.0386   0.0108  -0.0574   0.00    0.0
2026/01/15 01:13:30.000   30.531678221  114.357270609    27.9290   6  14   0.0686   0.1084   0.1149   0.0382   0.0108  -0.0567   0.00    0.0
2026/01/15 01:14:00.000   30.531678222  114.357270613    27.9311   6  14   0.0679   0.1074   0.1137   0.0378   0.0108  -0.0561   0.00    0.0
2026/01/15 01:14:30.000   30.531678226  114.357270616    27.9331   6  14   0.0672   0.1064   0.1126   0.0374   0.0108  -0.0555   0.00    0.0
2026/01/15 01:15:00.000   30.531678229  114.357270619    27.9353   6  14   0.0665   0.1054   0.1115   0.0370   0.0108  -0.0549   0.00    0.0
2026/01/15 01:15:30.000   30.531678231  114.357270608    27.9364   6   7   0.0661   0.1045   0.1111   0.0366   0.0112  -0.0548   0.00    0.0
2026/01/15 01:16:00.000   30.531678238  114.357270612    27.9382   6  14   0.0655   0.1035   0.1100   0.0362   0.0111  -0.0543   0.00    0.0
2026/01/15 01:16:30.000   30.531678241  114.357270610    27.9404   6  14   0.0648   0.1026   0.1090   0.0358   0.0110  -0.0537   0.00    0.0
2026/01/15 01:17:00.000   30.531678248  114.357270608    27.9409   6   7   0.0645   0.1017   0.1086   0.0354   0.0113  -0.0536   0.00    0.0
2026/01/15 01:17:30.000   30.531678254  114.357270605    27.9414   6  10   0.0640   0.1008   0.1081   0.0350   0.0112  -0.0533   0.00    0.0
2026/01/15 01:18:00.000   30.531678261  114.357270621    27.9431   6  14   0.0633   0.0999   0.1070   0.0347   0.0111  -0.0527   0.00    0.0
2026/01/15 01:18:30.000   30.531678263  114.357270615    27.9450   6  14   0.0627   0.0990   0.1059   0.0343   0.0109  -0.0521   0.00    0.0
2026/01/15 01:19:00.000   30.531678267  114.357270614    27.9467   6  14   0.0621   0.0981   0.1049   0.0340   0.0107  -0.0516   0.00    0.0
2026/01/15 01:19:30.000   30.531678268  114.357270612    27.9484   6  14   0.0614   0.0972   0.1038   0.0337   0.0105  -0.0510   0.00    0.0
2026/01/15 01:20:00.000   30.531678268  114.357270611    27.9506   6  14   0.0608   0.0964   0.1028   0.0333   0.0103  -0.0505   0.00    0.0
2026/01/15 01:20:30.000   30.531678270  114.357270613    27.9525   6  14   0.0602   0.0955   0.1018   0.0330   0.0101  -0.0499   0.00    0.0
2026/01/15 01:21:00.000   30.531678276  114.357270618    27.9527   6   7   0.0599   0.0947   0.1015   0.0326   0.0103  -0.0499   0.00    0.0
2026/01/15 01:21:30.000   30.531678281  114.357270618    27.9531   6   7   0.0596   0.0940   0.1011   0.0322   0.0104  -0.0498   0.00    0.0
2026/01/15 01:22:00.000   30.531678286  114.357270618    27.9536   6   7   0.0593   0.0932   0.1008   0.0318   0.0105  -0.0497   0.00    0.0
2026/01/15 01:22:30.000   30.531678289  114.357270618    27.9553   6  14   0.0587   0.0924   0.0998   0.0315   0.0102  -0.0492   0.00    0.0
2026/01/15 01:23:00.000   30.531678292  114.357270623    27.9568   6  14   0.0581   0.0916   0.0988   0.0312   0.0100  -0.0486   0.00    0.0
2026/01/15 01:23:30.000   30.531678290  114.357270615    27.9588   6  14   0.0576   0.0908   0.0978   0.0310   0.0097  -0.0481   0.00    0.0
2026/01/15 01:25:00.000   30.531678292  114.357270603    27.9598   6  14   0.0570   0.0899   0.0967   0.0306   0.0094  -0.0475   0.00    0.0
2026/01/15 01:25:30.000   30.531678296  114.357270595    27.9603   6   7   0.0567   0.0891   0.0964   0.0302   0.0094  -0.0474   0.00    0.0
2026/01/15 01:26:00.000   30.531678299  114.357270588    27.9609   6  10   0.0562   0.0884   0.0959   0.0300   0.0090  -0.0471   0.00    0.0
2026/01/15 01:26:30.000   30.531678303  114.357270577    27.9615   6   7   0.0559   0.0877   0.0956   0.0296   0.0090  -0.0471   0.00    0.0
2026/01/15 01:27:00.000   30.531678303  114.357270577    27.9614   6   4   0.0557   0.0875   0.0954   0.0294   0.0089  -0.0468   0.00    0.0
2026/01/15 01:27:30.000   30.531678305  114.357270571    27.9631   6  14   0.0551   0.0867   0.0943   0.0291   0.0084  -0.0463   0.00    0.0
2026/01/15 01:28:00.000   30.531678306  114.357270553    27.9639   6   7   0.0549   0.0860   0.0940   0.0288   0.0084  -0.0462   0.00    0.0
2026/01/15 01:28:30.000   30.531678306  114.357270548    27.9659   6  14   0.0543   0.0852   0.0930   0.0285   0.0079  -0.0457   0.00    0.0
2026/01/15 01:29:00.000   30.531678309  114.357270537    27.9665   6   7   0.0540   0.0845   0.0927   0.0282   0.0078  -0.0456   0.00    0.0
2026/01/15 01:29:30.000   30.531678313  114.357270525    27.9673   6   7   0.0537   0.0839   0.0923   0.0278   0.0077  -0.0455   0.00    0.0
2026/01/15 01:30:00.000   30.531678313  114.357270522    27.9692   6  14   0.0532   0.0831   0.0913   0.0276   0.0072  -0.0450   0.00    0.0
2026/01/15 01:30:30.000   30.531678315  114.357270520    27.9711   6  14   0.0526   0.0824   0.0903   0.0273   0.0067  -0.0444   0.00    0.0
2026/01/15 01:31:00.000   30.531678316  114.357270503    27.9718   6  10   0.0522   0.0817   0.0899   0.0271   0.0061  -0.0441   0.00    0.0
2026/01/15 01:31:30.000   30.531678316  114.357270493    27.9735   6  14   0.0517   0.0810   0.0889   0.0269   0.0055  -0.0436   0.00    0.0
2026/01/15 01:32:00.000   30.531678318  114.357270478    27.9740   6   7   0.0514   0.0804   0.0886   0.0266   0.0053  -0.0436   0.00    0.0
2026/01/15 01:32:30.000   30.531678321  114.357270472    27.9746   6   8   0.0512   0.0798   0.0883   0.0263   0.0050  -0.0435   0.00    0.0
2026/01/15 01:36:00.000   30.531678327  114.357270466    27.9740   6  14   0.0506   0.0789   0.0876   0.0260   0.0041  -0.0432   0.00    0.0
2026/01/15 01:36:30.000   30.531678332  114.357270455    27.9743   6   8   0.0504   0.0782   0.0873   0.0257   0.0035  -0.0431   0.00    0.0
2026/01/15 01:37:00.000   30.531678333  114.357270447    27.9759   6  15   0.0498   0.0775   0.0862   0.0254   0.0018  -0.0425   0.00    0.0
2026/01/15 01:38:30.000   30.531678337  114.357270437    27.9755   6   8   0.0495   0.0767   0.0858   0.0251  -0.0010  -0.0424   0.00    0.0
2026/01/15 01:39:30.000   30.531678338  114.357270434    27.9765   6  15   0.0489   0.0760   0.0847   0.0248  -0.0031  -0.0418   0.00    0.0
2026/01/15 01:42:00.000   30.531678344  114.357270423    27.9752   6   6   0.0486   0.0753   0.0843   0.0244  -0.0046  -0.0416   0.00    0.0
2026/01/15 01:44:00.000   30.531678345  114.357270403    27.9746   6   7   0.0482   0.0745   0.0839   0.0241  -0.0052  -0.0415   0.00    0.0
2026/01/15 01:44:30.000   30.531678349  114.357270389    27.9747   6   8   0.0479   0.0738   0.0835   0.0238  -0.0060  -0.0414   0.00    0.0
2026/01/15 01:45:00.000   30.531678351  114.357270380    27.9758   6  15   0.0473   0.0730   0.0823   0.0235  -0.0068  -0.0407   0.00    0.0
2026/01/15 01:45:30.000   30.531678357  114.357270363    27.9757   6   8   0.0470   0.0723   0.0819   0.0232  -0.0074  -0.0406   0.00    0.0
2026/01/15 01:47:30.000   30.531678363  114.357270336    27.9735   6   9   0.0467   0.0715   0.0815   0.0229  -0.0079  -0.0405   0.00    0.0
2026/01/15 03:15:00.000   30.531678381  114.357270467    27.9374   6   5   0.0458   0.0679   0.0806   0.0219  -0.0071  -0.0396   0.00    0.0
2026/01/15 03:21:00.000   30.531678375  114.357270455    27.9367   6   4   0.0457   0.0677   0.0805   0.0218  -0.0068  -0.0395   0.00    0.0
2026/01/15 03:25:30.000   30.531678373  114.357270455    27.9359   6   8   0.0457   0.0675   0.0805   0.0217  -0.0065  -0.0394   0.00    0.0
2026/01/15 03:29:00.000   30.531678371  114.357270461    27.9354   6   5   0.0456   0.0674   0.0804   0.0216  -0.0063  -0.0394   0.00    0.0
2026/01/15 03:45:30.000   30.531678340  114.357270420    27.9359   6   5   0.0454   0.0667   0.0802   0.0212  -0.0047  -0.0391   0.00    0.0
2026/01/15 12:56:00.000   30.531677383  114.357270008    27.9121   6   6   0.0402   0.0524   0.0747   0.0118   0.0092  -0.0335   0.00    0.0
2026/01/15 12:58:30.000   30.531677383  114.357270003    27.9116   6   5   0.0402   0.0524   0.0747   0.0118   0.0093  -0.0335   0.00    0.0
2026/01/15 13:03:00.000   30.531677392  114.357269992    27.9094   6   7   0.0401   0.0522   0.0747   0.0117   0.0094  -0.0335   0.00    0.0
2026/01/15 13:03:30.000   30.531677392  114.357269993    27.9094   6   6   0.0401   0.0522   0.0747   0.0117   0.0094  -0.0335   0.00    0.0
2026/01/15 13:04:00.000   30.531677394  114.357269994    27.9093   6  17   0.0401   0.0522   0.0747   0.0117   0.0094  -0.0335   0.00    0.0
2026/01/15 13:05:00.000   30.531677393  114.357269991    27.9093   6   7   0.0401   0.0522   0.0746   0.0117   0.0094  -0.0334   0.00    0.0
2026/01/15 13:07:00.000   30.531677396  114.357269975    27.9086   6   8   0.0401   0.0521   0.0746   0.0117   0.0095  -0.0334   0.00    0.0
2026/01/15 13:08:30.000   30.531677398  114.357269970    27.9082   6  17   0.0401   0.0521   0.0746   0.0116   0.0095  -0.0334   0.00    0.0
2026/01/15 13:09:00.000   30.531677399  114.357269971    27.9081   6   7   0.0401   0.0520   0.0746   0.0116   0.0095  -0.0334   0.00    0.0
2026/01/15 13:09:30.000   30.531677400  114.357269969    27.9081   6   8   0.0401   0.0520   0.0746   0.0116   0.0095  -0.0334   0.00    0.0
2026/01/15 13:10:00.000   30.531677402  114.357269966    27.9081   6  18   0.0401   0.0520   0.0746   0.0116   0.0096  -0.0334   0.00    0.0
2026/01/15 13:10:30.000   30.531677403  114.357269963    27.9081   6  12   0.0401   0.0520   0.0746   0.0116   0.0096  -0.0334   0.00    0.0
2026/01/15 13:11:00.000   30.531677404  114.357269961    27.9082   6  18   0.0401   0.0520   0.0746   0.0116   0.0096  -0.0334   0.00    0.0
2026/01/15 13:11:30.000   30.531677404  114.357269962    27.9084   6  18   0.0401   0.0520   0.0746   0.0116   0.0096  -0.0334   0.00    0.0
2026/01/15 13:12:00.000   30.531677404  114.357269960    27.9084   6  18   0.0400   0.0519   0.0745   0.0116   0.0096  -0.0334   0.00    0.0
2026/01/15 13:12:30.000   30.531677404  114.357269959    27.9085   6  18   0.0400   0.0519   0.0745   0.0116   0.0096  -0.0334   0.00    0.0
2026/01/15 13:15:30.000   30.531677408  114.357269949    27.9080   6  17   0.0400   0.0518   0.0745   0.0115   0.0097  -0.0334   0.00    0.0
2026/01/15 13:17:30.000   30.531677410  114.357269942    27.9076   6  17   0.0400   0.0518   0.0745   0.0115   0.0097  -0.0333   0.00    0.0
2026/01/15 13:18:00.000   30.531677411  114.357269941    27.9078   6  17   0.0400   0.0517   0.0744   0.0115   0.0097  -0.0333   0.00    0.0
2026/01/15 13:18:30.000   30.531677413  114.357269942    27.9079   6  17   0.0400   0.0517   0.0744   0.0115   0.0097  -0.0333   0.00    0.0
2026/01/15 13:19:00.000   30.531677414  114.357269941    27.9083   6  17   0.0399   0.0517   0.0744   0.0115   0.0097  -0.0333   0.00    0.0
2026/01/15 13:19:30.000   30.531677414  114.357269940    27.9086   6  17   0.0399   0.0517   0.0744   0.0115   0.0097  -0.0333   0.00    0.0
2026/01/15 13:20:00.000   30.531677415  114.357269940    27.9088   6  17   0.0399   0.0517   0.0743   0.0114   0.0097  -0.0333   0.00    0.0
2026/01/15 13:20:30.000   30.531677416  114.357269940    27.9088   6  17   0.0399   0.0516   0.0743   0.0114   0.0097  -0.0333   0.00    0.0
2026/01/15 13:21:00.000   30.531677418  114.357269940    27.9090   6  18   0.0399   0.0516   0.0743   0.0114   0.0097  -0.0333   0.00    0.0
2026/01/15 13:21:30.000   30.531677420  114.357269940    27.9092   6  18   0.0399   0.0516   0.0743   0.0114   0.0097  -0.0333   0.00    0.0
2026/01/15 13:22:00.000   30.531677420  114.357269939    27.9094   6  18   0.0399   0.0516   0.0743   0.0114   0.0097  -0.0333   0.00    0.0
2026/01/15 13:22:30.000   30.531677421  114.357269937    27.9096   6  18   0.0398   0.0515   0.0742   0.0114   0.0096  -0.0333   0.00    0.0
2026/01/15 13:23:00.000   30.531677422  114.357269936    27.9097   6  18   0.0398   0.0515   0.0742   0.0114   0.0096  -0.0333   0.00    0.0
2026/01/15 13:23:30.000   30.531677424  114.357269935    27.9097   6  18   0.0398   0.0515   0.0742   0.0114   0.0096  -0.0333   0.00    0.0
2026/01/15 13:24:00.000   30.531677426  114.357269933    27.9098   6  18   0.0398   0.0515   0.0741   0.0114   0.0096  -0.0333   0.00    0.0
2026/01/15 13:24:30.000   30.531677428  114.357269933    27.9098   6   9   0.0398   0.0514   0.0741   0.0113   0.0096  -0.0333   0.00    0.0
2026/01/15 13:25:00.000   30.531677429  114.357269934    27.9100   6  19   0.0398   0.0514   0.0741   0.0113   0.0096  -0.0332   0.00    0.0
2026/01/15 13:25:30.000   30.531677430  114.357269931    27.9101   6   8   0.0398   0.0514   0.0741   0.0113   0.0096  -0.0332   0.00    0.0
2026/01/15 13:26:00.000   30.531677432  114.357269934    27.9102   6  11   0.0398   0.0514   0.0741   0.0113   0.0096  -0.0332   0.00    0.0
2026/01/15 13:26:30.000   30.531677433  114.357269936    27.9103   6   9   0.0397   0.0514   0.0740   0.0113   0.0096  -0.0332   0.00    0.0
2026/01/15 13:27:00.000   30.531677433  114.357269938    27.9106   6  19   0.0397   0.0513   0.0740   0.0113   0.0095  -0.0332   0.00    0.0
2026/01/15 13:27:30.000   30.531677435  114.357269942    27.9106   6  19   0.0397   0.0513   0.0740   0.0113   0.0095  -0.0332   0.00    0.0
2026/01/15 13:28:00.000   30.531677437  114.357269942    27.9109   6  19   0.0397   0.0513   0.0739   0.0113   0.0095  -0.0332   0.00    0.0
2026/01/15 13:28:30.000   30.531677438  114.357269940    27.9112   6  19   0.0397   0.0512   0.0739   0.0113   0.0095  -0.0332   0.00    0.0
2026/01/15 13:29:00.000   30.531677440  114.357269939    27.9115   6  19   0.0396   0.0512   0.0738   0.0113   0.0094  -0.0332   0.00    0.0
2026/01/15 13:29:30.000   30.531677443  114.357269945    27.9118   6  19   0.0396   0.0512   0.0738   0.0113   0.0094  -0.0332   0.00    0.0
2026/01/15 13:30:00.000   30.531677447  114.357269948    27.9118   6  19   0.0396   0.0511   0.0738   0.0113   0.0094  -0.0332   0.00    0.0
2026/01/15 13:30:30.000   30.531677449  114.357269949    27.9121   6  19   0.0396   0.0511   0.0737   0.0112   0.0094  -0.0332   0.00    0.0
2026/01/15 13:31:00.000   30.531677452  114.357269951    27.9121   6  19   0.0395   0.0511   0.0737   0.0112   0.0093  -0.0331   0.00    0.0
2026/01/15 13:31:30.000   30.531677454  114.357269955    27.9125   6  19   0.0395   0.0510   0.0736   0.0112   0.0093  -0.0331   0.00    0.0
2026/01/15 13:32:00.000   30.531677456  114.357269956    27.9126   6  19   0.0395   0.0510   0.0736   0.0112   0.0093  -0.0331   0.00    0.0
2026/01/15 13:32:30.000   30.531677459  114.357269956    27.9126   6  19   0.0395   0.0510   0.0735   0.0112   0.0092  -0.0331   0.00    0.0
2026/01/15 13:33:00.000   30.531677463  114.357269956    27.9127   6  19   0.0394   0.0509   0.0735   0.0112   0.0092  -0.0331   0.00    0.0
2026/01/15 13:33:30.000   30.531677464  114.357269955    27.9131   6  19   0.0394   0.0509   0.0734   0.0112   0.0091  -0.0331   0.00    0.0
2026/01/15 13:34:00.000   30.531677466  114.357269957    27.9134   6  19   0.0394   0.0509   0.0734   0.0112   0.0091  -0.0331   0.00    0.0
2026/01/15 13:34:30.000   30.531677468  114.357269962    27.9138   6  18   0.0394   0.0508   0.0733   0.0112   0.0090  -0.0331   0.00    0.0
2026/01/15 13:35:00.000   30.531677470  114.357269961    27.9141   6  18   0.0393   0.0508   0.0733   0.0112   0.0090  -0.0330   0.00    0.0
2026/01/15 13:35:30.000   30.531677473  114.357269965    27.9146   6  18   0.0393   0.0508   0.0732   0.0112   0.0089  -0.0330   0.00    0.0
2026/01/15 13:36:00.000   30.531677474  114.357269968    27.9151   6  18   0.0393   0.0507   0.0732   0.0112   0.0089  -0.0330   0.00    0.0
2026/01/15 13:36:30.000   30.531677476  114.357269969    27.9156   6  18   0.0392   0.0507   0.0731   0.0112   0.0088  -0.0330   0.00    0.0
2026/01/15 13:37:00.000   30.531677478  114.357269970    27.9161   6  18   0.0392   0.0507   0.0730   0.0112   0.0087  -0.0330   0.00    0.0
2026/01/15 13:37:30.000   30.531677480  114.357269970    27.9165   6  18   0.0392   0.0506   0.0730   0.0112   0.0087  -0.0330   0.00    0.0
2026/01/15 13:38:00.000   30.531677481  114.357269972    27.9173   6  18   0.0392   0.0506   0.0729   0.0112   0.0086  -0.0330   0.00    0.0
2026/01/15 13:38:30.000   30.531677483  114.357269972    27.9178   6  18   0.0391   0.0505   0.0728   0.0112   0.0085  -0.0329   0.00    0.0
2026/01/15 13:39:00.000   30.531677485  114.357269971    27.9182   6  18   0.0391   0.0505   0.0728   0.0112   0.0085  -0.0329   0.00    0.0
2026/01/15 13:40:00.000   30.531677491  114.357269971    27.9183   6  17   0.0390   0.0504   0.0727   0.0112   0.0084  -0.0329   0.00    0.0
2026/01/15 13:40:30.000   30.531677495  114.357269972    27.9189   6  17   0.0390   0.0504   0.0726   0.0112   0.0083  -0.0329   0.00    0.0
2026/01/15 13:41:00.000   30.531677498  114.357269971    27.9198   6  17   0.0390   0.0503   0.0726   0.0112   0.0082  -0.0329   0.00    0.0
2026/01/15 13:41:30.000   30.531677502  114.357269972    27.9203   6  17   0.0389   0.0503   0.0725   0.0112   0.0081  -0.0329   0.00    0.0
2026/01/15 13:42:00.000   30.531677505  114.357269974    27.9211   6  17   0.0389   0.0502   0.0725   0.0112   0.0080  -0.0329   0.00    0.0
2026/01/15 13:42:30.000   30.531677508  114.357269974    27.9219   6  17   0.0388   0.0502   0.0724   0.0112   0.0079  -0.0329   0.00    0.0
2026/01/15 13:43:00.000   30.531677512  114.357269974    27.9227   6  17   0.0388   0.0502   0.0723   0.0112   0.0078  -0.0328   0.00    0.0
2026/01/15 13:43:30.000   30.531677516  114.357269974    27.9230   6  17   0.0388   0.0501   0.0723   0.0112   0.0077  -0.0328   0.00    0.0
2026/01/15 13:44:00.000   30.531677520  114.357269976    27.9235   6  17   0.0387   0.0501   0.0722   0.0112   0.0076  -0.0328   0.00    0.0
2026/01/15 13:44:30.000   30.531677524  114.357269978    27.9242   6  17   0.0387   0.0500   0.0721   0.0112   0.0075  -0.0328   0.00    0.0
2026/01/15 13:45:00.000   30.531677530  114.357269979    27.9247   6  18   0.0386   0.0499   0.0720   0.0112   0.0073  -0.0328   0.00    0.0
2026/01/15 13:45:30.000   30.531677535  114.357269980    27.9253   6  18   0.0386   0.0499   0.0720   0.0112   0.0072  -0.0328   0.00    0.0
2026/01/15 13:46:00.000   30.531677540  114.357269980    27.9260   6  18   0.0385   0.0498   0.0719   0.0112   0.0070  -0.0328   0.00    0.0
2026/01/15 13:46:30.000   30.531677544  114.357269983    27.9267   6  18   0.0385   0.0498   0.0718   0.0112   0.0069  -0.0328   0.00    0.0
2026/01/15 13:47:00.000   30.531677550  114.357269984    27.9274   6  18   0.0385   0.0497   0.0717   0.0112   0.0067  -0.0327   0.00    0.0
2026/01/15 13:47:30.000   30.531677554  114.357269987    27.9282   6  18   0.0384   0.0497   0.0717   0.0112   0.0066  -0.0327   0.00    0.0
2026/01/15 13:48:00.000   30.531677560  114.357269989    27.9290   6  18   0.0384   0.0496   0.0716   0.0112   0.0064  -0.0327   0.00    0.0
2026/01/15 13:48:30.000   30.531677565  114.357269989    27.9296   6  18   0.0383   0.0496   0.0715   0.0112   0.0062  -0.0327   0.00    0.0
2026/01/15 13:49:00.000   30.531677570  114.357269990    27.9305   6  18   0.0383   0.0495   0.0714   0.0112   0.0060  -0.0327   0.00    0.0
2026/01/15 13:49:30.000   30.531677575  114.357269990    27.9313   6  18   0.0382   0.0495   0.0713   0.0113   0.0058  -0.0327   0.00    0.0
2026/01/15 13:50:00.000   30.531677581  114.357269993    27.9321   6  18   0.0381   0.0494   0.0712   0.0113   0.0056  -0.0327   0.00    0.0
2026/01/15 13:50:30.000   30.531677586  114.357269995    27.9330   6  18   0.0381   0.0493   0.0711   0.0113   0.0054  -0.0326   0.00    0.0
2026/01/15 13:51:00.000   30.531677592  114.357269996    27.9337   6  18   0.0380   0.0493   0.0711   0.0113   0.0051  -0.0326   0.00    0.0
2026/01/15 13:51:30.000   30.531677598  114.357269999    27.9343   6  18   0.0380   0.0492   0.0710   0.0113   0.0048  -0.0326   0.00    0.0
2026/01/15 13:52:00.000   30.531677605  114.357270000    27.9349   6  16   0.0379   0.0491   0.0709   0.0113   0.0047  -0.0326   0.00    0.0
2026/01/15 13:52:30.000   30.531677612  114.357270005    27.9356   6  16   0.0379   0.0491   0.0708   0.0113   0.0045  -0.0326   0.00    0.0
2026/01/15 13:53:00.000   30.531677618  114.357270008    27.9363   6  16   0.0378   0.0490   0.0707   0.0114   0.0042  -0.0326   0.00    0.0
2026/01/15 13:53:30.000   30.531677624  114.357270011    27.9370   6  16   0.0378   0.0490   0.0707   0.0114   0.0040  -0.0325   0.00    0.0
2026/01/15 13:54:00.000   30.531677630  114.357270011    27.9378   6  16   0.0377   0.0489   0.0706   0.0114   0.0038  -0.0325   0.00    0.0
2026/01/15 13:54:30.000   30.531677637  114.357270012    27.9385   6  16   0.0376   0.0488   0.0705   0.0114   0.0035  -0.0325   0.00    0.0
2026/01/15 13:55:00.000   30.531677644  114.357270015    27.9393   6  16   0.0376   0.0488   0.0704   0.0114   0.0032  -0.0325   0.00    0.0
2026/01/15 13:55:30.000   30.531677651  114.357270016    27.9400   6  16   0.0375   0.0487   0.0703   0.0115   0.0028  -0.0325   0.00    0.0
2026/01/15 13:56:00.000   30.531677658  114.357270018    27.9408   6  16   0.0375   0.0487   0.0702   0.0115   0.0024  -0.0324   0.00    0.0
2026/01/15 13:56:30.000   30.531677666  114.357270021    27.9415   6  16   0.0374   0.0486   0.0701   0.0115   0.0018  -0.0324   0.00    0.0
2026/01/15 13:57:00.000   30.531677674  114.357270023    27.9421   6  16   0.0373   0.0485   0.0701   0.0115   0.0011  -0.0324   0.00    0.0
2026/01/15 13:57:30.000   30.531677683  114.357270023    27.9426   6  16   0.0373   0.0485   0.0700   0.0115  -0.0011  -0.0324   0.00    0.0
2026/01/15 13:58:00.000   30.531677691  114.357270026    27.9432   6  16   0.0372   0.0484   0.0699   0.0116  -0.0019  -0.0324   0.00    0.0
2026/01/15 13:58:30.000   30.531677699  114.357270028    27.9439   6  16   0.0371   0.0483   0.0698   0.0116  -0.0025  -0.0323   0.00    0.0
2026/01/15 13:59:00.000   30.531677706  114.357270030    27.9444   6  16   0.0371   0.0483   0.0697   0.0116  -0.0029  -0.0323   0.00    0.0
2026/01/15 13:59:30.000   30.531677713  114.357270030    27.9450   6  16   0.0370   0.0482   0.0696   0.0116  -0.0033  -0.0323   0.00    0.0
2026/01/15 14:00:00.000   30.531677721  114.357270027    27.9457   6  16   0.0369   0.0481   0.0695   0.0117  -0.0037  -0.0323   0.00    0.0
2026/01/15 14:00:30.000   30.531677727  114.357270026    27.9468   6  18   0.0369   0.0480   0.0694   0.0117  -0.0040  -0.0323   0.00    0.0
2026/01/15 14:01:00.000   30.531677735  114.357270028    27.9477   6  18   0.0368   0.0480   0.0693   0.0117  -0.0044  -0.0322   0.00    0.0
2026/01/15 14:01:30.000   30.531677743  114.357270028    27.9485   6  18   0.0367   0.0479   0.0692   0.0117  -0.0047  -0.0322   0.00    0.0
2026/01/15 14:02:00.000   30.531677751  114.357270027    27.9492   6  18   0.0367   0.0478   0.0691   0.0118  -0.0049  -0.0322   0.00    0.0
2026/01/15 14:02:30.000   30.531677759  114.357270031    27.9500   6  18   0.0366   0.0478   0.0690   0.0118  -0.0052  -0.0322   0.00    0.0
2026/01/15 14:03:00.000   30.531677767  114.357270032    27.9507   6  18   0.0365   0.0477   0.0689   0.0118  -0.0055  -0.0321   0.00    0.0
2026/01/15 14:03:30.000   30.531677776  114.357270033    27.9512   6  18   0.0364   0.0476   0.0688   0.0119  -0.0057  -0.0321   0.00    0.0
2026/01/15 14:04:00.000   30.531677784  114.357270034    27.9520   6  18   0.0364   0.0475   0.0687   0.0119  -0.0060  -0.0321   0.00    0.0
2026/01/15 14:04:30.000   30.531677791  114.357270035    27.9529   6  18   0.0363   0.0475   0.0686   0.0119  -0.0062  -0.0321   0.00    0.0
2026/01/15 14:05:00.000   30.531677799  114.357270034    27.9536   6  18   0.0362   0.0474   0.0685   0.0119  -0.0065  -0.0321   0.00    0.0
2026/01/15 14:05:30.000   30.531677806  114.357270035    27.9547   6  18   0.0362   0.0473   0.0683   0.0120  -0.0067  -0.0320   0.00    0.0
2026/01/15 14:06:00.000   30.531677811  114.357270037    27.9558   6  18   0.0361   0.0472   0.0682   0.0120  -0.0069  -0.0320   0.00    0.0
2026/01/15 14:06:30.000   30.531677819  114.357270038    27.9568   6  18   0.0360   0.0472   0.0681   0.0120  -0.0072  -0.0320   0.00    0.0
2026/01/15 14:07:00.000   30.531677826  114.357270040    27.9579   6  18   0.0359   0.0471   0.0680   0.0121  -0.0074  -0.0320   0.00    0.0
2026/01/15 14:07:30.000   30.531677835  114.357270043    27.9588   6  17   0.0359   0.0470   0.0679   0.0121  -0.0076  -0.0319   0.00    0.0
2026/01/15 14:08:00.000   30.531677844  114.357270047    27.9597   6  17   0.0358   0.0469   0.0678   0.0121  -0.0078  -0.0319   0.00    0.0
2026/01/15 14:08:30.000   30.531677853  114.357270048    27.9605   6  17   0.0357   0.0468   0.0676   0.0121  -0.0080  -0.0319   0.00    0.0
2026/01/15 14:09:00.000   30.531677860  114.357270052    27.9617   6  17   0.0356   0.0468   0.0676   0.0121  -0.0081  -0.0319   0.00    0.0
2026/01/15 14:09:30.000   30.531677867  114.357270054    27.9628   6  17   0.0356   0.0467   0.0675   0.0121  -0.0082  -0.0319   0.00    0.0
2026/01/15 14:10:00.000   30.531677873  114.357270056    27.9641   6  17   0.0355   0.0466   0.0674   0.0121  -0.0083  -0.0319   0.00    0.0
2026/01/15 14:10:30.000   30.531677879  114.357270057    27.9656   6  16   0.0354   0.0466   0.0673   0.0121  -0.0084  -0.0319   0.00    0.0
2026/01/15 14:11:00.000   30.531677886  114.357270058    27.9669   6  16   0.0354   0.0465   0.0672   0.0121  -0.0085  -0.0319   0.00    0.0
2026/01/15 14:11:30.000   30.531677892  114.357270060    27.9681   6  16   0.0353   0.0464   0.0671   0.0121  -0.0086  -0.0319   0.00    0.0
2026/01/15 14:12:00.000   30.531677899  114.357270061    27.9696   6  16   0.0352   0.0463   0.0670   0.0121  -0.0087  -0.0319   0.00    0.0
2026/01/15 14:12:30.000   30.531677904  114.357270064    27.9709   6  15   0.0352   0.0463   0.0669   0.0121  -0.0088  -0.0319   0.00    0.0
2026/01/15 14:13:00.000   30.531677911  114.357270068    27.9722   6  16   0.0351   0.0462   0.0668   0.0121  -0.0090  -0.0318   0.00    0.0
2026/01/15 14:13:30.000   30.531677917  114.357270074    27.9732   6  14   0.0350   0.0461   0.0667   0.0120  -0.0091  -0.0318   0.00    0.0
2026/01/15 14:14:00.000   30.531677925  114.357270077    27.9747   6  16   0.0350   0.0461   0.0666   0.0120  -0.0092  -0.0318   0.00    0.0
2026/01/15 14:14:30.000   30.531677932  114.357270080    27.9763   6  16   0.0349   0.0460   0.0665   0.0120  -0.0093  -0.0318   0.00    0.0
2026/01/15 14:15:00.000   30.531677940  114.357270082    27.9776   6  16   0.0348   0.0459   0.0664   0.0120  -0.0094  -0.0318   0.00    0.0
2026/01/15 14:15:30.000   30.531677947  114.357270085    27.9788   6  16   0.0348   0.0458   0.0663   0.0120  -0.0095  -0.0318   0.00    0.0
2026/01/15 14:16:00.000   30.531677956  114.357270088    27.9801   6  16   0.0347   0.0457   0.0662   0.0120  -0.0096  -0.0318   0.00    0.0
2026/01/15 14:16:30.000   30.531677964  114.357270089    27.9813   6  16   0.0346   0.0457   0.0661   0.0120  -0.0097  -0.0318   0.00    0.0
2026/01/15 14:17:00.000   30.531677972  114.357270092    27.9828   6  16   0.0345   0.0456   0.0659   0.0120  -0.0098  -0.0318   0.00    0.0
2026/01/15 14:17:30.000   30.531677980  114.357270095    27.9843   6  16   0.0345   0.0455   0.0658   0.0120  -0.0099  -0.0318   0.00    0.0
2026/01/15 14:18:00.000   30.531677987  114.357270099    27.9859   6  16   0.0344   0.0454   0.0657   0.0120  -0.0100  -0.0318   0.00    0.0
2026/01/15 14:18:30.000   30.531677995  114.357270103    27.9876   6  16   0.0343   0.0454   0.0656   0.0120  -0.0101  -0.0318   0.00    0.0
2026/01/15 14:19:00.000   30.531678001  114.357270104    27.9891   6  16   0.0343   0.0453   0.0655   0.0120  -0.0101  -0.0318   0.00    0.0
2026/01/15 14:19:30.000   30.531678008  114.357270106    27.9906   6  16   0.0342   0.0452   0.0654   0.0120  -0.0102  -0.0318   0.00    0.0
2026/01/15 14:20:00.000   30.531678016  114.357270109    27.9920   6  16   0.0341   0.0451   0.0652   0.0120  -0.0103  -0.0317   0.00    0.0
2026/01/15 14:20:30.000   30.531678023  114.357270112    27.9934   6  16   0.0340   0.0450   0.0651   0.0120  -0.0104  -0.0317   0.00    0.0
2026/01/15 14:21:00.000   30.531678031  114.357270113    27.9948   6  16   0.0340   0.0449   0.0650   0.0120  -0.0105  -0.0317   0.00    0.0
2026/01/15 14:21:30.000   30.531678038  114.357270114    27.9960   6  16   0.0339   0.0449   0.0649   0.0120  -0.0106  -0.0317   0.00    0.0
2026/01/15 14:22:00.000   30.531678046  114.357270115    27.9972   6  16   0.0338   0.0448   0.0647   0.0120  -0.0107  -0.0317   0.00    0.0
2026/01/15 14:22:30.000   30.531678052  114.357270116    27.9986   6  16   0.0337   0.0447   0.0646   0.0120  -0.0108  -0.0317   0.00    0.0
2026/01/15 14:23:00.000   30.531678060  114.357270115    27.9997   6  16   0.0336   0.0446   0.0645   0.0120  -0.0109  -0.0317   0.00    0.0
2026/01/15 14:23:30.000   30.531678068  114.357270113    28.0009   6  16   0.0336   0.0445   0.0644   0.0120  -0.0110  -0.0317   0.00    0.0
2026/01/15 14:24:00.000   30.531678075  114.357270113    28.0019   6  16   0.0335   0.0445   0.0642   0.0120  -0.0111  -0.0316   0.00    0.0
2026/01/15 14:24:30.000   30.531678082  114.357270114    28.0031   6  16   0.0334   0.0444   0.0641   0.0120  -0.0112  -0.0316   0.00    0.0
2026/01/15 14:25:00.000   30.531678088  114.357270116    28.0045   6  16   0.0333   0.0443   0.0640   0.0120  -0.0113  -0.0316   0.00    0.0
2026/01/15 14:25:30.000   30.531678096  114.357270117    28.0056   6  16   0.0333   0.0442   0.0638   0.0120  -0.0114  -0.0316   0.00    0.0
2026/01/15 14:26:00.000   30.531678102  114.357270119    28.0068   6  16   0.0332   0.0441   0.0637   0.0120  -0.0115  -0.0316   0.00    0.0
2026/01/15 14:26:30.000   30.531678109  114.357270119    28.0081   6  16   0.0331   0.0440   0.0635   0.0120  -0.0116  -0.0316   0.00    0.0
2026/01/15 14:27:00.000   30.531678116  114.357270120    28.0095   6  16   0.0330   0.0439   0.0634   0.0121  -0.0117  -0.0315   0.00    0.0
2026/01/15 14:27:30.000   30.531678122  114.357270120    28.0108   6  16   0.0330   0.0439   0.0633   0.0121  -0.0118  -0.0315   0.00    0.0
2026/01/15 14:28:00.000   30.531678128  114.357270122    28.0121   6  16   0.0329   0.0438   0.0631   0.0121  -0.0119  -0.0315   0.00    0.0
2026/01/15 14:28:30.000   30.531678135  114.357270122    28.0134   6  16   0.0328   0.0437   0.0630   0.0121  -0.0120  -0.0315   0.00    0.0
2026/01/15 14:29:00.000   30.531678141  114.357270121    28.0147   6  16   0.0327   0.0436   0.0628   0.0121  -0.0120  -0.0314   0.00    0.0
2026/01/15 14:29:30.000   30.531678146  114.357270119    28.0160   6  16   0.0326   0.0435   0.0627   0.0121  -0.0121  -0.0314   0.00    0.0
2026/01/15 14:30:00.000   30.531678152  114.357270119    28.0173   6  16   0.0326   0.0434   0.0625   0.0121  -0.0122  -0.0314   0.00    0.0
2026/01/15 14:30:30.000   30.531678157  114.357270119    28.0186   6  16   0.0325   0.0433   0.0624   0.0121  -0.0123  -0.0314   0.00    0.0
2026/01/15 14:31:00.000   30.531678161  114.357270120    28.0196   6  15   0.0324   0.0433   0.0622   0.0120  -0.0124  -0.0313   0.00    0.0
2026/01/15 14:31:30.000   30.531678166  114.357270119    28.0209   6  16   0.0323   0.0432   0.0621   0.0120  -0.0125  -0.0313   0.00    0.0
2026/01/15 14:32:00.000   30.531678171  114.357270118    28.0222   6  16   0.0323   0.0431   0.0619   0.0121  -0.0126  -0.0313   0.00    0.0
2026/01/15 14:32:30.000   30.531678175  114.357270115    28.0234   6  16   0.0322   0.0430   0.0618   0.0121  -0.0127  -0.0312   0.00    0.0
2026/01/15 14:33:00.000   30.531678180  114.357270114    28.0245   6  16   0.0321   0.0429   0.0616   0.0121  -0.0127  -0.0312   0.00    0.0
2026/01/15 14:33:30.000   30.531678185  114.357270112    28.0258   6  16   0.0320   0.0428   0.0615   0.0121  -0.0128  -0.0312   0.00    0.0
2026/01/15 14:34:00.000   30.531678190  114.357270111    28.0269   6  15   0.0319   0.0427   0.0613   0.0121  -0.0128  -0.0312   0.00    0.0
2026/01/15 14:34:30.000   30.531678196  114.357270110    28.0281   6  14   0.0319   0.0427   0.0612   0.0121  -0.0129  -0.0311   0.00    0.0
2026/01/15 14:35:00.000   30.531678201  114.357270107    28.0292   6  14   0.0318   0.0426   0.0611   0.0121  -0.0129  -0.0311   0.00    0.0
2026/01/15 14:35:30.000   30.531678206  114.357270105    28.0304   6  15   0.0317   0.0425   0.0610   0.0121  -0.0129  -0.0311   0.00    0.0
2026/01/15 14:36:00.000   30.531678211  114.357270101    28.0314   6  15   0.0316   0.0424   0.0608   0.0121  -0.0129  -0.0310   0.00    0.0
2026/01/15 14:36:30.000   30.531678216  114.357270098    28.0325   6  15   0.0315   0.0424   0.0607   0.0121  -0.0129  -0.0310   0.00    0.0
2026/01/15 14:37:00.000   30.531678217  114.357270097    28.0324   6   4   0.0315   0.0423   0.0607   0.0121  -0.0129  -0.0310   0.00    0.0
2026/01/15 14:38:00.000   30.531678221  114.357270095    28.0329   6  14   0.0315   0.0423   0.0606   0.0121  -0.0130  -0.0310   0.00    0.0
2026/01/15 14:38:30.000   30.531678226  114.357270091    28.0341   6  16   0.0314   0.0422   0.0604   0.0121  -0.0130  -0.0309   0.00    0.0
2026/01/15 14:39:30.000   30.531678233  114.357270092    28.0350   6  16   0.0313   0.0421   0.0603   0.0121  -0.0130  -0.0309   0.00    0.0
2026/01/15 14:40:00.000   30.531678238  114.357270089    28.0362   6  16   0.0312   0.0420   0.0601   0.0121  -0.0130  -0.0308   0.00    0.0
2026/01/15 14:40:30.000   30.531678241  114.357270090    28.0363   6   7   0.0312   0.0420   0.0601   0.0121  -0.0130  -0.0308   0.00    0.0
2026/01/15 14:41:00.000   30.531678242  114.357270091    28.0363   6   6   0.0311   0.0420   0.0600   0.0121  -0.0130  -0.0308   0.00    0.0
2026/01/15 14:41:30.000   30.531678247  114.357270089    28.0375   6  16   0.0310   0.0419   0.0599   0.0121  -0.0130  -0.0308   0.00    0.0
2026/01/15 14:43:00.000   30.531678250  114.357270091    28.0371   6   6   0.0310   0.0418   0.0598   0.0120  -0.0130  -0.0307   0.00    0.0
2026/01/15 14:43:30.000   30.531678255  114.357270087    28.0382   6  16   0.0309   0.0418   0.0597   0.0121  -0.0130  -0.0307   0.00    0.0
2026/01/15 14:44:00.000   30.531678261  114.357270082    28.0393   6  16   0.0308   0.0417   0.0595   0.0121  -0.0131  -0.0307   0.00    0.0
2026/01/15 14:44:30.000   30.531678266  114.357270079    28.0405   6  16   0.0307   0.0416   0.0593   0.0121  -0.0131  -0.0306   0.00    0.0
2026/01/15 14:45:00.000   30.531678272  114.357270075    28.0416   6  16   0.0306   0.0415   0.0592   0.0121  -0.0131  -0.0306   0.00    0.0
2026/01/15 14:45:30.000   30.531678274  114.357270073    28.0418   6   8   0.0306   0.0415   0.0591   0.0121  -0.0131  -0.0305   0.00    0.0
2026/01/15 14:46:30.000   30.531678280  114.357270070    28.0429   6  17   0.0305   0.0414   0.0589   0.0121  -0.0131  -0.0305   0.00    0.0
2026/01/15 14:48:00.000   30.531678284  114.357270071    28.0434   6  16   0.0304   0.0413   0.0587   0.0120  -0.0132  -0.0304   0.00    0.0
2026/01/15 14:48:30.000   30.531678288  114.357270066    28.0447   6  17   0.0303   0.0412   0.0585   0.0121  -0.0132  -0.0304   0.00    0.0
2026/01/15 14:49:00.000   30.531678293  114.357270060    28.0458   6  17   0.0302   0.0411   0.0584   0.0121  -0.0132  -0.0303   0.00    0.0
2026/01/15 14:49:30.000   30.531678298  114.357270054    28.0468   6  17   0.0301   0.0410   0.0582   0.0121  -0.0132  -0.0303   0.00    0.0
2026/01/15 14:50:00.000   30.531678301  114.357270047    28.0480   6  17   0.0300   0.0409   0.0580   0.0121  -0.0132  -0.0302   0.00    0.0
2026/01/15 14:50:30.000   30.531678304  114.357270040    28.0491   6  17   0.0299   0.0408   0.0578   0.0121  -0.0133  -0.0302   0.00    0.0
2026/01/15 14:51:00.000   30.531678308  114.357270034    28.0503   6  17   0.0298   0.0407   0.0576   0.0121  -0.0133  -0.0301   0.00    0.0
2026/01/15 14:51:30.000   30.531678312  114.357270027    28.0512   6  17   0.0297   0.0406   0.0574   0.0121  -0.0133  -0.0300   0.00    0.0
2026/01/15 14:52:00.000   30.531678316  114.357270019    28.0522   6  17   0.0297   0.0406   0.0572   0.0121  -0.0133  -0.0300   0.00    0.0
2026/01/15 14:52:30.000   30.531678320  114.357270013    28.0534   6  17   0.0296   0.0405   0.0570   0.0121  -0.0133  -0.0299   0.00    0.0
2026/01/15 14:53:00.000   30.531678322  114.357270009    28.0549   6  17   0.0295   0.0404   0.0568   0.0121  -0.0133  -0.0298   0.00    0.0
2026/01/15 14:53:30.000   30.531678325  114.357270004    28.0563   6  17   0.0294   0.0403   0.0566   0.0121  -0.0133  -0.0298   0.00    0.0
2026/01/15 14:54:00.000   30.531678328  114.357269999    28.0574   6  17   0.0293   0.0402   0.0564   0.0121  -0.0133  -0.0297   0.00    0.0
2026/01/15 14:54:30.000   30.531678328  114.357270000    28.0573   6   7   0.0292   0.0402   0.0564   0.0121  -0.0133  -0.0297   0.00    0.0
2026/01/15 14:55:00.000   30.531678331  114.357269994    28.0589   6  17   0.0292   0.0401   0.0562   0.0121  -0.0133  -0.0296   0.00    0.0
2026/01/15 14:55:30.000   30.531678333  114.357269989    28.0606   6  17   0.0291   0.0400   0.0560   0.0121  -0.0133  -0.0296   0.00    0.0
2026/01/15 14:56:00.000   30.531678336  114.357269984    28.0619   6  17   0.0290   0.0399   0.0558   0.0121  -0.0133  -0.0295   0.00    0.0
2026/01/15 14:56:30.000   30.531678337  114.357269983    28.0625   6  12   0.0289   0.0398   0.0556   0.0121  -0.0133  -0.0295   0.00    0.0
2026/01/15 14:57:00.000   30.531678338  114.357269978    28.0640   6  16   0.0288   0.0398   0.0555   0.0120  -0.0133  -0.0294   0.00    0.0
2026/01/15 14:57:30.000   30.531678340  114.357269975    28.0657   6  15   0.0288   0.0397   0.0553   0.0120  -0.0132  -0.0294   0.00    0.0
2026/01/15 14:58:00.000   30.531678341  114.357269972    28.0674   6  15   0.0287   0.0396   0.0551   0.0120  -0.0131  -0.0293   0.00    0.0
2026/01/15 14:58:30.000   30.531678343  114.357269971    28.0692   6  15   0.0286   0.0395   0.0550   0.0120  -0.0131  -0.0293   0.00    0.0
2026/01/15 14:59:00.000   30.531678344  114.357269970    28.0709   6  15   0.0286   0.0395   0.0548   0.0120  -0.0130  -0.0292   0.00    0.0
2026/01/15 14:59:30.000   30.531678346  114.357269968    28.0726   6  15   0.0285   0.0394   0.0546   0.0120  -0.0129  -0.0291   0.00    0.0
2026/01/15 15:00:00.000   30.531678348  114.357269968    28.0743   6  15   0.0284   0.0393   0.0544   0.0120  -0.0128  -0.0291   0.00    0.0
2026/01/15 15:00:30.000   30.531678350  114.357269966    28.0759   6  15   0.0283   0.0392   0.0543   0.0119  -0.0128  -0.0290   0.00    0.0
2026/01/15 15:01:00.000   30.531678352  114.357269964    28.0775   6  15   0.0283   0.0392   0.0541   0.0119  -0.0127  -0.0290   0.00    0.0
2026/01/15 15:01:30.000   30.531678353  114.357269961    28.0790   6  15   0.0282   0.0391   0.0539   0.0119  -0.0126  -0.0289   0.00    0.0
