% program   : RTKLIB ver.EX 2.5.0
% inp file  : C:\PPP_PROJECT\RTKLIB_work\runs\KIRU_EXP2_2A_20260508_132815\KIRU00SWE_R_20260150000_01D_30S_MO.rnx
% inp file  : C:\PPP_PROJECT\RTKLIB_work\runs\KIRU_EXP2_2A_20260508_132815\BRDC00IGS_R_20260150000_01D_MN.rnx
% inp file  : C:\PPP_PROJECT\RTKLIB_work\runs\KIRU_EXP2_2A_20260508_132815\COD0MGXFIN_20260150000_01D_05M_ORB.SP3
% inp file  : C:\PPP_PROJECT\RTKLIB_work\runs\KIRU_EXP2_2A_20260508_132815\COD0MGXFIN_20260150000_01D_30S_CLK.CLK
% inp file  : C:\PPP_PROJECT\RTKLIB_work\runs\KIRU_EXP2_2A_20260508_132815
% inp file  : C:\PPP_PROJECT\RTKLIB_work\runs\KIRU_EXP2_2A_20260508_132815
% obs start : 2026/01/15 00:00:00.0 GPST (week2401 345600.0s)
% obs end   : 2026/01/15 23:59:30.0 GPST (week2401 431970.0s)
% pos mode  : PPP Static
% freqs     : L1+L2/E5b
% solution  : Forward
% elev mask : 15.0 deg
% dynamics  : on
% tidecorr  :
% ionos opt : Iono-Free LC
% tropo opt : Saastamoinen
% ephemeris : Precise
% navi sys  : GPS
% antenna1  : SEPCHOKE_B3E6   SPKE  ( 0.0000  0.0000  0.0620)
%
% (lat/lon/height=WGS84/ellipsoidal,Q=1:fix,2:float,3:sbas,4:dgps,5:single,6:ppp,ns=# of satellites)
%  GPST                  latitude(deg) longitude(deg)  height(m)   Q  ns   sdn(m)   sde(m)   sdu(m)  sdne(m)  sdeu(m)  sdun(m) age(s)  ratio
2026/01/15 00:00:00.000   67.857351096   20.968478883   392.8189   6   8   3.8667   3.2286   9.8408  -0.8208  -2.5354   3.5331   0.00    0.0
2026/01/15 00:01:00.000   67.857347923   20.968478198   392.1657   6   8   2.2332   1.8697   5.6529  -0.4791  -1.4711   2.0144   0.00    0.0
2026/01/15 00:10:00.000   67.857348930   20.968475386   391.7578   6   8   0.7808   0.6984   1.7072  -0.1687  -0.5042   0.4624   0.00    0.0
2026/01/15 00:10:30.000   67.857349122   20.968474870   391.6861   6   8   0.7456   0.6766   1.5428  -0.1362  -0.4562   0.3612   0.00    0.0
2026/01/15 00:15:30.000   67.857348670   20.968473950   391.5683   6   9   0.6196   0.5603   1.2083  -0.1328  -0.3598   0.2058   0.00    0.0
2026/01/15 00:18:30.000   67.857348522   20.968474518   391.4832   6   9   0.5648   0.5114   1.0445  -0.1156  -0.3098  -0.0789   0.00    0.0
2026/01/15 00:20:30.000   67.857348578   20.968474113   391.3852   6   9   0.5330   0.4834   0.9406  -0.1012  -0.2772  -0.1789   0.00    0.0
2026/01/15 00:21:00.000   67.857348554   20.968474024   391.3503   6   9   0.5219   0.4745   0.8858  -0.0869  -0.2595  -0.2218   0.00    0.0
2026/01/15 00:23:00.000   67.857348668   20.968474886   391.3674   6   6   0.4994   0.4552   0.8484  -0.0877  -0.2441  -0.2267   0.00    0.0
2026/01/15 00:25:00.000   67.857348417   20.968474275   391.3642   6   6   0.4792   0.4379   0.8134  -0.0871  -0.2287  -0.2312   0.00    0.0
2026/01/15 00:25:30.000   67.857348491   20.968473870   391.3300   6   8   0.4717   0.4293   0.7683  -0.0723  -0.2148  -0.2446   0.00    0.0
2026/01/15 00:27:30.000   67.857348541   20.968474478   391.3234   6   4   0.4544   0.4154   0.7359  -0.0693  -0.1993  -0.2464   0.00    0.0
2026/01/15 00:28:00.000   67.857348581   20.968473780   391.2820   6   7   0.4480   0.4085   0.7004  -0.0537  -0.1876  -0.2523   0.00    0.0
2026/01/15 00:28:30.000   67.857348669   20.968473186   391.2643   6   7   0.4422   0.4025   0.6733  -0.0380  -0.1781  -0.2559   0.00    0.0
2026/01/15 00:29:00.000   67.857348805   20.968472859   391.2409   6   8   0.4369   0.3971   0.6513  -0.0177  -0.1704  -0.2581   0.00    0.0
2026/01/15 00:29:30.000   67.857348804   20.968472189   391.2248   6   7   0.4318   0.3922   0.6326   0.0245  -0.1639  -0.2593   0.00    0.0
2026/01/15 00:30:00.000   67.857348864   20.968471941   391.2041   6   8   0.4270   0.3876   0.6163   0.0368  -0.1584  -0.2598   0.00    0.0
2026/01/15 00:30:30.000   67.857349068   20.968471862   391.2047   6   7   0.4226   0.3832   0.6086   0.0443  -0.1529  -0.2582   0.00    0.0
2026/01/15 00:31:00.000   67.857349173   20.968471656   391.2087   6   7   0.4184   0.3791   0.6015   0.0499  -0.1479  -0.2565   0.00    0.0
2026/01/15 00:31:30.000   67.857349108   20.968471494   391.2309   6   7   0.4145   0.3752   0.5947   0.0545  -0.1433  -0.2546   0.00    0.0
2026/01/15 00:32:00.000   67.857349257   20.968471483   391.2284   6   7   0.4107   0.3714   0.5883   0.0583  -0.1390  -0.2527   0.00    0.0
2026/01/15 00:32:30.000   67.857349329   20.968471190   391.2365   6   7   0.4070   0.3677   0.5820   0.0616  -0.1349  -0.2509   0.00    0.0
2026/01/15 00:33:00.000   67.857349394   20.968471093   391.2436   6   7   0.4034   0.3641   0.5760   0.0644  -0.1312  -0.2490   0.00    0.0
2026/01/15 00:33:30.000   67.857349386   20.968470927   391.2542   6   7   0.4008   0.3610   0.5702   0.0635  -0.1268  -0.2478   0.00    0.0
2026/01/15 00:34:00.000   67.857349423   20.968470846   391.2540   6   7   0.3983   0.3580   0.5646   0.0625  -0.1226  -0.2467   0.00    0.0
2026/01/15 00:34:30.000   67.857349413   20.968470909   391.2628   6   7   0.3958   0.3549   0.5590   0.0615  -0.1186  -0.2455   0.00    0.0
2026/01/15 00:35:00.000   67.857349489   20.968470803   391.2648   6   7   0.3933   0.3520   0.5536   0.0606  -0.1147  -0.2444   0.00    0.0
2026/01/15 00:35:30.000   67.857349512   20.968470969   391.2736   6   7   0.3909   0.3490   0.5482   0.0597  -0.1109  -0.2433   0.00    0.0
2026/01/15 00:36:00.000   67.857349515   20.968470951   391.2756   6   7   0.3885   0.3461   0.5428   0.0588  -0.1072  -0.2423   0.00    0.0
2026/01/15 00:36:30.000   67.857349486   20.968470669   391.2840   6   7   0.3861   0.3433   0.5375   0.0580  -0.1037  -0.2413   0.00    0.0
2026/01/15 00:37:00.000   67.857349440   20.968470557   391.2895   6   7   0.3838   0.3404   0.5322   0.0572  -0.1003  -0.2402   0.00    0.0
2026/01/15 00:37:30.000   67.857349452   20.968470468   391.2917   6   7   0.3814   0.3376   0.5269   0.0564  -0.0971  -0.2393   0.00    0.0
2026/01/15 00:38:00.000   67.857349566   20.968470470   391.2819   6   7   0.3791   0.3348   0.5217   0.0558  -0.0939  -0.2383   0.00    0.0
2026/01/15 00:38:30.000   67.857349649   20.968470411   391.2770   6   7   0.3768   0.3320   0.5165   0.0552  -0.0909  -0.2374   0.00    0.0
2026/01/15 00:39:00.000   67.857349703   20.968470302   391.2740   6   7   0.3746   0.3292   0.5113   0.0546  -0.0880  -0.2365   0.00    0.0
2026/01/15 00:39:30.000   67.857349761   20.968470204   391.2697   6   7   0.3723   0.3265   0.5061   0.0541  -0.0852  -0.2356   0.00    0.0
2026/01/15 00:40:00.000   67.857349770   20.968470173   391.2731   6   7   0.3701   0.3237   0.5009   0.0537  -0.0825  -0.2347   0.00    0.0
2026/01/15 00:40:30.000   67.857349730   20.968470017   391.2729   6   6   0.3678   0.3210   0.4957   0.0533  -0.0800  -0.2338   0.00    0.0
2026/01/15 00:41:00.000   67.857349752   20.968469850   391.2713   6   7   0.3656   0.3183   0.4905   0.0530  -0.0777  -0.2330   0.00    0.0
2026/01/15 00:41:30.000   67.857349752   20.968469764   391.2735   6   7   0.3635   0.3156   0.4854   0.0524  -0.0753  -0.2322   0.00    0.0
2026/01/15 00:42:00.000   67.857349754   20.968469916   391.2793   6   6   0.3615   0.3138   0.4808   0.0508  -0.0692  -0.2318   0.00    0.0
2026/01/15 00:42:30.000   67.857349757   20.968469961   391.2800   6   6   0.3595   0.3121   0.4763   0.0490  -0.0627  -0.2313   0.00    0.0
2026/01/15 00:43:00.000   67.857349805   20.968469957   391.2781   6   6   0.3575   0.3104   0.4717   0.0471  -0.0555  -0.2309   0.00    0.0
2026/01/15 00:43:30.000   67.857349823   20.968470179   391.2846   6   7   0.3554   0.3088   0.4672   0.0452  -0.0476  -0.2304   0.00    0.0
2026/01/15 00:44:00.000   67.857349866   20.968470131   391.2836   6   7   0.3534   0.3072   0.4627   0.0432  -0.0383  -0.2300   0.00    0.0
2026/01/15 00:44:30.000   67.857349932   20.968470245   391.2811   6   7   0.3512   0.3055   0.4581   0.0419  -0.0278  -0.2292   0.00    0.0
2026/01/15 00:45:00.000   67.857349868   20.968470211   391.2896   6   8   0.3490   0.3039   0.4535   0.0406  -0.0103  -0.2284   0.00    0.0
2026/01/15 00:45:30.000   67.857349881   20.968470231   391.2936   6   8   0.3468   0.3024   0.4488   0.0392   0.0231  -0.2277   0.00    0.0
2026/01/15 00:46:00.000   67.857349866   20.968470355   391.3005   6   6   0.3446   0.3008   0.4443   0.0379   0.0339  -0.2269   0.00    0.0
2026/01/15 00:46:30.000   67.857349939   20.968470349   391.2980   6   7   0.3423   0.2992   0.4397   0.0364   0.0416  -0.2261   0.00    0.0
2026/01/15 00:47:00.000   67.857349984   20.968470482   391.3011   6   8   0.3403   0.2978   0.4352   0.0358   0.0478  -0.2254   0.00    0.0
2026/01/15 00:47:30.000   67.857349948   20.968470389   391.3083   6   8   0.3383   0.2963   0.4307   0.0352   0.0529  -0.2248   0.00    0.0
2026/01/15 00:48:00.000   67.857349935   20.968470425   391.3150   6   8   0.3363   0.2949   0.4263   0.0346   0.0574  -0.2242   0.00    0.0
2026/01/15 00:48:30.000   67.857349980   20.968470414   391.3136   6   8   0.3344   0.2935   0.4219   0.0337   0.0616  -0.2236   0.00    0.0
2026/01/15 00:49:00.000   67.857349989   20.968470470   391.3169   6   8   0.3324   0.2922   0.4175   0.0328   0.0653  -0.2230   0.00    0.0
2026/01/15 00:49:30.000   67.857350001   20.968470533   391.3198   6   8   0.3305   0.2909   0.4132   0.0319   0.0686  -0.2223   0.00    0.0
2026/01/15 00:50:00.000   67.857350054   20.968470572   391.3159   6   7   0.3286   0.2895   0.4089   0.0309   0.0716  -0.2217   0.00    0.0
2026/01/15 00:50:30.000   67.857350092   20.968470576   391.3164   6   8   0.3266   0.2882   0.4046   0.0299   0.0744  -0.2211   0.00    0.0
2026/01/15 00:51:00.000   67.857350139   20.968470644   391.3156   6   8   0.3247   0.2869   0.4003   0.0289   0.0769  -0.2204   0.00    0.0
2026/01/15 00:51:30.000   67.857350201   20.968470681   391.3139   6   8   0.3228   0.2857   0.3960   0.0278   0.0791  -0.2197   0.00    0.0
2026/01/15 00:52:00.000   67.857350198   20.968470727   391.3171   6   7   0.3209   0.2844   0.3917   0.0267   0.0812  -0.2190   0.00    0.0
2026/01/15 00:52:30.000   67.857350191   20.968470698   391.3184   6   7   0.3190   0.2832   0.3875   0.0255   0.0832  -0.2182   0.00    0.0
2026/01/15 00:53:00.000   67.857350213   20.968470709   391.3165   6   7   0.3170   0.2819   0.3833   0.0243   0.0850  -0.2174   0.00    0.0
2026/01/15 00:53:30.000   67.857350242   20.968470813   391.3155   6   7   0.3151   0.2807   0.3791   0.0230   0.0866  -0.2165   0.00    0.0
2026/01/15 00:54:00.000   67.857350240   20.968470925   391.3187   6   7   0.3132   0.2796   0.3751   0.0205   0.0885  -0.2159   0.00    0.0
2026/01/15 00:54:30.000   67.857350265   20.968470901   391.3173   6   7   0.3114   0.2784   0.3712   0.0178   0.0902  -0.2153   0.00    0.0
2026/01/15 00:55:30.000   67.857350285   20.968470834   391.3176   6   7   0.3084   0.2764   0.3665   0.0126   0.0916  -0.2134   0.00    0.0
2026/01/15 00:56:00.000   67.857350332   20.968470784   391.3147   6   8   0.3066   0.2752   0.3624   0.0067   0.0932  -0.2127   0.00    0.0
2026/01/15 00:56:30.000   67.857350316   20.968470555   391.3157   6   8   0.3047   0.2741   0.3585  -0.0084   0.0947  -0.2120   0.00    0.0
2026/01/15 00:59:30.000   67.857350368   20.968470580   391.3122   6   4   0.2988   0.2692   0.3516  -0.0197   0.0954  -0.2075   0.00    0.0
2026/01/15 01:01:00.000   67.857350424   20.968470462   391.3047   6   4   0.2964   0.2670   0.3503  -0.0222   0.0949  -0.2048   0.00    0.0
2026/01/15 01:03:00.000   67.857350498   20.968470275   391.2957   6   8   0.2932   0.2639   0.3435  -0.0243   0.0964  -0.2024   0.00    0.0
2026/01/15 01:03:30.000   67.857350544   20.968470159   391.2923   6   8   0.2923   0.2631   0.3384  -0.0243   0.0980  -0.2025   0.00    0.0
2026/01/15 01:04:00.000   67.857350536   20.968470168   391.2945   6   8   0.2914   0.2622   0.3335  -0.0245   0.0995  -0.2026   0.00    0.0
2026/01/15 01:04:30.000   67.857350501   20.968470099   391.2986   6   8   0.2905   0.2614   0.3288  -0.0247   0.1008  -0.2027   0.00    0.0
2026/01/15 01:05:00.000   67.857350523   20.968470050   391.2959   6   8   0.2897   0.2606   0.3243  -0.0249   0.1019  -0.2027   0.00    0.0
2026/01/15 01:05:30.000   67.857350526   20.968470016   391.2956   6   8   0.2888   0.2598   0.3200  -0.0252   0.1029  -0.2027   0.00    0.0
2026/01/15 01:06:00.000   67.857350570   20.968470111   391.2932   6   8   0.2880   0.2590   0.3159  -0.0254   0.1037  -0.2027   0.00    0.0
2026/01/15 01:06:30.000   67.857350576   20.968470086   391.2907   6   5   0.2872   0.2583   0.3143  -0.0262   0.1038  -0.2021   0.00    0.0
2026/01/15 01:07:00.000   67.857350602   20.968469986   391.2890   6   8   0.2864   0.2575   0.3102  -0.0265   0.1045  -0.2021   0.00    0.0
2026/01/15 01:07:30.000   67.857350574   20.968469929   391.2919   6   8   0.2855   0.2567   0.3064  -0.0268   0.1051  -0.2021   0.00    0.0
2026/01/15 01:08:00.000   67.857350532   20.968469898   391.2963   6   8   0.2847   0.2560   0.3027  -0.0272   0.1057  -0.2020   0.00    0.0
2026/01/15 01:08:30.000   67.857350524   20.968469881   391.2972   6   8   0.2838   0.2552   0.2991  -0.0276   0.1061  -0.2019   0.00    0.0
2026/01/15 01:09:00.000   67.857350517   20.968469926   391.2976   6   8   0.2830   0.2545   0.2957  -0.0281   0.1065  -0.2018   0.00    0.0
2026/01/15 01:10:00.000   67.857350500   20.968469876   391.2979   6   8   0.2814   0.2530   0.2919  -0.0292   0.1068  -0.2009   0.00    0.0
2026/01/15 01:10:30.000   67.857350474   20.968469724   391.2999   6   8   0.2805   0.2522   0.2885  -0.0296   0.1070  -0.2007   0.00    0.0
2026/01/15 01:11:00.000   67.857350465   20.968469731   391.2999   6   8   0.2795   0.2515   0.2853  -0.0301   0.1072  -0.2005   0.00    0.0
2026/01/15 01:11:30.000   67.857350467   20.968469672   391.2994   6   8   0.2786   0.2507   0.2822  -0.0306   0.1073  -0.2003   0.00    0.0
2026/01/15 01:12:00.000   67.857350511   20.968469637   391.2946   6   8   0.2777   0.2500   0.2792  -0.0310   0.1074  -0.2000   0.00    0.0
2026/01/15 01:12:30.000   67.857350473   20.968469578   391.2960   6   8   0.2767   0.2493   0.2763  -0.0316   0.1073  -0.1997   0.00    0.0
2026/01/15 01:13:00.000   67.857350511   20.968469593   391.2921   6   8   0.2758   0.2485   0.2735  -0.0323   0.1073  -0.1994   0.00    0.0
2026/01/15 01:13:30.000   67.857350498   20.968469541   391.2923   6   8   0.2748   0.2478   0.2707  -0.0330   0.1072  -0.1991   0.00    0.0
2026/01/15 01:14:00.000   67.857350516   20.968469504   391.2899   6   8   0.2738   0.2471   0.2681  -0.0336   0.1071  -0.1987   0.00    0.0
2026/01/15 01:14:30.000   67.857350542   20.968469415   391.2863   6   8   0.2728   0.2464   0.2654  -0.0342   0.1069  -0.1983   0.00    0.0
2026/01/15 01:15:00.000   67.857350561   20.968469387   391.2849   6   8   0.2717   0.2456   0.2629  -0.0348   0.1067  -0.1978   0.00    0.0
2026/01/15 01:15:30.000   67.857350589   20.968469333   391.2804   6   8   0.2707   0.2449   0.2604  -0.0355   0.1065  -0.1974   0.00    0.0
2026/01/15 01:16:00.000   67.857350588   20.968469317   391.2801   6   8   0.2696   0.2442   0.2579  -0.0361   0.1062  -0.1969   0.00    0.0
2026/01/15 01:16:30.000   67.857350587   20.968469351   391.2801   6   8   0.2685   0.2434   0.2555  -0.0367   0.1059  -0.1963   0.00    0.0
2026/01/15 01:17:00.000   67.857350623   20.968469343   391.2765   6   8   0.2673   0.2427   0.2532  -0.0373   0.1056  -0.1957   0.00    0.0
2026/01/15 01:17:30.000   67.857350637   20.968469361   391.2741   6   8   0.2661   0.2420   0.2508  -0.0378   0.1053  -0.1951   0.00    0.0
2026/01/15 01:18:00.000   67.857350650   20.968469301   391.2720   6   8   0.2649   0.2412   0.2485  -0.0384   0.1049  -0.1945   0.00    0.0
2026/01/15 01:18:30.000   67.857350668   20.968469329   391.2700   6   8   0.2636   0.2404   0.2463  -0.0389   0.1045  -0.1938   0.00    0.0
2026/01/15 01:19:00.000   67.857350662   20.968469209   391.2689   6   8   0.2624   0.2397   0.2440  -0.0395   0.1041  -0.1930   0.00    0.0
2026/01/15 01:19:30.000   67.857350700   20.968469234   391.2653   6   8   0.2610   0.2389   0.2418  -0.0399   0.1036  -0.1922   0.00    0.0
2026/01/15 01:20:00.000   67.857350750   20.968469173   391.2596   6   8   0.2596   0.2381   0.2396  -0.0404   0.1031  -0.1914   0.00    0.0
2026/01/15 01:20:30.000   67.857350798   20.968469110   391.2545   6   8   0.2582   0.2373   0.2374  -0.0409   0.1026  -0.1905   0.00    0.0
2026/01/15 01:21:00.000   67.857350813   20.968469094   391.2517   6   8   0.2568   0.2365   0.2352  -0.0415   0.1021  -0.1896   0.00    0.0
2026/01/15 01:21:30.000   67.857350856   20.968469014   391.2471   6   8   0.2553   0.2358   0.2330  -0.0419   0.1015  -0.1886   0.00    0.0
2026/01/15 01:22:00.000   67.857350903   20.968468924   391.2422   6   8   0.2538   0.2349   0.2309  -0.0424   0.1009  -0.1876   0.00    0.0
2026/01/15 01:22:30.000   67.857350958   20.968468830   391.2365   6   8   0.2522   0.2341   0.2287  -0.0429   0.1003  -0.1866   0.00    0.0
2026/01/15 01:23:00.000   67.857350982   20.968468767   391.2328   6   8   0.2506   0.2333   0.2266  -0.0433   0.0997  -0.1855   0.00    0.0
2026/01/15 01:23:30.000   67.857350996   20.968468725   391.2302   6   8   0.2489   0.2325   0.2244  -0.0437   0.0991  -0.1843   0.00    0.0
2026/01/15 01:24:00.000   67.857351021   20.968468564   391.2265   6   8   0.2473   0.2316   0.2223  -0.0441   0.0984  -0.1832   0.00    0.0
2026/01/15 01:24:30.000   67.857351076   20.968468462   391.2202   6   8   0.2455   0.2308   0.2202  -0.0445   0.0977  -0.1819   0.00    0.0
2026/01/15 01:25:00.000   67.857351115   20.968468376   391.2165   6   7   0.2439   0.2300   0.2182  -0.0450   0.0971  -0.1809   0.00    0.0
2026/01/15 01:25:30.000   67.857351147   20.968468309   391.2126   6   7   0.2423   0.2291   0.2162  -0.0455   0.0965  -0.1797   0.00    0.0
2026/01/15 01:26:00.000   67.857351166   20.968468154   391.2095   6   7   0.2406   0.2283   0.2143  -0.0460   0.0959  -0.1786   0.00    0.0
2026/01/15 01:26:30.000   67.857351195   20.968468099   391.2054   6   7   0.2389   0.2275   0.2123  -0.0466   0.0952  -0.1774   0.00    0.0
2026/01/15 01:27:00.000   67.857351228   20.968468014   391.2015   6   7   0.2372   0.2266   0.2103  -0.0471   0.0946  -0.1762   0.00    0.0
2026/01/15 01:27:30.000   67.857351254   20.968467970   391.1980   6   7   0.2354   0.2257   0.2084  -0.0476   0.0939  -0.1749   0.00    0.0
2026/01/15 01:28:00.000   67.857351295   20.968467834   391.1931   6   7   0.2336   0.2249   0.2064  -0.0481   0.0933  -0.1736   0.00    0.0
2026/01/15 01:28:30.000   67.857351329   20.968467755   391.1890   6   7   0.2317   0.2240   0.2045  -0.0486   0.0926  -0.1723   0.00    0.0
2026/01/15 01:29:00.000   67.857351348   20.968467622   391.1858   6   7   0.2299   0.2231   0.2026  -0.0491   0.0919  -0.1710   0.00    0.0
2026/01/15 01:29:30.000   67.857351371   20.968467498   391.1825   6   7   0.2280   0.2222   0.2006  -0.0496   0.0912  -0.1696   0.00    0.0
2026/01/15 01:30:00.000   67.857351398   20.968467409   391.1789   6   7   0.2261   0.2213   0.1987  -0.0501   0.0905  -0.1682   0.00    0.0
2026/01/15 01:30:30.000   67.857351449   20.968467301   391.1733   6   7   0.2242   0.2204   0.1968  -0.0505   0.0898  -0.1668   0.00    0.0
2026/01/15 01:31:30.000   67.857351500   20.968467271   391.1678   6   7   0.2218   0.2190   0.1946  -0.0510   0.0890  -0.1650   0.00    0.0
2026/01/15 01:32:00.000   67.857351530   20.968467163   391.1640   6   6   0.2197   0.2180   0.1926  -0.0516   0.0882  -0.1635   0.00    0.0
2026/01/15 01:32:30.000   67.857351566   20.968467115   391.1597   6   6   0.2177   0.2171   0.1906  -0.0521   0.0875  -0.1619   0.00    0.0
2026/01/15 01:33:00.000   67.857351616   20.968467057   391.1541   6   6   0.2156   0.2161   0.1887  -0.0526   0.0867  -0.1603   0.00    0.0
2026/01/15 01:33:30.000   67.857351670   20.968466955   391.1489   6   6   0.2135   0.2151   0.1867  -0.0531   0.0860  -0.1587   0.00    0.0
2026/01/15 01:34:00.000   67.857351721   20.968466819   391.1436   6   6   0.2114   0.2142   0.1848  -0.0536   0.0852  -0.1572   0.00    0.0
2026/01/15 01:34:30.000   67.857351760   20.968466814   391.1393   6   6   0.2093   0.2132   0.1829  -0.0540   0.0844  -0.1556   0.00    0.0
2026/01/15 01:35:00.000   67.857351789   20.968466703   391.1350   6   6   0.2072   0.2122   0.1810  -0.0545   0.0837  -0.1540   0.00    0.0
2026/01/15 01:35:30.000   67.857351822   20.968466688   391.1311   6   7   0.2051   0.2112   0.1791  -0.0549   0.0829  -0.1524   0.00    0.0
2026/01/15 01:36:00.000   67.857351853   20.968466574   391.1272   6   7   0.2031   0.2102   0.1772  -0.0554   0.0821  -0.1508   0.00    0.0
2026/01/15 01:36:30.000   67.857351843   20.968466511   391.1264   6   7   0.2018   0.2094   0.1759  -0.0574   0.0822  -0.1500   0.00    0.0
2026/01/15 01:37:00.000   67.857351852   20.968466455   391.1240   6   7   0.2006   0.2087   0.1746  -0.0593   0.0823  -0.1493   0.00    0.0
2026/01/15 01:37:30.000   67.857351845   20.968466399   391.1230   6   7   0.1994   0.2079   0.1733  -0.0612   0.0824  -0.1485   0.00    0.0
2026/01/15 01:38:00.000   67.857351827   20.968466427   391.1229   6   7   0.1981   0.2071   0.1721  -0.0630   0.0824  -0.1478   0.00    0.0
2026/01/15 01:38:30.000   67.857351820   20.968466354   391.1216   6   7   0.1969   0.2064   0.1708  -0.0647   0.0825  -0.1470   0.00    0.0
2026/01/15 01:39:00.000   67.857351802   20.968466294   391.1212   6   7   0.1957   0.2056   0.1696  -0.0663   0.0826  -0.1462   0.00    0.0
2026/01/15 01:39:30.000   67.857351803   20.968466218   391.1193   6   7   0.1944   0.2048   0.1683  -0.0679   0.0826  -0.1455   0.00    0.0
2026/01/15 01:40:00.000   67.857351817   20.968466218   391.1165   6   7   0.1932   0.2041   0.1671  -0.0695   0.0827  -0.1447   0.00    0.0
2026/01/15 01:40:30.000   67.857351823   20.968466126   391.1140   6   7   0.1919   0.2033   0.1659  -0.0709   0.0827  -0.1439   0.00    0.0
2026/01/15 01:41:00.000   67.857351817   20.968466120   391.1127   6   7   0.1907   0.2026   0.1646  -0.0723   0.0828  -0.1430   0.00    0.0
2026/01/15 01:41:30.000   67.857351798   20.968466070   391.1124   6   7   0.1895   0.2018   0.1634  -0.0737   0.0828  -0.1422   0.00    0.0
2026/01/15 01:42:00.000   67.857351810   20.968466023   391.1094   6   7   0.1882   0.2010   0.1622  -0.0750   0.0828  -0.1414   0.00    0.0
2026/01/15 01:43:00.000   67.857351800   20.968465986   391.1085   6   7   0.1867   0.1999   0.1608  -0.0762   0.0827  -0.1403   0.00    0.0
2026/01/15 01:43:30.000   67.857351802   20.968465990   391.1064   6   7   0.1854   0.1991   0.1596  -0.0774   0.0827  -0.1394   0.00    0.0
2026/01/15 01:44:00.000   67.857351797   20.968465971   391.1048   6   7   0.1841   0.1983   0.1583  -0.0786   0.0827  -0.1385   0.00    0.0
2026/01/15 01:44:30.000   67.857351812   20.968465901   391.1019   6   7   0.1828   0.1975   0.1571  -0.0797   0.0827  -0.1376   0.00    0.0
2026/01/15 01:45:00.000   67.857351830   20.968465827   391.0985   6   7   0.1815   0.1967   0.1559  -0.0807   0.0826  -0.1367   0.00    0.0
2026/01/15 01:45:30.000   67.857351839   20.968465779   391.0961   6   7   0.1803   0.1960   0.1546  -0.0817   0.0826  -0.1358   0.00    0.0
2026/01/15 01:46:00.000   67.857351848   20.968465705   391.0936   6   7   0.1790   0.1952   0.1534  -0.0827   0.0825  -0.1348   0.00    0.0
2026/01/15 01:46:30.000   67.857351854   20.968465622   391.0909   6   7   0.1778   0.1944   0.1522  -0.0837   0.0825  -0.1340   0.00    0.0
2026/01/15 01:47:00.000   67.857351861   20.968465580   391.0884   6   7   0.1765   0.1936   0.1511  -0.0846   0.0824  -0.1331   0.00    0.0
2026/01/15 01:47:30.000   67.857351864   20.968465533   391.0863   6   7   0.1754   0.1929   0.1499  -0.0857   0.0824  -0.1323   0.00    0.0
2026/01/15 01:48:00.000   67.857351854   20.968465486   391.0855   6   7   0.1743   0.1922   0.1488  -0.0867   0.0824  -0.1314   0.00    0.0
2026/01/15 01:49:00.000   67.857351863   20.968465366   391.0823   6   7   0.1730   0.1912   0.1476  -0.0875   0.0823  -0.1304   0.00    0.0
2026/01/15 01:49:30.000   67.857351866   20.968465355   391.0801   6   7   0.1718   0.1905   0.1464  -0.0885   0.0823  -0.1295   0.00    0.0
2026/01/15 01:50:00.000   67.857351882   20.968465308   391.0772   6   8   0.1706   0.1898   0.1452  -0.0894   0.0822  -0.1286   0.00    0.0
2026/01/15 01:50:30.000   67.857351889   20.968465302   391.0747   6   8   0.1694   0.1891   0.1441  -0.0902   0.0822  -0.1277   0.00    0.0
2026/01/15 01:51:00.000   67.857351893   20.968465231   391.0726   6   8   0.1683   0.1884   0.1429  -0.0910   0.0821  -0.1268   0.00    0.0
2026/01/15 01:51:30.000   67.857351899   20.968465179   391.0707   6   8   0.1671   0.1877   0.1418  -0.0918   0.0820  -0.1260   0.00    0.0
2026/01/15 01:52:00.000   67.857351915   20.968465087   391.0675   6   8   0.1660   0.1870   0.1407  -0.0925   0.0819  -0.1251   0.00    0.0
2026/01/15 01:52:30.000   67.857351911   20.968465075   391.0659   6   8   0.1649   0.1863   0.1396  -0.0932   0.0818  -0.1242   0.00    0.0
2026/01/15 01:53:00.000   67.857351915   20.968465035   391.0635   6   8   0.1638   0.1856   0.1384  -0.0939   0.0817  -0.1233   0.00    0.0
2026/01/15 01:53:30.000   67.857351916   20.968464966   391.0612   6   8   0.1627   0.1849   0.1374  -0.0945   0.0815  -0.1224   0.00    0.0
2026/01/15 01:54:00.000   67.857351927   20.968464919   391.0582   6   8   0.1616   0.1842   0.1363  -0.0951   0.0814  -0.1215   0.00    0.0
2026/01/15 01:55:00.000   67.857351920   20.968464850   391.0563   6   8   0.1603   0.1832   0.1351  -0.0955   0.0811  -0.1205   0.00    0.0
2026/01/15 01:55:30.000   67.857351927   20.968464761   391.0538   6   8   0.1592   0.1825   0.1340  -0.0961   0.0809  -0.1196   0.00    0.0
2026/01/15 01:56:00.000   67.857351931   20.968464688   391.0516   6   8   0.1582   0.1818   0.1329  -0.0966   0.0807  -0.1187   0.00    0.0
2026/01/15 01:56:30.000   67.857351943   20.968464620   391.0487   6   8   0.1571   0.1810   0.1318  -0.0971   0.0805  -0.1178   0.00    0.0
2026/01/15 01:57:00.000   67.857351956   20.968464566   391.0457   6   8   0.1560   0.1803   0.1307  -0.0975   0.0803  -0.1169   0.00    0.0
2026/01/15 01:58:00.000   67.857351966   20.968464511   391.0423   6   8   0.1547   0.1793   0.1295  -0.0977   0.0798  -0.1158   0.00    0.0
2026/01/15 02:00:00.000   67.857351975   20.968464374   391.0384   6   9   0.1530   0.1775   0.1279  -0.0974   0.0789  -0.1143   0.00    0.0
2026/01/15 02:01:30.000   67.857352015   20.968464222   391.0324   6   8   0.1514   0.1761   0.1265  -0.0973   0.0781  -0.1129   0.00    0.0
2026/01/15 02:02:00.000   67.857352034   20.968464129   391.0278   6   8   0.1501   0.1751   0.1252  -0.0975   0.0777  -0.1118   0.00    0.0
2026/01/15 02:02:30.000   67.857352064   20.968464014   391.0224   6   9   0.1489   0.1741   0.1240  -0.0977   0.0772  -0.1107   0.00    0.0
2026/01/15 02:04:30.000   67.857352111   20.968463860   391.0151   6   9   0.1471   0.1723   0.1224  -0.0973   0.0762  -0.1091   0.00    0.0
2026/01/15 02:05:00.000   67.857352126   20.968463779   391.0107   6  10   0.1457   0.1712   0.1211  -0.0974   0.0757  -0.1079   0.00    0.0
2026/01/15 02:07:00.000   67.857352130   20.968463739   391.0050   6  10   0.1438   0.1693   0.1193  -0.0968   0.0747  -0.1063   0.00    0.0
2026/01/15 02:07:30.000   67.857352162   20.968463612   390.9993   6  10   0.1424   0.1681   0.1179  -0.0968   0.0741  -0.1050   0.00    0.0
2026/01/15 02:08:00.000   67.857352194   20.968463476   390.9935   6  10   0.1410   0.1669   0.1166  -0.0968   0.0734  -0.1038   0.00    0.0
2026/01/15 02:08:30.000   67.857352216   20.968463355   390.9884   6  10   0.1398   0.1659   0.1154  -0.0969   0.0728  -0.1027   0.00    0.0
2026/01/15 02:09:00.000   67.857352228   20.968463264   390.9840   6  11   0.1387   0.1648   0.1143  -0.0969   0.0723  -0.1017   0.00    0.0
2026/01/15 02:10:00.000   67.857352243   20.968463131   390.9779   6  11   0.1374   0.1635   0.1131  -0.0968   0.0716  -0.1005   0.00    0.0
2026/01/15 02:11:30.000   67.857352258   20.968463053   390.9702   6  11   0.1361   0.1622   0.1118  -0.0968   0.0710  -0.0993   0.00    0.0
2026/01/15 02:12:00.000   67.857352266   20.968462998   390.9694   6  10   0.1352   0.1614   0.1112  -0.0972   0.0710  -0.0986   0.00    0.0
2026/01/15 02:12:30.000   67.857352275   20.968462943   390.9689   6  10   0.1343   0.1606   0.1107  -0.0976   0.0710  -0.0979   0.00    0.0
2026/01/15 02:13:00.000   67.857352274   20.968462892   390.9691   6  10   0.1335   0.1599   0.1102  -0.0980   0.0710  -0.0973   0.00    0.0
2026/01/15 02:13:30.000   67.857352272   20.968462883   390.9693   6  10   0.1327   0.1592   0.1096  -0.0983   0.0710  -0.0967   0.00    0.0
2026/01/15 02:14:00.000   67.857352265   20.968462893   390.9697   6   9   0.1319   0.1585   0.1091  -0.0986   0.0710  -0.0961   0.00    0.0
2026/01/15 02:14:30.000   67.857352263   20.968462848   390.9697   6   9   0.1311   0.1577   0.1086  -0.0989   0.0710  -0.0955   0.00    0.0
2026/01/15 02:15:00.000   67.857352255   20.968462860   390.9700   6   9   0.1304   0.1571   0.1081  -0.0992   0.0710  -0.0949   0.00    0.0
2026/01/15 02:15:30.000   67.857352249   20.968462834   390.9702   6  10   0.1297   0.1564   0.1077  -0.0994   0.0709  -0.0943   0.00    0.0
2026/01/15 02:16:00.000   67.857352240   20.968462828   390.9704   6  10   0.1289   0.1557   0.1072  -0.0996   0.0709  -0.0938   0.00    0.0
2026/01/15 02:16:30.000   67.857352245   20.968462784   390.9697   6   9   0.1282   0.1550   0.1067  -0.0998   0.0708  -0.0932   0.00    0.0
2026/01/15 02:17:00.000   67.857352249   20.968462759   390.9693   6   9   0.1276   0.1543   0.1062  -0.1000   0.0708  -0.0927   0.00    0.0
2026/01/15 02:17:30.000   67.857352246   20.968462766   390.9694   6  10   0.1269   0.1537   0.1058  -0.1001   0.0707  -0.0921   0.00    0.0
2026/01/15 02:18:00.000   67.857352238   20.968462764   390.9699   6  10   0.1263   0.1530   0.1053  -0.1002   0.0706  -0.0916   0.00    0.0
2026/01/15 02:18:30.000   67.857352247   20.968462693   390.9692   6  10   0.1256   0.1523   0.1049  -0.1003   0.0705  -0.0911   0.00    0.0
2026/01/15 02:19:00.000   67.857352238   20.968462708   390.9695   6  10   0.1250   0.1517   0.1044  -0.1004   0.0704  -0.0906   0.00    0.0
2026/01/15 02:19:30.000   67.857352235   20.968462703   390.9694   6  10   0.1244   0.1511   0.1040  -0.1005   0.0703  -0.0901   0.00    0.0
2026/01/15 02:20:00.000   67.857352229   20.968462706   390.9697   6  10   0.1238   0.1504   0.1035  -0.1006   0.0702  -0.0896   0.00    0.0
2026/01/15 02:20:30.000   67.857352225   20.968462681   390.9696   6  10   0.1232   0.1499   0.1031  -0.1007   0.0701  -0.0892   0.00    0.0
2026/01/15 02:21:30.000   67.857352216   20.968462635   390.9700   6   9   0.1226   0.1491   0.1026  -0.1006   0.0699  -0.0886   0.00    0.0
2026/01/15 02:22:00.000   67.857352215   20.968462621   390.9699   6   9   0.1220   0.1485   0.1022  -0.1007   0.0698  -0.0882   0.00    0.0
2026/01/15 02:22:30.000   67.857352211   20.968462615   390.9698   6   9   0.1215   0.1479   0.1018  -0.1007   0.0697  -0.0877   0.00    0.0
2026/01/15 02:23:30.000   67.857352204   20.968462598   390.9701   6   9   0.1207   0.1471   0.1012  -0.1006   0.0695  -0.0870   0.00    0.0
2026/01/15 02:24:00.000   67.857352197   20.968462584   390.9703   6   8   0.1201   0.1465   0.1008  -0.1006   0.0694  -0.0866   0.00    0.0
2026/01/15 02:24:30.000   67.857352190   20.968462581   390.9707   6   9   0.1196   0.1459   0.1004  -0.1006   0.0692  -0.0861   0.00    0.0
2026/01/15 02:25:00.000   67.857352189   20.968462552   390.9705   6   9   0.1190   0.1453   0.0999  -0.1005   0.0691  -0.0857   0.00    0.0
2026/01/15 02:25:30.000   67.857352179   20.968462559   390.9710   6   9   0.1185   0.1447   0.0995  -0.1005   0.0689  -0.0852   0.00    0.0
2026/01/15 02:26:00.000   67.857352179   20.968462538   390.9709   6   8   0.1180   0.1441   0.0991  -0.1005   0.0688  -0.0848   0.00    0.0
2026/01/15 02:26:30.000   67.857352181   20.968462502   390.9705   6   8   0.1175   0.1435   0.0987  -0.1004   0.0686  -0.0844   0.00    0.0
2026/01/15 02:27:00.000   67.857352186   20.968462458   390.9702   6   8   0.1170   0.1429   0.0983  -0.1003   0.0685  -0.0840   0.00    0.0
2026/01/15 02:27:30.000   67.857352187   20.968462441   390.9698   6   9   0.1165   0.1423   0.0979  -0.1002   0.0683  -0.0835   0.00    0.0
2026/01/15 02:28:00.000   67.857352190   20.968462404   390.9694   6   9   0.1160   0.1417   0.0974  -0.1001   0.0681  -0.0831   0.00    0.0
2026/01/15 02:28:30.000   67.857352190   20.968462369   390.9691   6   9   0.1155   0.1411   0.0970  -0.1000   0.0679  -0.0827   0.00    0.0
2026/01/15 02:29:00.000   67.857352194   20.968462337   390.9685   6   9   0.1150   0.1405   0.0966  -0.0999   0.0677  -0.0823   0.00    0.0
2026/01/15 02:29:30.000   67.857352197   20.968462291   390.9681   6   9   0.1145   0.1399   0.0962  -0.0997   0.0675  -0.0818   0.00    0.0
2026/01/15 02:30:00.000   67.857352199   20.968462261   390.9677   6   9   0.1140   0.1393   0.0958  -0.0995   0.0673  -0.0814   0.00    0.0
2026/01/15 02:30:30.000   67.857352209   20.968462220   390.9667   6   9   0.1135   0.1387   0.0954  -0.0994   0.0671  -0.0810   0.00    0.0
2026/01/15 02:31:00.000   67.857352216   20.968462175   390.9660   6   9   0.1130   0.1380   0.0950  -0.0992   0.0669  -0.0806   0.00    0.0
2026/01/15 02:31:30.000   67.857352227   20.968462135   390.9651   6   9   0.1125   0.1374   0.0946  -0.0990   0.0666  -0.0802   0.00    0.0
2026/01/15 02:32:00.000   67.857352230   20.968462102   390.9646   6   9   0.1121   0.1368   0.0942  -0.0988   0.0664  -0.0798   0.00    0.0
2026/01/15 02:32:30.000   67.857352230   20.968462089   390.9643   6   9   0.1116   0.1362   0.0938  -0.0985   0.0661  -0.0793   0.00    0.0
2026/01/15 02:33:00.000   67.857352235   20.968462056   390.9636   6   9   0.1111   0.1355   0.0934  -0.0983   0.0659  -0.0789   0.00    0.0
2026/01/15 02:33:30.000   67.857352241   20.968462011   390.9629   6   9   0.1106   0.1349   0.0930  -0.0981   0.0656  -0.0785   0.00    0.0
2026/01/15 02:34:00.000   67.857352240   20.968461993   390.9626   6   9   0.1101   0.1343   0.0925  -0.0978   0.0653  -0.0781   0.00    0.0
2026/01/15 02:34:30.000   67.857352246   20.968461944   390.9618   6   9   0.1096   0.1336   0.0921  -0.0975   0.0651  -0.0777   0.00    0.0
2026/01/15 02:35:00.000   67.857352256   20.968461886   390.9610   6   9   0.1091   0.1330   0.0917  -0.0972   0.0648  -0.0772   0.00    0.0
2026/01/15 02:35:30.000   67.857352263   20.968461841   390.9601   6   9   0.1086   0.1323   0.0913  -0.0969   0.0645  -0.0768   0.00    0.0
2026/01/15 02:36:00.000   67.857352268   20.968461810   390.9592   6   9   0.1081   0.1316   0.0909  -0.0966   0.0642  -0.0764   0.00    0.0
2026/01/15 02:36:30.000   67.857352273   20.968461768   390.9585   6   9   0.1076   0.1310   0.0905  -0.0963   0.0639  -0.0760   0.00    0.0
2026/01/15 02:37:00.000   67.857352280   20.968461735   390.9577   6   9   0.1071   0.1303   0.0901  -0.0960   0.0636  -0.0756   0.00    0.0
2026/01/15 02:37:30.000   67.857352286   20.968461698   390.9570   6   9   0.1066   0.1296   0.0897  -0.0956   0.0633  -0.0751   0.00    0.0
2026/01/15 02:38:00.000   67.857352300   20.968461628   390.9558   6   9   0.1060   0.1289   0.0893  -0.0953   0.0629  -0.0747   0.00    0.0
2026/01/15 02:38:30.000   67.857352304   20.968461590   390.9552   6   9   0.1055   0.1282   0.0889  -0.0949   0.0626  -0.0743   0.00    0.0
2026/01/15 02:39:00.000   67.857352311   20.968461551   390.9545   6   9   0.1050   0.1275   0.0885  -0.0945   0.0623  -0.0738   0.00    0.0
2026/01/15 02:39:30.000   67.857352323   20.968461492   390.9532   6   9   0.1045   0.1268   0.0881  -0.0941   0.0619  -0.0734   0.00    0.0
2026/01/15 02:40:00.000   67.857352331   20.968461434   390.9525   6   9   0.1040   0.1261   0.0877  -0.0937   0.0616  -0.0730   0.00    0.0
2026/01/15 02:40:30.000   67.857352345   20.968461374   390.9514   6   9   0.1034   0.1254   0.0873  -0.0933   0.0612  -0.0726   0.00    0.0
2026/01/15 02:41:00.000   67.857352358   20.968461317   390.9503   6   9   0.1029   0.1247   0.0868  -0.0929   0.0609  -0.0721   0.00    0.0
2026/01/15 02:41:30.000   67.857352370   20.968461252   390.9492   6   9   0.1024   0.1240   0.0864  -0.0925   0.0605  -0.0717   0.00    0.0
2026/01/15 02:42:00.000   67.857352381   20.968461186   390.9480   6   9   0.1019   0.1233   0.0860  -0.0920   0.0601  -0.0712   0.00    0.0
2026/01/15 02:42:30.000   67.857352401   20.968461101   390.9463   6   9   0.1013   0.1225   0.0856  -0.0916   0.0598  -0.0708   0.00    0.0
2026/01/15 02:43:00.000   67.857352415   20.968461029   390.9449   6   9   0.1008   0.1218   0.0852  -0.0912   0.0594  -0.0704   0.00    0.0
2026/01/15 02:43:30.000   67.857352425   20.968460975   390.9438   6   9   0.1003   0.1211   0.0848  -0.0907   0.0590  -0.0699   0.00    0.0
2026/01/15 02:44:00.000   67.857352436   20.968460924   390.9426   6   9   0.0997   0.1204   0.0844  -0.0902   0.0586  -0.0695   0.00    0.0
2026/01/15 02:44:30.000   67.857352446   20.968460864   390.9414   6   9   0.0992   0.1196   0.0840  -0.0898   0.0583  -0.0691   0.00    0.0
2026/01/15 02:45:00.000   67.857352452   20.968460820   390.9404   6   9   0.0986   0.1189   0.0836  -0.0893   0.0579  -0.0686   0.00    0.0
2026/01/15 02:45:30.000   67.857352462   20.968460774   390.9395   6   9   0.0981   0.1182   0.0832  -0.0888   0.0575  -0.0682   0.00    0.0
2026/01/15 02:46:00.000   67.857352479   20.968460710   390.9382   6   9   0.0975   0.1174   0.0828  -0.0883   0.0571  -0.0677   0.00    0.0
2026/01/15 02:46:30.000   67.857352497   20.968460633   390.9368   6   9   0.0970   0.1167   0.0824  -0.0878   0.0567  -0.0673   0.00    0.0
2026/01/15 02:47:00.000   67.857352514   20.968460565   390.9353   6   9   0.0964   0.1160   0.0820  -0.0873   0.0563  -0.0669   0.00    0.0
2026/01/15 02:47:30.000   67.857352533   20.968460485   390.9336   6   9   0.0959   0.1152   0.0816  -0.0868   0.0559  -0.0664   0.00    0.0
2026/01/15 02:48:00.000   67.857352551   20.968460399   390.9320   6   9   0.0953   0.1145   0.0812  -0.0863   0.0555  -0.0660   0.00    0.0
2026/01/15 02:48:30.000   67.857352566   20.968460320   390.9306   6   9   0.0948   0.1137   0.0808  -0.0858   0.0550  -0.0655   0.00    0.0
2026/01/15 02:49:00.000   67.857352584   20.968460245   390.9289   6   9   0.0942   0.1130   0.0804  -0.0852   0.0546  -0.0651   0.00    0.0
2026/01/15 02:49:30.000   67.857352599   20.968460174   390.9275   6   9   0.0936   0.1122   0.0800  -0.0847   0.0542  -0.0647   0.00    0.0
2026/01/15 02:50:00.000   67.857352617   20.968460097   390.9257   6   9   0.0931   0.1115   0.0796  -0.0842   0.0538  -0.0642   0.00    0.0
2026/01/15 02:50:30.000   67.857352627   20.968460043   390.9245   6   9   0.0925   0.1107   0.0792  -0.0836   0.0534  -0.0638   0.00    0.0
2026/01/15 02:51:00.000   67.857352635   20.968459994   390.9235   6   8   0.0920   0.1100   0.0788  -0.0831   0.0530  -0.0633   0.00    0.0
2026/01/15 02:51:30.000   67.857352647   20.968459935   390.9221   6   8   0.0914   0.1092   0.0784  -0.0825   0.0525  -0.0629   0.00    0.0
2026/01/15 02:52:00.000   67.857352662   20.968459861   390.9206   6   8   0.0908   0.1084   0.0780  -0.0820   0.0521  -0.0625   0.00    0.0
2026/01/15 02:52:30.000   67.857352681   20.968459773   390.9188   6   8   0.0903   0.1077   0.0776  -0.0814   0.0517  -0.0620   0.00    0.0
2026/01/15 02:53:00.000   67.857352689   20.968459727   390.9178   6   7   0.0898   0.1071   0.0772  -0.0811   0.0514  -0.0617   0.00    0.0
2026/01/15 02:53:30.000   67.857352701   20.968459675   390.9166   6   7   0.0894   0.1065   0.0769  -0.0807   0.0512  -0.0614   0.00    0.0
2026/01/15 02:54:00.000   67.857352710   20.968459634   390.9154   6   7   0.0890   0.1060   0.0765  -0.0803   0.0509  -0.0610   0.00    0.0
2026/01/15 02:54:30.000   67.857352718   20.968459594   390.9139   6   8   0.0886   0.1054   0.0762  -0.0799   0.0506  -0.0607   0.00    0.0
2026/01/15 02:55:00.000   67.857352718   20.968459583   390.9130   6   8   0.0882   0.1048   0.0758  -0.0796   0.0504  -0.0604   0.00    0.0
2026/01/15 02:55:30.000   67.857352727   20.968459539   390.9118   6   8   0.0877   0.1042   0.0755  -0.0792   0.0501  -0.0601   0.00    0.0
2026/01/15 02:56:00.000   67.857352733   20.968459507   390.9108   6   8   0.0873   0.1036   0.0752  -0.0788   0.0498  -0.0597   0.00    0.0
2026/01/15 02:56:30.000   67.857352744   20.968459447   390.9094   6   8   0.0869   0.1031   0.0748  -0.0784   0.0496  -0.0594   0.00    0.0
2026/01/15 02:57:00.000   67.857352753   20.968459399   390.9081   6   8   0.0865   0.1025   0.0745  -0.0780   0.0493  -0.0591   0.00    0.0
2026/01/15 02:57:30.000   67.857352756   20.968459372   390.9068   6   8   0.0860   0.1019   0.0741  -0.0776   0.0490  -0.0588   0.00    0.0
2026/01/15 02:58:00.000   67.857352762   20.968459332   390.9056   6   8   0.0856   0.1013   0.0738  -0.0772   0.0487  -0.0585   0.00    0.0
2026/01/15 02:58:30.000   67.857352766   20.968459309   390.9046   6   9   0.0852   0.1007   0.0735  -0.0768   0.0484  -0.0581   0.00    0.0
2026/01/15 02:59:00.000   67.857352770   20.968459279   390.9037   6   9   0.0847   0.1001   0.0731  -0.0764   0.0481  -0.0578   0.00    0.0
2026/01/15 02:59:30.000   67.857352783   20.968459221   390.9022   6  10   0.0843   0.0995   0.0728  -0.0759   0.0479  -0.0575   0.00    0.0
2026/01/15 03:00:00.000   67.857352786   20.968459190   390.9013   6  10   0.0838   0.0989   0.0724  -0.0755   0.0476  -0.0571   0.00    0.0
2026/01/15 03:00:30.000   67.857352798   20.968459129   390.8998   6   9   0.0834   0.0983   0.0721  -0.0751   0.0473  -0.0568   0.00    0.0
2026/01/15 03:01:00.000   67.857352810   20.968459067   390.8981   6   9   0.0830   0.0977   0.0718  -0.0746   0.0470  -0.0565   0.00    0.0
2026/01/15 03:01:30.000   67.857352816   20.968459024   390.8966   6   9   0.0825   0.0971   0.0714  -0.0742   0.0467  -0.0562   0.00    0.0
2026/01/15 03:02:00.000   67.857352828   20.968458964   390.8949   6   9   0.0821   0.0966   0.0711  -0.0738   0.0464  -0.0558   0.00    0.0
2026/01/15 03:02:30.000   67.857352842   20.968458912   390.8933   6  10   0.0816   0.0960   0.0708  -0.0733   0.0461  -0.0555   0.00    0.0
2026/01/15 03:03:00.000   67.857352851   20.968458868   390.8918   6  10   0.0812   0.0954   0.0704  -0.0729   0.0458  -0.0552   0.00    0.0
2026/01/15 03:03:30.000   67.857352860   20.968458818   390.8901   6  10   0.0808   0.0948   0.0701  -0.0725   0.0455  -0.0549   0.00    0.0
2026/01/15 03:04:00.000   67.857352866   20.968458777   390.8885   6   9   0.0803   0.0942   0.0698  -0.0720   0.0452  -0.0545   0.00    0.0
2026/01/15 03:04:30.000   67.857352870   20.968458745   390.8870   6   8   0.0799   0.0936   0.0694  -0.0716   0.0449  -0.0542   0.00    0.0
2026/01/15 03:05:00.000   67.857352877   20.968458707   390.8854   6   8   0.0794   0.0930   0.0691  -0.0711   0.0446  -0.0539   0.00    0.0
2026/01/15 03:05:30.000   67.857352887   20.968458654   390.8837   6   9   0.0790   0.0924   0.0688  -0.0707   0.0443  -0.0536   0.00    0.0
2026/01/15 03:06:00.000   67.857352894   20.968458614   390.8822   6   8   0.0786   0.0918   0.0684  -0.0702   0.0440  -0.0532   0.00    0.0
2026/01/15 03:06:30.000   67.857352900   20.968458576   390.8807   6   9   0.0781   0.0913   0.0681  -0.0698   0.0437  -0.0529   0.00    0.0
2026/01/15 03:07:30.000   67.857352911   20.968458523   390.8790   6  10   0.0776   0.0906   0.0678  -0.0693   0.0434  -0.0526   0.00    0.0
2026/01/15 03:08:00.000   67.857352918   20.968458479   390.8775   6  10   0.0772   0.0900   0.0674  -0.0688   0.0431  -0.0522   0.00    0.0
2026/01/15 03:08:30.000   67.857352921   20.968458453   390.8760   6  10   0.0767   0.0894   0.0671  -0.0683   0.0428  -0.0519   0.00    0.0
2026/01/15 03:09:00.000   67.857352931   20.968458401   390.8741   6  10   0.0763   0.0888   0.0668  -0.0679   0.0425  -0.0516   0.00    0.0
2026/01/15 03:09:30.000   67.857352945   20.968458338   390.8721   6   9   0.0758   0.0883   0.0665  -0.0674   0.0422  -0.0513   0.00    0.0
2026/01/15 03:10:30.000   67.857352958   20.968458296   390.8715   6   8   0.0753   0.0876   0.0662  -0.0669   0.0419  -0.0509   0.00    0.0
2026/01/15 03:11:00.000   67.857352972   20.968458247   390.8708   6   8   0.0749   0.0870   0.0659  -0.0664   0.0416  -0.0506   0.00    0.0
2026/01/15 03:11:30.000   67.857352980   20.968458219   390.8705   6   8   0.0744   0.0865   0.0657  -0.0660   0.0414  -0.0502   0.00    0.0
2026/01/15 03:12:00.000   67.857352990   20.968458188   390.8702   6   8   0.0740   0.0859   0.0654  -0.0655   0.0411  -0.0499   0.00    0.0
2026/01/15 03:12:30.000   67.857353004   20.968458139   390.8697   6   9   0.0735   0.0853   0.0652  -0.0650   0.0409  -0.0496   0.00    0.0
2026/01/15 03:13:00.000   67.857353012   20.968458117   390.8694   6   9   0.0731   0.0848   0.0650  -0.0645   0.0406  -0.0493   0.00    0.0
2026/01/15 03:13:30.000   67.857353021   20.968458088   390.8691   6   8   0.0726   0.0842   0.0647  -0.0641   0.0404  -0.0489   0.00    0.0
2026/01/15 03:14:00.000   67.857353032   20.968458046   390.8687   6   9   0.0722   0.0836   0.0645  -0.0636   0.0401  -0.0486   0.00    0.0
2026/01/15 03:14:30.000   67.857353046   20.968458004   390.8681   6   9   0.0717   0.0831   0.0642  -0.0631   0.0399  -0.0483   0.00    0.0
2026/01/15 03:15:00.000   67.857353058   20.968457965   390.8676   6  10   0.0713   0.0825   0.0640  -0.0627   0.0396  -0.0480   0.00    0.0
2026/01/15 03:15:30.000   67.857353069   20.968457926   390.8671   6  10   0.0709   0.0820   0.0637  -0.0622   0.0394  -0.0476   0.00    0.0
2026/01/15 03:16:00.000   67.857353081   20.968457882   390.8666   6  10   0.0704   0.0814   0.0635  -0.0618   0.0392  -0.0473   0.00    0.0
2026/01/15 03:16:30.000   67.857353095   20.968457838   390.8659   6  10   0.0700   0.0809   0.0633  -0.0613   0.0389  -0.0470   0.00    0.0
2026/01/15 03:17:00.000   67.857353110   20.968457787   390.8652   6  10   0.0696   0.0804   0.0630  -0.0608   0.0387  -0.0467   0.00    0.0
2026/01/15 03:17:30.000   67.857353125   20.968457744   390.8643   6  10   0.0691   0.0798   0.0628  -0.0604   0.0384  -0.0464   0.00    0.0
2026/01/15 03:18:00.000   67.857353136   20.968457712   390.8639   6  10   0.0687   0.0793   0.0625  -0.0599   0.0382  -0.0461   0.00    0.0
2026/01/15 03:19:00.000   67.857353152   20.968457660   390.8631   6  10   0.0682   0.0787   0.0623  -0.0594   0.0379  -0.0458   0.00    0.0
2026/01/15 03:19:30.000   67.857353161   20.968457625   390.8626   6  10   0.0678   0.0782   0.0620  -0.0590   0.0377  -0.0454   0.00    0.0
2026/01/15 03:20:00.000   67.857353174   20.968457585   390.8620   6  10   0.0674   0.0776   0.0618  -0.0585   0.0374  -0.0451   0.00    0.0
2026/01/15 03:20:30.000   67.857353187   20.968457550   390.8613   6  10   0.0670   0.0771   0.0616  -0.0580   0.0372  -0.0448   0.00    0.0
2026/01/15 03:21:00.000   67.857353196   20.968457523   390.8608   6  10   0.0665   0.0766   0.0613  -0.0576   0.0369  -0.0445   0.00    0.0
2026/01/15 03:21:30.000   67.857353210   20.968457483   390.8600   6  10   0.0661   0.0761   0.0611  -0.0571   0.0367  -0.0442   0.00    0.0
2026/01/15 03:22:00.000   67.857353223   20.968457444   390.8592   6  10   0.0657   0.0756   0.0608  -0.0567   0.0365  -0.0439   0.00    0.0
2026/01/15 03:22:30.000   67.857353236   20.968457404   390.8583   6  10   0.0653   0.0751   0.0606  -0.0562   0.0362  -0.0436   0.00    0.0
2026/01/15 03:23:00.000   67.857353247   20.968457369   390.8577   6  10   0.0649   0.0746   0.0604  -0.0558   0.0360  -0.0433   0.00    0.0
2026/01/15 03:23:30.000   67.857353261   20.968457328   390.8568   6  10   0.0644   0.0741   0.0601  -0.0554   0.0357  -0.0430   0.00    0.0
2026/01/15 03:24:00.000   67.857353277   20.968457278   390.8558   6  10   0.0640   0.0736   0.0599  -0.0549   0.0355  -0.0427   0.00    0.0
2026/01/15 03:25:00.000   67.857353288   20.968457247   390.8550   6   9   0.0636   0.0730   0.0596  -0.0545   0.0353  -0.0424   0.00    0.0
2026/01/15 03:26:00.000   67.857353296   20.968457225   390.8544   6   9   0.0632   0.0725   0.0594  -0.0540   0.0350  -0.0421   0.00    0.0
2026/01/15 03:26:30.000   67.857353306   20.968457196   390.8538   6   9   0.0627   0.0720   0.0591  -0.0535   0.0347  -0.0418   0.00    0.0
2026/01/15 03:27:30.000   67.857353316   20.968457166   390.8530   6   9   0.0623   0.0715   0.0589  -0.0530   0.0345  -0.0415   0.00    0.0
2026/01/15 03:28:00.000   67.857353329   20.968457132   390.8521   6   9   0.0619   0.0710   0.0586  -0.0526   0.0342  -0.0412   0.00    0.0
2026/01/15 03:28:30.000   67.857353344   20.968457091   390.8511   6  10   0.0614   0.0705   0.0584  -0.0521   0.0340  -0.0409   0.00    0.0
2026/01/15 03:29:00.000   67.857353354   20.968457061   390.8503   6  10   0.0610   0.0700   0.0581  -0.0517   0.0337  -0.0406   0.00    0.0
2026/01/15 03:29:30.000   67.857353365   20.968457031   390.8495   6  10   0.0606   0.0695   0.0579  -0.0512   0.0335  -0.0403   0.00    0.0
2026/01/15 03:30:00.000   67.857353380   20.968456993   390.8484   6  10   0.0602   0.0690   0.0576  -0.0508   0.0332  -0.0400   0.00    0.0
2026/01/15 03:30:30.000   67.857353393   20.968456954   390.8474   6   9   0.0598   0.0685   0.0574  -0.0504   0.0330  -0.0397   0.00    0.0
2026/01/15 03:31:00.000   67.857353406   20.968456914   390.8464   6   9   0.0594   0.0680   0.0571  -0.0499   0.0328  -0.0394   0.00    0.0
2026/01/15 03:31:30.000   67.857353419   20.968456878   390.8453   6   8   0.0590   0.0676   0.0569  -0.0495   0.0325  -0.0391   0.00    0.0
2026/01/15 03:32:00.000   67.857353429   20.968456854   390.8444   6   8   0.0586   0.0671   0.0567  -0.0491   0.0323  -0.0388   0.00    0.0
2026/01/15 03:32:30.000   67.857353439   20.968456825   390.8435   6   8   0.0582   0.0667   0.0564  -0.0487   0.0321  -0.0386   0.00    0.0
2026/01/15 03:33:00.000   67.857353451   20.968456793   390.8425   6   8   0.0579   0.0662   0.0562  -0.0483   0.0318  -0.0383   0.00    0.0
2026/01/15 03:33:30.000   67.857353462   20.968456765   390.8415   6   8   0.0575   0.0658   0.0559  -0.0479   0.0316  -0.0380   0.00    0.0
2026/01/15 03:34:00.000   67.857353472   20.968456737   390.8405   6   8   0.0571   0.0654   0.0557  -0.0475   0.0314  -0.0378   0.00    0.0
2026/01/15 03:34:30.000   67.857353483   20.968456705   390.8395   6   8   0.0567   0.0649   0.0555  -0.0471   0.0312  -0.0375   0.00    0.0
2026/01/15 03:35:00.000   67.857353496   20.968456668   390.8385   6   8   0.0564   0.0645   0.0552  -0.0467   0.0310  -0.0372   0.00    0.0
2026/01/15 03:35:30.000   67.857353507   20.968456642   390.8375   6   8   0.0560   0.0641   0.0550  -0.0463   0.0307  -0.0370   0.00    0.0
2026/01/15 03:36:00.000   67.857353517   20.968456617   390.8365   6   8   0.0557   0.0637   0.0548  -0.0459   0.0305  -0.0367   0.00    0.0
2026/01/15 03:36:30.000   67.857353526   20.968456590   390.8356   6   8   0.0553   0.0633   0.0545  -0.0455   0.0303  -0.0364   0.00    0.0
2026/01/15 03:37:00.000   67.857353536   20.968456568   390.8347   6   8   0.0550   0.0628   0.0543  -0.0451   0.0301  -0.0362   0.00    0.0
2026/01/15 03:37:30.000   67.857353545   20.968456545   390.8337   6   8   0.0546   0.0624   0.0541  -0.0448   0.0299  -0.0359   0.00    0.0
2026/01/15 03:38:00.000   67.857353555   20.968456519   390.8326   6   8   0.0543   0.0620   0.0538  -0.0444   0.0297  -0.0357   0.00    0.0
2026/01/15 03:38:30.000   67.857353564   20.968456492   390.8316   6   8   0.0539   0.0616   0.0536  -0.0440   0.0295  -0.0354   0.00    0.0
2026/01/15 03:39:00.000   67.857353567   20.968456486   390.8309   6   7   0.0538   0.0615   0.0534  -0.0439   0.0294  -0.0353   0.00    0.0
2026/01/15 03:39:30.000   67.857353571   20.968456470   390.8300   6   7   0.0536   0.0614   0.0532  -0.0439   0.0294  -0.0352   0.00    0.0
2026/01/15 03:40:00.000   67.857353574   20.968456466   390.8293   6   7   0.0535   0.0612   0.0530  -0.0438   0.0293  -0.0351   0.00    0.0
2026/01/15 03:40:30.000   67.857353577   20.968456464   390.8284   6   7   0.0534   0.0611   0.0528  -0.0437   0.0293  -0.0349   0.00    0.0
2026/01/15 03:41:00.000   67.857353580   20.968456461   390.8275   6   7   0.0532   0.0609   0.0526  -0.0436   0.0292  -0.0348   0.00    0.0
2026/01/15 03:41:30.000   67.857353585   20.968456450   390.8264   6   7   0.0531   0.0608   0.0524  -0.0436   0.0292  -0.0347   0.00    0.0
2026/01/15 03:42:00.000   67.857353589   20.968456444   390.8255   6   7   0.0530   0.0607   0.0522  -0.0435   0.0291  -0.0345   0.00    0.0
2026/01/15 03:42:30.000   67.857353592   20.968456442   390.8246   6   7   0.0528   0.0605   0.0520  -0.0434   0.0291  -0.0344   0.00    0.0
2026/01/15 03:43:00.000   67.857353597   20.968456430   390.8236   6   7   0.0527   0.0604   0.0518  -0.0433   0.0290  -0.0343   0.00    0.0
2026/01/15 03:43:30.000   67.857353603   20.968456418   390.8225   6   7   0.0526   0.0602   0.0516  -0.0433   0.0290  -0.0342   0.00    0.0
2026/01/15 03:44:00.000   67.857353608   20.968456412   390.8214   6   8   0.0524   0.0601   0.0514  -0.0432   0.0289  -0.0340   0.00    0.0
2026/01/15 03:44:30.000   67.857353614   20.968456403   390.8200   6   8   0.0523   0.0599   0.0512  -0.0431   0.0288  -0.0339   0.00    0.0
2026/01/15 03:45:00.000   67.857353621   20.968456387   390.8185   6   8   0.0522   0.0598   0.0511  -0.0430   0.0288  -0.0338   0.00    0.0
2026/01/15 03:45:30.000   67.857353628   20.968456372   390.8170   6   8   0.0520   0.0597   0.0509  -0.0429   0.0287  -0.0336   0.00    0.0
2026/01/15 03:46:00.000   67.857353636   20.968456361   390.8155   6   8   0.0519   0.0595   0.0507  -0.0428   0.0287  -0.0335   0.00    0.0
2026/01/15 03:46:30.000   67.857353641   20.968456360   390.8141   6   8   0.0517   0.0594   0.0505  -0.0428   0.0286  -0.0334   0.00    0.0
2026/01/15 03:47:00.000   67.857353648   20.968456349   390.8127   6   8   0.0516   0.0593   0.0503  -0.0427   0.0285  -0.0333   0.00    0.0
2026/01/15 03:47:30.000   67.857353654   20.968456337   390.8112   6   8   0.0515   0.0591   0.0501  -0.0426   0.0285  -0.0331   0.00    0.0
2026/01/15 03:48:00.000   67.857353663   20.968456314   390.8095   6   8   0.0513   0.0590   0.0499  -0.0425   0.0284  -0.0330   0.00    0.0
2026/01/15 03:48:30.000   67.857353672   20.968456297   390.8077   6   8   0.0512   0.0588   0.0497  -0.0424   0.0283  -0.0329   0.00    0.0
2026/01/15 03:49:00.000   67.857353683   20.968456279   390.8057   6   8   0.0511   0.0587   0.0495  -0.0423   0.0283  -0.0328   0.00    0.0
2026/01/15 03:49:30.000   67.857353691   20.968456269   390.8037   6   8   0.0509   0.0586   0.0493  -0.0422   0.0282  -0.0326   0.00    0.0
2026/01/15 03:50:00.000   67.857353692   20.968456259   390.8037   6   7   0.0508   0.0584   0.0493  -0.0422   0.0281  -0.0326   0.00    0.0
2026/01/15 03:50:30.000   67.857353694   20.968456248   390.8036   6   7   0.0507   0.0583   0.0492  -0.0421   0.0281  -0.0326   0.00    0.0
2026/01/15 03:51:00.000   67.857353697   20.968456232   390.8035   6   7   0.0506   0.0582   0.0491  -0.0420   0.0280  -0.0325   0.00    0.0
2026/01/15 03:51:30.000   67.857353698   20.968456218   390.8034   6   7   0.0505   0.0580   0.0491  -0.0419   0.0280  -0.0325   0.00    0.0
2026/01/15 03:52:00.000   67.857353699   20.968456207   390.8033   6   7   0.0504   0.0579   0.0490  -0.0418   0.0279  -0.0325   0.00    0.0
2026/01/15 03:52:30.000   67.857353699   20.968456197   390.8032   6   7   0.0502   0.0577   0.0490  -0.0417   0.0279  -0.0324   0.00    0.0
2026/01/15 03:53:00.000   67.857353700   20.968456186   390.8030   6   7   0.0501   0.0576   0.0489  -0.0416   0.0278  -0.0324   0.00    0.0
2026/01/15 03:54:00.000   67.857353703   20.968456171   390.8028   6   7   0.0500   0.0575   0.0488  -0.0415   0.0278  -0.0323   0.00    0.0
2026/01/15 03:55:00.000   67.857353705   20.968456157   390.8027   6   7   0.0499   0.0573   0.0488  -0.0414   0.0277  -0.0323   0.00    0.0
2026/01/15 03:55:30.000   67.857353707   20.968456149   390.8026   6   7   0.0498   0.0572   0.0487  -0.0414   0.0277  -0.0322   0.00    0.0
2026/01/15 03:56:00.000   67.857353710   20.968456134   390.8025   6   7   0.0496   0.0570   0.0486  -0.0413   0.0276  -0.0322   0.00    0.0
2026/01/15 03:56:30.000   67.857353712   20.968456120   390.8025   6   7   0.0495   0.0569   0.0485  -0.0412   0.0276  -0.0321   0.00    0.0
2026/01/15 03:57:00.000   67.857353712   20.968456115   390.8025   6   7   0.0494   0.0568   0.0485  -0.0411   0.0275  -0.0321   0.00    0.0
2026/01/15 03:57:30.000   67.857353715   20.968456100   390.8023   6   7   0.0493   0.0566   0.0484  -0.0410   0.0274  -0.0321   0.00    0.0
2026/01/15 03:58:00.000   67.857353715   20.968456090   390.8023   6   7   0.0491   0.0565   0.0483  -0.0409   0.0274  -0.0320   0.00    0.0
2026/01/15 03:58:30.000   67.857353716   20.968456078   390.8022   6   7   0.0490   0.0564   0.0482  -0.0408   0.0273  -0.0320   0.00    0.0
2026/01/15 03:59:00.000   67.857353718   20.968456063   390.8020   6   7   0.0489   0.0562   0.0482  -0.0407   0.0273  -0.0319   0.00    0.0
2026/01/15 03:59:30.000   67.857353719   20.968456050   390.8019   6   7   0.0488   0.0561   0.0481  -0.0406   0.0272  -0.0319   0.00    0.0
2026/01/15 04:00:00.000   67.857353721   20.968456033   390.8016   6   7   0.0486   0.0559   0.0480  -0.0405   0.0271  -0.0318   0.00    0.0
2026/01/15 04:00:30.000   67.857353722   20.968456018   390.8015   6   7   0.0485   0.0558   0.0479  -0.0404   0.0271  -0.0318   0.00    0.0
2026/01/15 04:01:00.000   67.857353724   20.968456003   390.8013   6   7   0.0484   0.0557   0.0478  -0.0403   0.0270  -0.0317   0.00    0.0
2026/01/15 04:01:30.000   67.857353725   20.968455986   390.8010   6   7   0.0483   0.0555   0.0478  -0.0402   0.0270  -0.0316   0.00    0.0
2026/01/15 04:02:00.000   67.857353726   20.968455971   390.8008   6   7   0.0481   0.0554   0.0477  -0.0401   0.0269  -0.0316   0.00    0.0
2026/01/15 04:02:30.000   67.857353727   20.968455955   390.8006   6   7   0.0480   0.0553   0.0476  -0.0400   0.0268  -0.0315   0.00    0.0
2026/01/15 04:03:00.000   67.857353729   20.968455936   390.8003   6   7   0.0479   0.0551   0.0475  -0.0399   0.0268  -0.0315   0.00    0.0
2026/01/15 04:03:30.000   67.857353733   20.968455917   390.8000   6   7   0.0477   0.0550   0.0474  -0.0398   0.0267  -0.0314   0.00    0.0
2026/01/15 04:04:00.000   67.857353734   20.968455901   390.7998   6   7   0.0476   0.0549   0.0473  -0.0397   0.0266  -0.0314   0.00    0.0
2026/01/15 04:05:00.000   67.857353734   20.968455882   390.7994   6   7   0.0474   0.0547   0.0472  -0.0396   0.0266  -0.0313   0.00    0.0
2026/01/15 04:05:30.000   67.857353737   20.968455857   390.7989   6   7   0.0473   0.0546   0.0471  -0.0395   0.0265  -0.0313   0.00    0.0
2026/01/15 04:06:00.000   67.857353738   20.968455836   390.7985   6   7   0.0472   0.0544   0.0470  -0.0393   0.0264  -0.0312   0.00    0.0
2026/01/15 04:06:30.000   67.857353742   20.968455807   390.7980   6   7   0.0470   0.0543   0.0469  -0.0392   0.0263  -0.0311   0.00    0.0
2026/01/15 04:07:00.000   67.857353744   20.968455782   390.7975   6   7   0.0469   0.0542   0.0469  -0.0391   0.0263  -0.0311   0.00    0.0
2026/01/15 04:07:30.000   67.857353747   20.968455753   390.7970   6   7   0.0468   0.0540   0.0468  -0.0390   0.0262  -0.0310   0.00    0.0
2026/01/15 04:08:00.000   67.857353749   20.968455732   390.7966   6   7   0.0466   0.0539   0.0467  -0.0389   0.0261  -0.0309   0.00    0.0
2026/01/15 04:08:30.000   67.857353751   20.968455709   390.7961   6   7   0.0465   0.0538   0.0466  -0.0388   0.0261  -0.0309   0.00    0.0
2026/01/15 04:09:00.000   67.857353755   20.968455686   390.7958   6   7   0.0464   0.0536   0.0465  -0.0387   0.0260  -0.0308   0.00    0.0
2026/01/15 04:10:00.000   67.857353758   20.968455655   390.7951   6   7   0.0462   0.0535   0.0464  -0.0386   0.0259  -0.0307   0.00    0.0
2026/01/15 04:10:30.000   67.857353760   20.968455621   390.7942   6   7   0.0461   0.0533   0.0463  -0.0384   0.0258  -0.0307   0.00    0.0
2026/01/15 04:11:00.000   67.857353763   20.968455588   390.7934   6   7   0.0459   0.0532   0.0462  -0.0383   0.0257  -0.0306   0.00    0.0
