% program   : RTKPOST-EX 2.5.0
% inp file  : C:\PPP_PROJECT\New_Data\obs\RNXDATA\KIRU00SWE_R_20260150000_01D_30S_MO.rnx
% inp file  : C:\PPP_PROJECT\New_Data\nav\BRDC00IGS_R_20260150000_01D_MN.rnx
% obs start : 2026/01/15 00:00:00.0 GPST (week2401 345600.0s)
% obs end   : 2026/01/15 23:59:30.0 GPST (week2401 431970.0s)
% pos mode  : PPP Static
% freqs     : L1+L2/E5b
% solution  : Forward
% elev mask : 15.0 deg
% dynamics  : on
% tidecorr  :
% ionos opt : Broadcast
% tropo opt : Saastamoinen
% ephemeris : Broadcast
% navi sys  : GPS GLONASS Galileo QZSS BDS NavIC SBAS
% antenna1  :                       ( 0.0000  0.0000  0.0000)
%
% (lat/lon/height=WGS84/ellipsoidal,Q=1:fix,2:float,3:sbas,4:dgps,5:single,6:ppp,ns=# of satellites)
%  GPST                  latitude(deg) longitude(deg)  height(m)   Q  ns   sdn(m)   sde(m)   sdu(m)  sdne(m)  sdeu(m)  sdun(m) age(s)  ratio
2026/01/15 00:00:00.000   67.857339777   20.968443589   388.2687   6   8   1.2245   0.9731   2.9021  -0.4981  -0.4922   1.2342   0.00    0.0
2026/01/15 00:00:30.000   67.857340123   20.968445189   388.0708   6   9   0.8540   0.6725   2.0532  -0.3203  -0.3593   0.8774   0.00    0.0
2026/01/15 00:01:00.000   67.857339236   20.968446658   388.0839   6  12   0.6946   0.5454   1.6762  -0.2539  -0.2976   0.7176   0.00    0.0
2026/01/15 00:01:30.000   67.857338983   20.968448254   388.1006   6  12   0.6006   0.4709   1.4512  -0.2171  -0.2604   0.6220   0.00    0.0
2026/01/15 00:02:00.000   67.857339390   20.968448538   388.0912   6  12   0.5369   0.4205   1.2974  -0.1930  -0.2350   0.5566   0.00    0.0
2026/01/15 00:02:30.000   67.857339481   20.968449039   388.0674   6  13   0.4933   0.3822   1.1878  -0.1749  -0.2111   0.5144   0.00    0.0
2026/01/15 00:03:00.000   67.857339411   20.968449267   388.0332   6  13   0.4590   0.3527   1.1019  -0.1612  -0.1936   0.4806   0.00    0.0
2026/01/15 00:03:30.000   67.857339510   20.968449288   387.9802   6  13   0.4310   0.3292   1.0322  -0.1504  -0.1801   0.4525   0.00    0.0
2026/01/15 00:04:00.000   67.857339986   20.968449495   388.0914   6  13   0.4046   0.3098   0.9662  -0.1430  -0.1722   0.4217   0.00    0.0
2026/01/15 00:04:30.000   67.857340336   20.968449631   388.1676   6  13   0.3827   0.2939   0.9139  -0.1361  -0.1686   0.3956   0.00    0.0
2026/01/15 00:05:00.000   67.857340281   20.968449895   388.1645   6  13   0.3640   0.2802   0.8693  -0.1302  -0.1649   0.3738   0.00    0.0
2026/01/15 00:05:30.000   67.857340420   20.968449983   388.1679   6  13   0.3478   0.2683   0.8306  -0.1251  -0.1613   0.3551   0.00    0.0
2026/01/15 00:06:00.000   67.857340464   20.968450127   388.2013   6  13   0.3336   0.2578   0.7967  -0.1205  -0.1578   0.3390   0.00    0.0
2026/01/15 00:06:30.000   67.857340424   20.968450260   388.2017   6  13   0.3211   0.2485   0.7666  -0.1165  -0.1545   0.3248   0.00    0.0
2026/01/15 00:07:00.000   67.857340577   20.968450224   388.2283   6  13   0.3098   0.2401   0.7397  -0.1129  -0.1513   0.3122   0.00    0.0
2026/01/15 00:07:30.000   67.857340700   20.968450188   388.2381   6  13   0.2997   0.2325   0.7154  -0.1096  -0.1483   0.3010   0.00    0.0
2026/01/15 00:08:00.000   67.857340726   20.968450363   388.2617   6  13   0.2905   0.2257   0.6933  -0.1067  -0.1455   0.2909   0.00    0.0
2026/01/15 00:08:30.000   67.857340793   20.968450404   388.2775   6  13   0.2821   0.2194   0.6731  -0.1040  -0.1429   0.2817   0.00    0.0
2026/01/15 00:09:00.000   67.857340829   20.968450474   388.2761   6  13   0.2745   0.2136   0.6546  -0.1015  -0.1404   0.2733   0.00    0.0
2026/01/15 00:09:30.000   67.857340763   20.968450670   388.3005   6  13   0.2677   0.2082   0.6377  -0.0995  -0.1378   0.2651   0.00    0.0
2026/01/15 00:10:00.000   67.857340710   20.968450892   388.3326   6  13   0.2615   0.2033   0.6221  -0.0977  -0.1353   0.2576   0.00    0.0
2026/01/15 00:10:30.000   67.857340639   20.968450929   388.3495   6  13   0.2556   0.1987   0.6076  -0.0959  -0.1330   0.2508   0.00    0.0
2026/01/15 00:11:00.000   67.857340497   20.968451063   388.3425   6  13   0.2501   0.1944   0.5934  -0.0945  -0.1301   0.2448   0.00    0.0
2026/01/15 00:11:30.000   67.857340375   20.968451233   388.3363   6  13   0.2449   0.1903   0.5801  -0.0932  -0.1274   0.2392   0.00    0.0
2026/01/15 00:12:00.000   67.857340323   20.968451534   388.3305   6  13   0.2401   0.1864   0.5676  -0.0919  -0.1249   0.2339   0.00    0.0
2026/01/15 00:12:30.000   67.857340241   20.968451596   388.3312   6  13   0.2355   0.1828   0.5559  -0.0907  -0.1226   0.2290   0.00    0.0
2026/01/15 00:13:00.000   67.857340186   20.968451661   388.3297   6  13   0.2312   0.1794   0.5448  -0.0895  -0.1205   0.2244   0.00    0.0
2026/01/15 00:13:30.000   67.857340093   20.968451781   388.3154   6  13   0.2271   0.1762   0.5344  -0.0884  -0.1185   0.2200   0.00    0.0
2026/01/15 00:14:00.000   67.857339994   20.968452017   388.2994   6  13   0.2232   0.1731   0.5245  -0.0873  -0.1166   0.2159   0.00    0.0
2026/01/15 00:14:30.000   67.857339950   20.968452091   388.2977   6  13   0.2195   0.1703   0.5152  -0.0863  -0.1148   0.2120   0.00    0.0
2026/01/15 00:15:00.000   67.857339854   20.968452216   388.2826   6  13   0.2159   0.1674   0.5062  -0.0851  -0.1133   0.2085   0.00    0.0
2026/01/15 00:15:30.000   67.857339804   20.968452303   388.2799   6  13   0.2125   0.1647   0.4977  -0.0840  -0.1119   0.2051   0.00    0.0
2026/01/15 00:16:00.000   67.857339771   20.968452419   388.2682   6  14   0.2092   0.1622   0.4896  -0.0829  -0.1106   0.2019   0.00    0.0
2026/01/15 00:16:30.000   67.857339704   20.968452517   388.2465   6  14   0.2061   0.1597   0.4820  -0.0819  -0.1092   0.1987   0.00    0.0
2026/01/15 00:17:00.000   67.857339637   20.968452602   388.2276   6  14   0.2032   0.1574   0.4748  -0.0809  -0.1080   0.1956   0.00    0.0
2026/01/15 00:17:30.000   67.857339571   20.968452716   388.2100   6  14   0.2003   0.1552   0.4679  -0.0800  -0.1067   0.1927   0.00    0.0
2026/01/15 00:18:00.000   67.857339517   20.968452850   388.2024   6  14   0.1976   0.1531   0.4612  -0.0791  -0.1056   0.1899   0.00    0.0
2026/01/15 00:18:30.000   67.857339494   20.968453029   388.1957   6  14   0.1950   0.1510   0.4548  -0.0783  -0.1045   0.1872   0.00    0.0
2026/01/15 00:19:00.000   67.857339424   20.968453124   388.1712   6  14   0.1925   0.1490   0.4487  -0.0775  -0.1034   0.1847   0.00    0.0
2026/01/15 00:19:30.000   67.857339372   20.968453228   388.1574   6  14   0.1901   0.1472   0.4428  -0.0767  -0.1023   0.1822   0.00    0.0
2026/01/15 00:20:00.000   67.857339336   20.968453288   388.1369   6  14   0.1877   0.1454   0.4372  -0.0759  -0.1013   0.1798   0.00    0.0
2026/01/15 00:20:30.000   67.857339350   20.968453468   388.1261   6  14   0.1855   0.1436   0.4317  -0.0752  -0.1004   0.1776   0.00    0.0
2026/01/15 00:21:00.000   67.857339341   20.968453649   388.1163   6  14   0.1833   0.1419   0.4264  -0.0745  -0.0994   0.1754   0.00    0.0
2026/01/15 00:21:30.000   67.857339292   20.968453905   388.0833   6  14   0.1812   0.1404   0.4217  -0.0739  -0.0989   0.1734   0.00    0.0
2026/01/15 00:22:00.000   67.857339205   20.968454091   388.0418   6  14   0.1792   0.1389   0.4172  -0.0733  -0.0984   0.1715   0.00    0.0
2026/01/15 00:22:30.000   67.857339141   20.968454339   387.9990   6  13   0.1773   0.1374   0.4128  -0.0727  -0.0979   0.1697   0.00    0.0
2026/01/15 00:23:00.000   67.857339088   20.968454604   387.9570   6  14   0.1754   0.1360   0.4085  -0.0721  -0.0974   0.1679   0.00    0.0
2026/01/15 00:23:30.000   67.857339015   20.968454846   387.9204   6  15   0.1736   0.1346   0.4044  -0.0716  -0.0969   0.1661   0.00    0.0
2026/01/15 00:24:00.000   67.857338960   20.968455081   387.8901   6  14   0.1719   0.1333   0.4003  -0.0711  -0.0963   0.1645   0.00    0.0
2026/01/15 00:24:30.000   67.857338920   20.968455252   387.8535   6  14   0.1702   0.1320   0.3964  -0.0705  -0.0958   0.1628   0.00    0.0
2026/01/15 00:25:00.000   67.857338866   20.968455502   387.8209   6  14   0.1685   0.1308   0.3926  -0.0700  -0.0954   0.1613   0.00    0.0
2026/01/15 00:25:30.000   67.857338871   20.968455763   387.8025   6  14   0.1670   0.1296   0.3893  -0.0695  -0.0946   0.1600   0.00    0.0
2026/01/15 00:26:00.000   67.857338887   20.968455989   387.7880   6  14   0.1654   0.1284   0.3860  -0.0689  -0.0939   0.1587   0.00    0.0
2026/01/15 00:26:30.000   67.857338885   20.968456196   387.7681   6  14   0.1640   0.1273   0.3828  -0.0684  -0.0933   0.1574   0.00    0.0
2026/01/15 00:27:00.000   67.857338877   20.968456357   387.7478   6  14   0.1626   0.1262   0.3796  -0.0679  -0.0926   0.1562   0.00    0.0
2026/01/15 00:27:30.000   67.857338891   20.968456582   387.7254   6  14   0.1612   0.1252   0.3766  -0.0674  -0.0920   0.1550   0.00    0.0
2026/01/15 00:28:00.000   67.857338876   20.968456807   387.7056   6  14   0.1598   0.1241   0.3736  -0.0669  -0.0913   0.1538   0.00    0.0
2026/01/15 00:28:30.000   67.857338869   20.968456996   387.6843   6  14   0.1585   0.1231   0.3706  -0.0664  -0.0907   0.1527   0.00    0.0
2026/01/15 00:29:00.000   67.857338857   20.968457220   387.6627   6  14   0.1572   0.1221   0.3678  -0.0659  -0.0901   0.1516   0.00    0.0
2026/01/15 00:29:30.000   67.857338838   20.968457424   387.6384   6  14   0.1559   0.1212   0.3649  -0.0655  -0.0896   0.1505   0.00    0.0
2026/01/15 00:30:00.000   67.857338838   20.968457591   387.6180   6  14   0.1547   0.1202   0.3620  -0.0651  -0.0891   0.1493   0.00    0.0
2026/01/15 00:30:30.000   67.857338812   20.968457833   387.5916   6  13   0.1535   0.1193   0.3592  -0.0647  -0.0886   0.1482   0.00    0.0
2026/01/15 00:31:00.000   67.857338805   20.968458063   387.5654   6  13   0.1523   0.1184   0.3564  -0.0643  -0.0882   0.1471   0.00    0.0
2026/01/15 00:31:30.000   67.857338755   20.968458324   387.5392   6  13   0.1511   0.1175   0.3537  -0.0639  -0.0877   0.1460   0.00    0.0
2026/01/15 00:32:00.000   67.857338738   20.968458543   387.5161   6  13   0.1500   0.1167   0.3511  -0.0635  -0.0873   0.1449   0.00    0.0
2026/01/15 00:32:30.000   67.857338725   20.968458776   387.4962   6  13   0.1489   0.1159   0.3485  -0.0632  -0.0868   0.1439   0.00    0.0
2026/01/15 00:33:00.000   67.857338719   20.968458992   387.4757   6  13   0.1478   0.1150   0.3460  -0.0628  -0.0864   0.1429   0.00    0.0
2026/01/15 00:33:30.000   67.857338710   20.968459198   387.4506   6  13   0.1468   0.1142   0.3435  -0.0625  -0.0860   0.1419   0.00    0.0
2026/01/15 00:34:00.000   67.857338685   20.968459355   387.4286   6  13   0.1458   0.1135   0.3411  -0.0621  -0.0856   0.1409   0.00    0.0
2026/01/15 00:34:30.000   67.857338666   20.968459565   387.4026   6  13   0.1447   0.1127   0.3386  -0.0618  -0.0852   0.1400   0.00    0.0
2026/01/15 00:35:00.000   67.857338655   20.968459736   387.3765   6  13   0.1437   0.1119   0.3363  -0.0615  -0.0848   0.1391   0.00    0.0
2026/01/15 00:35:30.000   67.857338648   20.968459942   387.3515   6  13   0.1428   0.1112   0.3339  -0.0611  -0.0844   0.1383   0.00    0.0
2026/01/15 00:36:00.000   67.857338646   20.968460161   387.3241   6  13   0.1418   0.1105   0.3316  -0.0608  -0.0840   0.1374   0.00    0.0
2026/01/15 00:36:30.000   67.857338640   20.968460401   387.2946   6  13   0.1409   0.1098   0.3294  -0.0605  -0.0836   0.1366   0.00    0.0
2026/01/15 00:37:00.000   67.857338612   20.968460628   387.2666   6  14   0.1399   0.1091   0.3272  -0.0602  -0.0833   0.1357   0.00    0.0
2026/01/15 00:37:30.000   67.857338573   20.968460849   387.2396   6  14   0.1390   0.1084   0.3250  -0.0599  -0.0829   0.1349   0.00    0.0
2026/01/15 00:38:00.000   67.857338535   20.968461062   387.2074   6  14   0.1382   0.1077   0.3229  -0.0596  -0.0825   0.1341   0.00    0.0
2026/01/15 00:38:30.000   67.857338532   20.968461271   387.1798   6  14   0.1373   0.1071   0.3208  -0.0593  -0.0822   0.1333   0.00    0.0
2026/01/15 00:39:00.000   67.857338530   20.968461442   387.1530   6  14   0.1364   0.1064   0.3188  -0.0590  -0.0818   0.1326   0.00    0.0
2026/01/15 00:39:30.000   67.857338515   20.968461618   387.1240   6  14   0.1356   0.1058   0.3168  -0.0587  -0.0815   0.1318   0.00    0.0
2026/01/15 00:40:00.000   67.857338479   20.968461805   387.0975   6  16   0.1348   0.1052   0.3148  -0.0584  -0.0811   0.1310   0.00    0.0
2026/01/15 00:40:30.000   67.857338444   20.968462009   387.0736   6  16   0.1340   0.1046   0.3128  -0.0582  -0.0808   0.1303   0.00    0.0
2026/01/15 00:41:00.000   67.857338399   20.968462181   387.0480   6  16   0.1332   0.1040   0.3109  -0.0579  -0.0804   0.1296   0.00    0.0
2026/01/15 00:41:30.000   67.857338386   20.968462353   387.0265   6  16   0.1324   0.1034   0.3090  -0.0576  -0.0801   0.1289   0.00    0.0
2026/01/15 00:42:00.000   67.857338356   20.968462513   387.0028   6  16   0.1317   0.1028   0.3072  -0.0574  -0.0797   0.1282   0.00    0.0
2026/01/15 00:42:30.000   67.857338342   20.968462652   386.9821   6  16   0.1309   0.1023   0.3053  -0.0571  -0.0794   0.1275   0.00    0.0
2026/01/15 00:43:00.000   67.857338342   20.968462766   386.9606   6  17   0.1302   0.1017   0.3035  -0.0569  -0.0790   0.1268   0.00    0.0
2026/01/15 00:43:30.000   67.857338338   20.968462934   386.9386   6  16   0.1295   0.1012   0.3018  -0.0566  -0.0787   0.1261   0.00    0.0
2026/01/15 00:44:00.000   67.857338303   20.968463087   386.9113   6  17   0.1288   0.1006   0.3000  -0.0564  -0.0784   0.1254   0.00    0.0
2026/01/15 00:44:30.000   67.857338301   20.968463219   386.8826   6  16   0.1280   0.1001   0.2983  -0.0561  -0.0781   0.1248   0.00    0.0
2026/01/15 00:45:00.000   67.857338304   20.968463314   386.8560   6  16   0.1273   0.0995   0.2965  -0.0558  -0.0778   0.1242   0.00    0.0
2026/01/15 00:45:30.000   67.857338314   20.968463414   386.8254   6  15   0.1266   0.0990   0.2949  -0.0555  -0.0775   0.1237   0.00    0.0
2026/01/15 00:46:00.000   67.857338320   20.968463548   386.7981   6  16   0.1259   0.0985   0.2932  -0.0552  -0.0772   0.1231   0.00    0.0
2026/01/15 00:46:30.000   67.857338407   20.968463574   386.7903   6  15   0.1254   0.0980   0.2919  -0.0550  -0.0771   0.1228   0.00    0.0
2026/01/15 00:47:00.000   67.857338510   20.968463601   386.7836   6  14   0.1249   0.0975   0.2906  -0.0548  -0.0770   0.1226   0.00    0.0
2026/01/15 00:47:30.000   67.857338616   20.968463604   386.7754   6  14   0.1243   0.0970   0.2894  -0.0547  -0.0769   0.1223   0.00    0.0
2026/01/15 00:48:00.000   67.857338728   20.968463608   386.7695   6  14   0.1237   0.0965   0.2879  -0.0545  -0.0768   0.1219   0.00    0.0
2026/01/15 00:48:30.000   67.857338843   20.968463591   386.7647   6  14   0.1231   0.0961   0.2864  -0.0543  -0.0767   0.1214   0.00    0.0
2026/01/15 00:49:00.000   67.857338950   20.968463576   386.7634   6  14   0.1226   0.0956   0.2850  -0.0542  -0.0766   0.1209   0.00    0.0
2026/01/15 00:49:30.000   67.857339058   20.968463579   386.7606   6  13   0.1220   0.0952   0.2837  -0.0541  -0.0764   0.1204   0.00    0.0
2026/01/15 00:50:00.000   67.857339170   20.968463546   386.7582   6  14   0.1215   0.0947   0.2823  -0.0539  -0.0763   0.1199   0.00    0.0
2026/01/15 00:50:30.000   67.857339277   20.968463505   386.7557   6  14   0.1210   0.0943   0.2809  -0.0538  -0.0761   0.1194   0.00    0.0
2026/01/15 00:51:00.000   67.857339382   20.968463492   386.7548   6  16   0.1204   0.0939   0.2796  -0.0536  -0.0760   0.1189   0.00    0.0
2026/01/15 00:51:30.000   67.857339476   20.968463465   386.7490   6  13   0.1200   0.0934   0.2784  -0.0535  -0.0758   0.1186   0.00    0.0
2026/01/15 00:52:00.000   67.857339570   20.968463414   386.7514   6  15   0.1195   0.0930   0.2771  -0.0533  -0.0755   0.1181   0.00    0.0
2026/01/15 00:52:30.000   67.857339681   20.968463366   386.7539   6  15   0.1190   0.0926   0.2758  -0.0531  -0.0752   0.1177   0.00    0.0
2026/01/15 00:53:00.000   67.857339791   20.968463312   386.7561   6  14   0.1185   0.0922   0.2746  -0.0529  -0.0750   0.1172   0.00    0.0
2026/01/15 00:53:30.000   67.857339907   20.968463269   386.7592   6  15   0.1180   0.0917   0.2733  -0.0527  -0.0747   0.1167   0.00    0.0
2026/01/15 00:54:00.000   67.857340024   20.968463225   386.7628   6  15   0.1175   0.0913   0.2721  -0.0525  -0.0744   0.1163   0.00    0.0
2026/01/15 00:54:30.000   67.857340137   20.968463202   386.7650   6  15   0.1170   0.0909   0.2708  -0.0523  -0.0741   0.1158   0.00    0.0
2026/01/15 00:55:00.000   67.857340237   20.968463201   386.7656   6  16   0.1165   0.0905   0.2696  -0.0521  -0.0738   0.1153   0.00    0.0
2026/01/15 00:55:30.000   67.857340338   20.968463183   386.7673   6  16   0.1160   0.0901   0.2684  -0.0519  -0.0735   0.1149   0.00    0.0
2026/01/15 00:56:00.000   67.857340441   20.968463204   386.7701   6  15   0.1156   0.0897   0.2672  -0.0517  -0.0733   0.1144   0.00    0.0
2026/01/15 00:56:30.000   67.857340535   20.968463243   386.7704   6  15   0.1151   0.0894   0.2660  -0.0515  -0.0730   0.1139   0.00    0.0
2026/01/15 00:57:00.000   67.857340663   20.968463220   386.7697   6  14   0.1147   0.0890   0.2648  -0.0513  -0.0727   0.1135   0.00    0.0
2026/01/15 00:57:30.000   67.857340795   20.968463210   386.7740   6  14   0.1143   0.0886   0.2638  -0.0511  -0.0723   0.1130   0.00    0.0
2026/01/15 00:58:00.000   67.857340925   20.968463210   386.7764   6  14   0.1138   0.0883   0.2627  -0.0508  -0.0720   0.1126   0.00    0.0
2026/01/15 00:58:30.000   67.857341051   20.968463231   386.7785   6  14   0.1134   0.0879   0.2617  -0.0506  -0.0716   0.1121   0.00    0.0
2026/01/15 00:59:00.000   67.857341169   20.968463246   386.7806   6  14   0.1130   0.0875   0.2607  -0.0504  -0.0712   0.1117   0.00    0.0
2026/01/15 00:59:30.000   67.857341268   20.968463275   386.7804   6  14   0.1126   0.0872   0.2596  -0.0502  -0.0709   0.1113   0.00    0.0
2026/01/15 01:00:00.000   67.857341360   20.968463329   386.7740   6  15   0.1122   0.0868   0.2586  -0.0500  -0.0705   0.1108   0.00    0.0
2026/01/15 01:00:30.000   67.857341437   20.968463368   386.7687   6  14   0.1118   0.0865   0.2576  -0.0498  -0.0701   0.1104   0.00    0.0
2026/01/15 01:01:00.000   67.857341508   20.968463386   386.7651   6  12   0.1114   0.0861   0.2566  -0.0496  -0.0697   0.1099   0.00    0.0
2026/01/15 01:01:30.000   67.857341587   20.968463419   386.7600   6  12   0.1110   0.0858   0.2556  -0.0493  -0.0692   0.1094   0.00    0.0
2026/01/15 01:02:00.000   67.857341669   20.968463460   386.7574   6  12   0.1106   0.0854   0.2546  -0.0491  -0.0688   0.1090   0.00    0.0
2026/01/15 01:02:30.000   67.857341749   20.968463486   386.7550   6  11   0.1102   0.0851   0.2537  -0.0489  -0.0684   0.1085   0.00    0.0
2026/01/15 01:03:00.000   67.857341831   20.968463456   386.7635   6  11   0.1099   0.0847   0.2526  -0.0487  -0.0679   0.1080   0.00    0.0
2026/01/15 01:03:30.000   67.857341934   20.968463392   386.7772   6  12   0.1095   0.0843   0.2516  -0.0484  -0.0674   0.1075   0.00    0.0
2026/01/15 01:04:00.000   67.857342027   20.968463360   386.7857   6  11   0.1091   0.0840   0.2505  -0.0482  -0.0669   0.1070   0.00    0.0
2026/01/15 01:04:30.000   67.857342114   20.968463301   386.7951   6  10   0.1087   0.0836   0.2495  -0.0480  -0.0664   0.1066   0.00    0.0
2026/01/15 01:05:00.000   67.857342201   20.968463278   386.8025   6  12   0.1083   0.0833   0.2485  -0.0477  -0.0659   0.1061   0.00    0.0
2026/01/15 01:05:30.000   67.857342266   20.968463290   386.8120   6  10   0.1080   0.0830   0.2476  -0.0476  -0.0654   0.1057   0.00    0.0
2026/01/15 01:06:00.000   67.857342325   20.968463319   386.8192   6  11   0.1077   0.0826   0.2467  -0.0474  -0.0650   0.1053   0.00    0.0
2026/01/15 01:06:30.000   67.857342388   20.968463328   386.8274   6  11   0.1074   0.0823   0.2458  -0.0472  -0.0646   0.1049   0.00    0.0
2026/01/15 01:07:00.000   67.857342458   20.968463327   386.8360   6  11   0.1070   0.0820   0.2450  -0.0471  -0.0641   0.1046   0.00    0.0
2026/01/15 01:07:30.000   67.857342527   20.968463316   386.8454   6  11   0.1067   0.0817   0.2441  -0.0469  -0.0637   0.1042   0.00    0.0
2026/01/15 01:08:00.000   67.857342605   20.968463285   386.8549   6  12   0.1064   0.0814   0.2432  -0.0468  -0.0633   0.1038   0.00    0.0
2026/01/15 01:08:30.000   67.857342688   20.968463266   386.8665   6  14   0.1061   0.0811   0.2423  -0.0466  -0.0629   0.1034   0.00    0.0
2026/01/15 01:09:00.000   67.857342758   20.968463258   386.8735   6  12   0.1058   0.0808   0.2415  -0.0465  -0.0625   0.1030   0.00    0.0
2026/01/15 01:09:30.000   67.857342832   20.968463242   386.8820   6  12   0.1055   0.0805   0.2406  -0.0463  -0.0621   0.1027   0.00    0.0
2026/01/15 01:10:00.000   67.857342905   20.968463224   386.8918   6  12   0.1052   0.0802   0.2398  -0.0462  -0.0617   0.1023   0.00    0.0
2026/01/15 01:10:30.000   67.857342977   20.968463183   386.9021   6  13   0.1049   0.0799   0.2390  -0.0460  -0.0613   0.1020   0.00    0.0
2026/01/15 01:11:00.000   67.857343043   20.968463148   386.9119   6  13   0.1046   0.0796   0.2382  -0.0459  -0.0609   0.1016   0.00    0.0
2026/01/15 01:11:30.000   67.857343118   20.968463120   386.9246   6  14   0.1043   0.0794   0.2373  -0.0458  -0.0605   0.1013   0.00    0.0
2026/01/15 01:12:00.000   67.857343202   20.968463096   386.9358   6  14   0.1040   0.0791   0.2365  -0.0456  -0.0602   0.1009   0.00    0.0
2026/01/15 01:12:30.000   67.857343274   20.968463063   386.9464   6  14   0.1037   0.0788   0.2357  -0.0455  -0.0598   0.1006   0.00    0.0
2026/01/15 01:13:00.000   67.857343351   20.968463041   386.9578   6  16   0.1034   0.0785   0.2349  -0.0453  -0.0594   0.1002   0.00    0.0
2026/01/15 01:13:30.000   67.857343424   20.968463019   386.9711   6  15   0.1031   0.0783   0.2341  -0.0452  -0.0591   0.0998   0.00    0.0
2026/01/15 01:14:00.000   67.857343500   20.968462982   386.9846   6  15   0.1029   0.0780   0.2333  -0.0451  -0.0587   0.0995   0.00    0.0
2026/01/15 01:14:30.000   67.857343574   20.968462960   386.9956   6  14   0.1026   0.0777   0.2324  -0.0449  -0.0583   0.0991   0.00    0.0
2026/01/15 01:15:00.000   67.857343653   20.968462943   387.0071   6  15   0.1023   0.0774   0.2316  -0.0447  -0.0579   0.0987   0.00    0.0
2026/01/15 01:15:30.000   67.857343733   20.968462933   387.0189   6  15   0.1020   0.0772   0.2307  -0.0446  -0.0574   0.0983   0.00    0.0
2026/01/15 01:16:00.000   67.857343808   20.968462923   387.0304   6  15   0.1017   0.0769   0.2299  -0.0444  -0.0570   0.0979   0.00    0.0
2026/01/15 01:16:30.000   67.857343880   20.968462897   387.0423   6  15   0.1014   0.0766   0.2291  -0.0443  -0.0566   0.0975   0.00    0.0
2026/01/15 01:17:00.000   67.857343958   20.968462856   387.0537   6  15   0.1011   0.0764   0.2283  -0.0441  -0.0562   0.0972   0.00    0.0
2026/01/15 01:17:30.000   67.857344029   20.968462813   387.0652   6  15   0.1008   0.0761   0.2275  -0.0440  -0.0559   0.0968   0.00    0.0
2026/01/15 01:18:00.000   67.857344113   20.968462771   387.0782   6  15   0.1005   0.0759   0.2267  -0.0438  -0.0555   0.0964   0.00    0.0
2026/01/15 01:18:30.000   67.857344184   20.968462759   387.0883   6  15   0.1002   0.0756   0.2259  -0.0437  -0.0551   0.0961   0.00    0.0
2026/01/15 01:19:00.000   67.857344250   20.968462738   387.0984   6  15   0.1000   0.0754   0.2251  -0.0435  -0.0547   0.0957   0.00    0.0
2026/01/15 01:19:30.000   67.857344324   20.968462713   387.1105   6  15   0.0997   0.0751   0.2243  -0.0434  -0.0543   0.0953   0.00    0.0
2026/01/15 01:20:00.000   67.857344396   20.968462686   387.1212   6  15   0.0994   0.0749   0.2236  -0.0433  -0.0540   0.0950   0.00    0.0
2026/01/15 01:20:30.000   67.857344464   20.968462645   387.1348   6  15   0.0991   0.0746   0.2227  -0.0431  -0.0536   0.0947   0.00    0.0
2026/01/15 01:21:00.000   67.857344529   20.968462611   387.1469   6  15   0.0988   0.0743   0.2219  -0.0429  -0.0532   0.0943   0.00    0.0
2026/01/15 01:21:30.000   67.857344608   20.968462574   387.1601   6  15   0.0986   0.0741   0.2211  -0.0428  -0.0528   0.0940   0.00    0.0
2026/01/15 01:22:00.000   67.857344681   20.968462532   387.1737   6  15   0.0983   0.0738   0.2203  -0.0426  -0.0524   0.0937   0.00    0.0
2026/01/15 01:22:30.000   67.857344757   20.968462481   387.1862   6  15   0.0980   0.0736   0.2195  -0.0425  -0.0520   0.0934   0.00    0.0
2026/01/15 01:23:00.000   67.857344827   20.968462444   387.1951   6  15   0.0977   0.0733   0.2187  -0.0423  -0.0516   0.0930   0.00    0.0
2026/01/15 01:23:30.000   67.857344926   20.968462358   387.2168   6  15   0.0975   0.0731   0.2180  -0.0422  -0.0513   0.0928   0.00    0.0
2026/01/15 01:24:00.000   67.857345024   20.968462264   387.2393   6  16   0.0972   0.0728   0.2173  -0.0420  -0.0510   0.0925   0.00    0.0
2026/01/15 01:24:30.000   67.857345109   20.968462184   387.2586   6  16   0.0970   0.0726   0.2166  -0.0419  -0.0507   0.0922   0.00    0.0
2026/01/15 01:25:00.000   67.857345199   20.968462068   387.2850   6  15   0.0967   0.0724   0.2159  -0.0417  -0.0504   0.0919   0.00    0.0
2026/01/15 01:25:30.000   67.857345269   20.968461992   387.3053   6  16   0.0965   0.0722   0.2153  -0.0416  -0.0501   0.0916   0.00    0.0
2026/01/15 01:26:00.000   67.857345336   20.968461898   387.3267   6  16   0.0962   0.0719   0.2147  -0.0415  -0.0498   0.0914   0.00    0.0
2026/01/15 01:26:30.000   67.857345400   20.968461816   387.3475   6  16   0.0960   0.0717   0.2141  -0.0413  -0.0495   0.0912   0.00    0.0
2026/01/15 01:27:00.000   67.857345468   20.968461730   387.3686   6  16   0.0958   0.0715   0.2135  -0.0412  -0.0493   0.0909   0.00    0.0
2026/01/15 01:27:30.000   67.857345537   20.968461643   387.3904   6  16   0.0956   0.0713   0.2129  -0.0411  -0.0490   0.0907   0.00    0.0
2026/01/15 01:28:00.000   67.857345606   20.968461548   387.4115   6  16   0.0954   0.0710   0.2123  -0.0409  -0.0487   0.0905   0.00    0.0
2026/01/15 01:28:30.000   67.857345668   20.968461478   387.4311   6  16   0.0951   0.0708   0.2117  -0.0408  -0.0485   0.0902   0.00    0.0
2026/01/15 01:29:00.000   67.857345735   20.968461391   387.4521   6  16   0.0949   0.0706   0.2112  -0.0407  -0.0482   0.0900   0.00    0.0
2026/01/15 01:29:30.000   67.857345797   20.968461324   387.4709   6  17   0.0947   0.0704   0.2106  -0.0406  -0.0480   0.0898   0.00    0.0
2026/01/15 01:30:00.000   67.857345863   20.968461229   387.4910   6  17   0.0945   0.0702   0.2100  -0.0404  -0.0477   0.0896   0.00    0.0
2026/01/15 01:30:30.000   67.857345922   20.968461151   387.5084   6  17   0.0943   0.0700   0.2095  -0.0403  -0.0475   0.0894   0.00    0.0
2026/01/15 01:31:00.000   67.857345982   20.968461091   387.5257   6  17   0.0941   0.0698   0.2089  -0.0402  -0.0472   0.0891   0.00    0.0
2026/01/15 01:31:30.000   67.857346041   20.968461024   387.5424   6  17   0.0938   0.0696   0.2084  -0.0401  -0.0470   0.0889   0.00    0.0
2026/01/15 01:32:00.000   67.857346097   20.968460949   387.5586   6  16   0.0936   0.0694   0.2078  -0.0400  -0.0467   0.0887   0.00    0.0
2026/01/15 01:32:30.000   67.857346152   20.968460875   387.5745   6  16   0.0934   0.0692   0.2073  -0.0399  -0.0465   0.0885   0.00    0.0
2026/01/15 01:33:00.000   67.857346209   20.968460806   387.5910   6  16   0.0932   0.0690   0.2068  -0.0397  -0.0463   0.0883   0.00    0.0
2026/01/15 01:33:30.000   67.857346267   20.968460730   387.6085   6  16   0.0930   0.0688   0.2063  -0.0396  -0.0460   0.0881   0.00    0.0
2026/01/15 01:34:00.000   67.857346324   20.968460653   387.6257   6  16   0.0928   0.0686   0.2057  -0.0395  -0.0458   0.0878   0.00    0.0
2026/01/15 01:34:30.000   67.857346379   20.968460599   387.6420   6  16   0.0926   0.0684   0.2052  -0.0394  -0.0456   0.0876   0.00    0.0
2026/01/15 01:35:00.000   67.857346435   20.968460529   387.6584   6  16   0.0924   0.0682   0.2047  -0.0393  -0.0453   0.0874   0.00    0.0
2026/01/15 01:35:30.000   67.857346477   20.968460494   387.6716   6  15   0.0922   0.0680   0.2042  -0.0392  -0.0451   0.0872   0.00    0.0
2026/01/15 01:36:00.000   67.857346530   20.968460425   387.6866   6  15   0.0920   0.0678   0.2037  -0.0391  -0.0449   0.0870   0.00    0.0
2026/01/15 01:36:30.000   67.857346579   20.968460372   387.7007   6  15   0.0918   0.0676   0.2032  -0.0390  -0.0447   0.0868   0.00    0.0
2026/01/15 01:37:00.000   67.857346629   20.968460295   387.7160   6  15   0.0916   0.0675   0.2027  -0.0389  -0.0444   0.0866   0.00    0.0
2026/01/15 01:37:30.000   67.857346677   20.968460216   387.7305   6  15   0.0914   0.0673   0.2022  -0.0388  -0.0442   0.0864   0.00    0.0
2026/01/15 01:38:00.000   67.857346720   20.968460170   387.7450   6  15   0.0912   0.0671   0.2017  -0.0387  -0.0440   0.0862   0.00    0.0
2026/01/15 01:38:30.000   67.857346763   20.968460109   387.7600   6  15   0.0910   0.0669   0.2012  -0.0386  -0.0438   0.0860   0.00    0.0
2026/01/15 01:39:00.000   67.857346807   20.968460046   387.7753   6  15   0.0908   0.0667   0.2007  -0.0385  -0.0436   0.0858   0.00    0.0
2026/01/15 01:39:30.000   67.857346853   20.968459977   387.7898   6  15   0.0907   0.0666   0.2003  -0.0384  -0.0434   0.0856   0.00    0.0
2026/01/15 01:40:00.000   67.857346892   20.968459915   387.8027   6  15   0.0905   0.0664   0.1998  -0.0383  -0.0432   0.0854   0.00    0.0
2026/01/15 01:40:30.000   67.857346934   20.968459837   387.8162   6  14   0.0903   0.0662   0.1994  -0.0382  -0.0430   0.0852   0.00    0.0
2026/01/15 01:41:00.000   67.857346972   20.968459777   387.8289   6  14   0.0901   0.0660   0.1989  -0.0381  -0.0428   0.0850   0.00    0.0
2026/01/15 01:41:30.000   67.857347012   20.968459727   387.8420   6  14   0.0899   0.0659   0.1985  -0.0380  -0.0427   0.0848   0.00    0.0
2026/01/15 01:42:00.000   67.857347054   20.968459659   387.8558   6  14   0.0897   0.0657   0.1980  -0.0379  -0.0425   0.0847   0.00    0.0
2026/01/15 01:42:30.000   67.857347098   20.968459594   387.8701   6  14   0.0895   0.0655   0.1976  -0.0379  -0.0423   0.0845   0.00    0.0
2026/01/15 01:43:00.000   67.857347132   20.968459541   387.8831   6  14   0.0894   0.0654   0.1972  -0.0378  -0.0421   0.0843   0.00    0.0
2026/01/15 01:43:30.000   67.857347167   20.968459491   387.8963   6  14   0.0892   0.0652   0.1968  -0.0377  -0.0420   0.0841   0.00    0.0
2026/01/15 01:44:00.000   67.857347201   20.968459440   387.9089   6  14   0.0890   0.0651   0.1963  -0.0376  -0.0418   0.0840   0.00    0.0
2026/01/15 01:44:30.000   67.857347233   20.968459394   387.9202   6  14   0.0888   0.0649   0.1959  -0.0375  -0.0417   0.0838   0.00    0.0
2026/01/15 01:45:00.000   67.857347266   20.968459350   387.9322   6  14   0.0886   0.0647   0.1955  -0.0374  -0.0415   0.0836   0.00    0.0
2026/01/15 01:45:30.000   67.857347296   20.968459313   387.9441   6  14   0.0885   0.0646   0.1951  -0.0374  -0.0413   0.0834   0.00    0.0
2026/01/15 01:46:00.000   67.857347324   20.968459270   387.9560   6  14   0.0883   0.0644   0.1947  -0.0373  -0.0412   0.0833   0.00    0.0
2026/01/15 01:46:30.000   67.857347355   20.968459222   387.9681   6  14   0.0881   0.0643   0.1943  -0.0372  -0.0410   0.0831   0.00    0.0
2026/01/15 01:47:00.000   67.857347378   20.968459182   387.9780   6  14   0.0879   0.0641   0.1938  -0.0371  -0.0409   0.0829   0.00    0.0
2026/01/15 01:47:30.000   67.857347402   20.968459137   387.9874   6  14   0.0878   0.0640   0.1934  -0.0371  -0.0407   0.0827   0.00    0.0
2026/01/15 01:48:00.000   67.857347425   20.968459107   387.9982   6  14   0.0876   0.0638   0.1930  -0.0370  -0.0405   0.0826   0.00    0.0
2026/01/15 01:48:30.000   67.857347447   20.968459067   388.0084   6  14   0.0874   0.0637   0.1926  -0.0369  -0.0404   0.0824   0.00    0.0
2026/01/15 01:49:00.000   67.857347471   20.968459029   388.0180   6  14   0.0872   0.0635   0.1922  -0.0368  -0.0402   0.0822   0.00    0.0
2026/01/15 01:49:30.000   67.857347505   20.968458994   388.0262   6  15   0.0871   0.0634   0.1918  -0.0368  -0.0401   0.0820   0.00    0.0
2026/01/15 01:50:00.000   67.857347536   20.968458964   388.0342   6  15   0.0869   0.0632   0.1913  -0.0367  -0.0400   0.0819   0.00    0.0
2026/01/15 01:50:30.000   67.857347573   20.968458924   388.0426   6  15   0.0867   0.0631   0.1909  -0.0366  -0.0398   0.0817   0.00    0.0
2026/01/15 01:51:00.000   67.857347609   20.968458889   388.0505   6  15   0.0865   0.0629   0.1905  -0.0365  -0.0397   0.0816   0.00    0.0
2026/01/15 01:51:30.000   67.857347646   20.968458844   388.0590   6  15   0.0863   0.0628   0.1901  -0.0365  -0.0395   0.0814   0.00    0.0
2026/01/15 01:52:00.000   67.857347684   20.968458804   388.0658   6  15   0.0862   0.0627   0.1897  -0.0364  -0.0394   0.0813   0.00    0.0
2026/01/15 01:52:30.000   67.857347721   20.968458770   388.0751   6  15   0.0860   0.0625   0.1892  -0.0363  -0.0393   0.0811   0.00    0.0
2026/01/15 01:53:00.000   67.857347757   20.968458735   388.0832   6  15   0.0858   0.0624   0.1888  -0.0362  -0.0391   0.0810   0.00    0.0
2026/01/15 01:53:30.000   67.857347794   20.968458697   388.0910   6  15   0.0856   0.0622   0.1884  -0.0362  -0.0390   0.0808   0.00    0.0
2026/01/15 01:54:00.000   67.857347829   20.968458660   388.0986   6  15   0.0855   0.0621   0.1880  -0.0361  -0.0389   0.0806   0.00    0.0
2026/01/15 01:54:30.000   67.857347867   20.968458610   388.1067   6  15   0.0853   0.0620   0.1876  -0.0360  -0.0387   0.0805   0.00    0.0
2026/01/15 01:55:00.000   67.857347905   20.968458572   388.1134   6  15   0.0851   0.0618   0.1872  -0.0360  -0.0386   0.0803   0.00    0.0
2026/01/15 01:55:30.000   67.857347940   20.968458533   388.1208   6  15   0.0849   0.0617   0.1868  -0.0359  -0.0385   0.0802   0.00    0.0
2026/01/15 01:56:00.000   67.857347974   20.968458495   388.1285   6  15   0.0848   0.0616   0.1863  -0.0358  -0.0383   0.0800   0.00    0.0
2026/01/15 01:56:30.000   67.857348009   20.968458464   388.1367   6  15   0.0846   0.0614   0.1859  -0.0358  -0.0382   0.0799   0.00    0.0
2026/01/15 01:57:00.000   67.857348047   20.968458428   388.1447   6  15   0.0844   0.0613   0.1855  -0.0357  -0.0381   0.0797   0.00    0.0
2026/01/15 01:57:30.000   67.857348084   20.968458373   388.1481   6  16   0.0842   0.0612   0.1851  -0.0356  -0.0380   0.0795   0.00    0.0
2026/01/15 01:58:00.000   67.857348121   20.968458319   388.1524   6  16   0.0841   0.0610   0.1847  -0.0356  -0.0379   0.0794   0.00    0.0
2026/01/15 01:58:30.000   67.857348153   20.968458259   388.1566   6  16   0.0839   0.0609   0.1842  -0.0355  -0.0378   0.0792   0.00    0.0
2026/01/15 01:59:00.000   67.857348185   20.968458200   388.1600   6  16   0.0837   0.0607   0.1838  -0.0354  -0.0377   0.0791   0.00    0.0
2026/01/15 01:59:30.000   67.857348213   20.968458142   388.1625   6  16   0.0836   0.0606   0.1834  -0.0353  -0.0377   0.0789   0.00    0.0
2026/01/15 02:00:00.000   67.857348237   20.968458070   388.1663   6  16   0.0834   0.0605   0.1829  -0.0353  -0.0376   0.0788   0.00    0.0
2026/01/15 02:00:30.000   67.857348268   20.968458008   388.1698   6  16   0.0832   0.0603   0.1825  -0.0352  -0.0375   0.0786   0.00    0.0
2026/01/15 02:01:00.000   67.857348293   20.968457943   388.1736   6  16   0.0831   0.0602   0.1821  -0.0351  -0.0374   0.0785   0.00    0.0
2026/01/15 02:01:30.000   67.857348315   20.968457890   388.1773   6  16   0.0829   0.0601   0.1817  -0.0351  -0.0373   0.0783   0.00    0.0
2026/01/15 02:02:00.000   67.857348339   20.968457821   388.1800   6  16   0.0828   0.0600   0.1813  -0.0350  -0.0372   0.0781   0.00    0.0
2026/01/15 02:02:30.000   67.857348354   20.968457776   388.1796   6  16   0.0826   0.0598   0.1808  -0.0349  -0.0371   0.0780   0.00    0.0
2026/01/15 02:03:00.000   67.857348373   20.968457729   388.1807   6  16   0.0824   0.0597   0.1803  -0.0348  -0.0370   0.0778   0.00    0.0
2026/01/15 02:03:30.000   67.857348394   20.968457682   388.1814   6  16   0.0822   0.0596   0.1799  -0.0347  -0.0368   0.0776   0.00    0.0
2026/01/15 02:04:00.000   67.857348414   20.968457632   388.1820   6  16   0.0821   0.0594   0.1794  -0.0346  -0.0367   0.0774   0.00    0.0
2026/01/15 02:04:30.000   67.857348436   20.968457576   388.1823   6  16   0.0819   0.0593   0.1789  -0.0345  -0.0366   0.0772   0.00    0.0
2026/01/15 02:05:00.000   67.857348456   20.968457547   388.1849   6  16   0.0817   0.0591   0.1785  -0.0345  -0.0365   0.0771   0.00    0.0
2026/01/15 02:05:30.000   67.857348479   20.968457523   388.1877   6  16   0.0816   0.0590   0.1780  -0.0344  -0.0364   0.0769   0.00    0.0
2026/01/15 02:06:00.000   67.857348503   20.968457496   388.1919   6  16   0.0814   0.0589   0.1775  -0.0343  -0.0363   0.0767   0.00    0.0
2026/01/15 02:06:30.000   67.857348525   20.968457472   388.1939   6  16   0.0812   0.0587   0.1770  -0.0342  -0.0362   0.0765   0.00    0.0
2026/01/15 02:07:00.000   67.857348544   20.968457441   388.1983   6  16   0.0811   0.0586   0.1766  -0.0341  -0.0361   0.0763   0.00    0.0
2026/01/15 02:07:30.000   67.857348566   20.968457415   388.2034   6  16   0.0809   0.0585   0.1761  -0.0341  -0.0360   0.0761   0.00    0.0
2026/01/15 02:08:00.000   67.857348590   20.968457387   388.2078   6  16   0.0807   0.0583   0.1756  -0.0340  -0.0360   0.0759   0.00    0.0
2026/01/15 02:08:30.000   67.857348592   20.968457372   388.2087   6  16   0.0805   0.0582   0.1751  -0.0339  -0.0359   0.0757   0.00    0.0
2026/01/15 02:09:00.000   67.857348593   20.968457372   388.2096   6  16   0.0803   0.0580   0.1746  -0.0338  -0.0358   0.0754   0.00    0.0
2026/01/15 02:09:30.000   67.857348615   20.968457358   388.2137   6  15   0.0801   0.0579   0.1741  -0.0337  -0.0356   0.0752   0.00    0.0
2026/01/15 02:10:00.000   67.857348635   20.968457344   388.2187   6  15   0.0799   0.0578   0.1736  -0.0336  -0.0355   0.0750   0.00    0.0
2026/01/15 02:10:30.000   67.857348645   20.968457334   388.2214   6  15   0.0797   0.0576   0.1731  -0.0335  -0.0353   0.0747   0.00    0.0
2026/01/15 02:11:00.000   67.857348663   20.968457321   388.2272   6  15   0.0795   0.0575   0.1726  -0.0334  -0.0352   0.0745   0.00    0.0
2026/01/15 02:11:30.000   67.857348681   20.968457309   388.2309   6  15   0.0793   0.0574   0.1721  -0.0333  -0.0351   0.0742   0.00    0.0
2026/01/15 02:12:00.000   67.857348696   20.968457300   388.2345   6  14   0.0792   0.0573   0.1717  -0.0332  -0.0350   0.0740   0.00    0.0
2026/01/15 02:12:30.000   67.857348714   20.968457287   388.2394   6  14   0.0790   0.0571   0.1712  -0.0331  -0.0348   0.0738   0.00    0.0
2026/01/15 02:13:00.000   67.857348731   20.968457276   388.2455   6  13   0.0788   0.0570   0.1707  -0.0330  -0.0347   0.0736   0.00    0.0
2026/01/15 02:13:30.000   67.857348740   20.968457271   388.2491   6  13   0.0786   0.0569   0.1703  -0.0329  -0.0346   0.0733   0.00    0.0
2026/01/15 02:14:00.000   67.857348748   20.968457255   388.2515   6  13   0.0784   0.0568   0.1698  -0.0328  -0.0345   0.0731   0.00    0.0
2026/01/15 02:14:30.000   67.857348762   20.968457242   388.2547   6  13   0.0782   0.0566   0.1694  -0.0327  -0.0343   0.0729   0.00    0.0
2026/01/15 02:15:00.000   67.857348773   20.968457240   388.2572   6  13   0.0780   0.0565   0.1689  -0.0326  -0.0342   0.0727   0.00    0.0
2026/01/15 02:15:30.000   67.857348788   20.968457232   388.2611   6  13   0.0778   0.0564   0.1685  -0.0325  -0.0341   0.0724   0.00    0.0
2026/01/15 02:16:00.000   67.857348796   20.968457226   388.2638   6  13   0.0776   0.0562   0.1680  -0.0324  -0.0340   0.0722   0.00    0.0
2026/01/15 02:16:30.000   67.857348812   20.968457208   388.2664   6  14   0.0774   0.0561   0.1676  -0.0323  -0.0339   0.0720   0.00    0.0
2026/01/15 02:17:00.000   67.857348829   20.968457201   388.2700   6  14   0.0773   0.0560   0.1671  -0.0322  -0.0338   0.0718   0.00    0.0
2026/01/15 02:17:30.000   67.857348846   20.968457196   388.2732   6  14   0.0771   0.0559   0.1667  -0.0321  -0.0337   0.0716   0.00    0.0
2026/01/15 02:18:00.000   67.857348863   20.968457203   388.2786   6  14   0.0769   0.0558   0.1663  -0.0320  -0.0336   0.0714   0.00    0.0
2026/01/15 02:18:30.000   67.857348879   20.968457197   388.2823   6  14   0.0767   0.0556   0.1658  -0.0319  -0.0335   0.0711   0.00    0.0
2026/01/15 02:19:00.000   67.857348897   20.968457194   388.2859   6  14   0.0765   0.0555   0.1654  -0.0318  -0.0333   0.0709   0.00    0.0
2026/01/15 02:19:30.000   67.857348911   20.968457182   388.2874   6  14   0.0763   0.0554   0.1649  -0.0317  -0.0332   0.0707   0.00    0.0
2026/01/15 02:20:00.000   67.857348928   20.968457163   388.2903   6  14   0.0761   0.0553   0.1645  -0.0316  -0.0331   0.0705   0.00    0.0
2026/01/15 02:20:30.000   67.857348938   20.968457151   388.2921   6  14   0.0759   0.0551   0.1641  -0.0315  -0.0330   0.0703   0.00    0.0
2026/01/15 02:21:00.000   67.857348943   20.968457142   388.2935   6  14   0.0757   0.0550   0.1636  -0.0314  -0.0329   0.0700   0.00    0.0
2026/01/15 02:21:30.000   67.857348951   20.968457138   388.2950   6  14   0.0756   0.0549   0.1632  -0.0313  -0.0328   0.0698   0.00    0.0
2026/01/15 02:22:00.000   67.857348964   20.968457132   388.2983   6  14   0.0754   0.0548   0.1628  -0.0312  -0.0326   0.0696   0.00    0.0
2026/01/15 02:22:30.000   67.857348968   20.968457127   388.3006   6  14   0.0752   0.0547   0.1624  -0.0311  -0.0325   0.0694   0.00    0.0
2026/01/15 02:23:00.000   67.857348968   20.968457127   388.3018   6  14   0.0750   0.0545   0.1620  -0.0310  -0.0324   0.0692   0.00    0.0
2026/01/15 02:23:30.000   67.857348983   20.968457116   388.3054   6  14   0.0748   0.0544   0.1615  -0.0309  -0.0323   0.0690   0.00    0.0
2026/01/15 02:24:00.000   67.857348990   20.968457106   388.3081   6  14   0.0747   0.0543   0.1611  -0.0308  -0.0322   0.0688   0.00    0.0
2026/01/15 02:24:30.000   67.857348994   20.968457102   388.3116   6  14   0.0745   0.0542   0.1607  -0.0307  -0.0321   0.0685   0.00    0.0
2026/01/15 02:25:00.000   67.857348999   20.968457081   388.3148   6  14   0.0743   0.0541   0.1603  -0.0306  -0.0320   0.0683   0.00    0.0
2026/01/15 02:25:30.000   67.857348999   20.968457081   388.3172   6  14   0.0741   0.0540   0.1599  -0.0305  -0.0319   0.0681   0.00    0.0
2026/01/15 02:26:00.000   67.857349010   20.968457065   388.3208   6  14   0.0740   0.0538   0.1595  -0.0304  -0.0318   0.0679   0.00    0.0
2026/01/15 02:26:30.000   67.857349021   20.968457047   388.3241   6  14   0.0738   0.0537   0.1591  -0.0303  -0.0317   0.0677   0.00    0.0
2026/01/15 02:27:00.000   67.857349026   20.968457025   388.3294   6  14   0.0736   0.0536   0.1588  -0.0302  -0.0316   0.0675   0.00    0.0
2026/01/15 02:27:30.000   67.857349035   20.968456995   388.3366   6  14   0.0734   0.0535   0.1584  -0.0301  -0.0315   0.0673   0.00    0.0
2026/01/15 02:28:00.000   67.857349042   20.968456964   388.3435   6  14   0.0733   0.0534   0.1580  -0.0300  -0.0314   0.0671   0.00    0.0
2026/01/15 02:28:30.000   67.857349050   20.968456928   388.3498   6  14   0.0731   0.0533   0.1577  -0.0300  -0.0313   0.0669   0.00    0.0
2026/01/15 02:29:00.000   67.857349056   20.968456905   388.3558   6  14   0.0730   0.0532   0.1573  -0.0299  -0.0313   0.0667   0.00    0.0
2026/01/15 02:29:30.000   67.857349059   20.968456875   388.3612   6  13   0.0728   0.0531   0.1570  -0.0298  -0.0312   0.0665   0.00    0.0
2026/01/15 02:30:00.000   67.857349060   20.968456844   388.3665   6  13   0.0727   0.0530   0.1567  -0.0297  -0.0311   0.0663   0.00    0.0
2026/01/15 02:30:30.000   67.857349068   20.968456821   388.3709   6  13   0.0725   0.0529   0.1564  -0.0296  -0.0310   0.0662   0.00    0.0
2026/01/15 02:31:00.000   67.857349074   20.968456801   388.3762   6  13   0.0724   0.0528   0.1561  -0.0295  -0.0309   0.0660   0.00    0.0
2026/01/15 02:31:30.000   67.857349083   20.968456771   388.3816   6  14   0.0723   0.0527   0.1558  -0.0294  -0.0308   0.0658   0.00    0.0
2026/01/15 02:32:00.000   67.857349087   20.968456744   388.3867   6  14   0.0721   0.0526   0.1555  -0.0293  -0.0307   0.0657   0.00    0.0
2026/01/15 02:32:30.000   67.857349086   20.968456724   388.3912   6  14   0.0720   0.0524   0.1552  -0.0292  -0.0306   0.0655   0.00    0.0
2026/01/15 02:33:00.000   67.857349090   20.968456708   388.3970   6  14   0.0718   0.0523   0.1549  -0.0291  -0.0305   0.0653   0.00    0.0
2026/01/15 02:33:30.000   67.857349095   20.968456687   388.4025   6  14   0.0717   0.0522   0.1546  -0.0290  -0.0304   0.0652   0.00    0.0
2026/01/15 02:34:00.000   67.857349105   20.968456674   388.4098   6  13   0.0716   0.0521   0.1543  -0.0289  -0.0303   0.0650   0.00    0.0
2026/01/15 02:34:30.000   67.857349114   20.968456652   388.4161   6  13   0.0714   0.0520   0.1540  -0.0289  -0.0302   0.0649   0.00    0.0
2026/01/15 02:35:00.000   67.857349123   20.968456629   388.4234   6  13   0.0713   0.0519   0.1537  -0.0288  -0.0301   0.0647   0.00    0.0
2026/01/15 02:35:30.000   67.857349138   20.968456599   388.4309   6  13   0.0712   0.0518   0.1534  -0.0287  -0.0300   0.0646   0.00    0.0
2026/01/15 02:36:00.000   67.857349149   20.968456586   388.4378   6  13   0.0710   0.0517   0.1531  -0.0286  -0.0299   0.0644   0.00    0.0
2026/01/15 02:36:30.000   67.857349157   20.968456562   388.4438   6  13   0.0709   0.0516   0.1529  -0.0285  -0.0298   0.0643   0.00    0.0
2026/01/15 02:37:00.000   67.857349164   20.968456547   388.4497   6  13   0.0708   0.0515   0.1526  -0.0284  -0.0297   0.0641   0.00    0.0
2026/01/15 02:37:30.000   67.857349173   20.968456543   388.4558   6  13   0.0706   0.0514   0.1523  -0.0283  -0.0296   0.0640   0.00    0.0
2026/01/15 02:38:00.000   67.857349184   20.968456529   388.4623   6  13   0.0705   0.0513   0.1520  -0.0282  -0.0295   0.0638   0.00    0.0
2026/01/15 02:38:30.000   67.857349192   20.968456511   388.4692   6  14   0.0704   0.0512   0.1518  -0.0281  -0.0294   0.0637   0.00    0.0
2026/01/15 02:39:00.000   67.857349204   20.968456497   388.4754   6  14   0.0703   0.0511   0.1515  -0.0280  -0.0293   0.0636   0.00    0.0
2026/01/15 02:39:30.000   67.857349216   20.968456484   388.4821   6  14   0.0701   0.0510   0.1512  -0.0280  -0.0292   0.0634   0.00    0.0
2026/01/15 02:40:00.000   67.857349224   20.968456465   388.4876   6  14   0.0700   0.0509   0.1509  -0.0279  -0.0291   0.0633   0.00    0.0
2026/01/15 02:40:30.000   67.857349240   20.968456444   388.4934   6  13   0.0699   0.0508   0.1507  -0.0278  -0.0290   0.0631   0.00    0.0
2026/01/15 02:41:00.000   67.857349253   20.968456423   388.4991   6  13   0.0698   0.0507   0.1504  -0.0277  -0.0289   0.0630   0.00    0.0
2026/01/15 02:41:30.000   67.857349266   20.968456407   388.5055   6  13   0.0696   0.0506   0.1502  -0.0276  -0.0288   0.0628   0.00    0.0
2026/01/15 02:42:00.000   67.857349283   20.968456388   388.5114   6  13   0.0695   0.0505   0.1499  -0.0275  -0.0287   0.0627   0.00    0.0
2026/01/15 02:42:30.000   67.857349295   20.968456374   388.5174   6  13   0.0694   0.0504   0.1497  -0.0274  -0.0286   0.0625   0.00    0.0
2026/01/15 02:43:00.000   67.857349305   20.968456354   388.5232   6  13   0.0693   0.0503   0.1494  -0.0274  -0.0285   0.0624   0.00    0.0
2026/01/15 02:43:30.000   67.857349314   20.968456342   388.5289   6  13   0.0692   0.0502   0.1491  -0.0273  -0.0284   0.0623   0.00    0.0
2026/01/15 02:44:00.000   67.857349329   20.968456326   388.5352   6  13   0.0690   0.0501   0.1489  -0.0272  -0.0283   0.0621   0.00    0.0
2026/01/15 02:44:30.000   67.857349344   20.968456309   388.5414   6  13   0.0689   0.0500   0.1486  -0.0271  -0.0282   0.0620   0.00    0.0
2026/01/15 02:45:00.000   67.857349355   20.968456291   388.5472   6  13   0.0688   0.0499   0.1484  -0.0270  -0.0281   0.0618   0.00    0.0
2026/01/15 02:45:30.000   67.857349366   20.968456272   388.5532   6  13   0.0687   0.0498   0.1481  -0.0270  -0.0280   0.0617   0.00    0.0
2026/01/15 02:46:00.000   67.857349380   20.968456262   388.5584   6  13   0.0686   0.0498   0.1479  -0.0269  -0.0280   0.0615   0.00    0.0
2026/01/15 02:46:30.000   67.857349397   20.968456235   388.5644   6  13   0.0684   0.0497   0.1477  -0.0268  -0.0279   0.0614   0.00    0.0
2026/01/15 02:47:00.000   67.857349411   20.968456220   388.5697   6  13   0.0683   0.0496   0.1474  -0.0267  -0.0278   0.0613   0.00    0.0
2026/01/15 02:47:30.000   67.857349425   20.968456203   388.5748   6  13   0.0682   0.0495   0.1472  -0.0267  -0.0277   0.0611   0.00    0.0
2026/01/15 02:48:00.000   67.857349434   20.968456192   388.5790   6  13   0.0681   0.0494   0.1469  -0.0266  -0.0276   0.0610   0.00    0.0
2026/01/15 02:48:30.000   67.857349447   20.968456171   388.5841   6  13   0.0680   0.0493   0.1467  -0.0265  -0.0275   0.0609   0.00    0.0
2026/01/15 02:49:00.000   67.857349463   20.968456147   388.5892   6  13   0.0679   0.0493   0.1465  -0.0264  -0.0274   0.0607   0.00    0.0
2026/01/15 02:49:30.000   67.857349477   20.968456128   388.5948   6  13   0.0678   0.0492   0.1462  -0.0264  -0.0273   0.0606   0.00    0.0
2026/01/15 02:50:00.000   67.857349488   20.968456108   388.5997   6  13   0.0676   0.0491   0.1460  -0.0263  -0.0272   0.0604   0.00    0.0
2026/01/15 02:50:30.000   67.857349497   20.968456092   388.6047   6  13   0.0675   0.0490   0.1458  -0.0262  -0.0271   0.0603   0.00    0.0
2026/01/15 02:51:00.000   67.857349506   20.968456080   388.6102   6  13   0.0674   0.0489   0.1455  -0.0262  -0.0270   0.0602   0.00    0.0
2026/01/15 02:51:30.000   67.857349518   20.968456064   388.6158   6  13   0.0673   0.0488   0.1453  -0.0261  -0.0269   0.0600   0.00    0.0
2026/01/15 02:52:00.000   67.857349528   20.968456043   388.6213   6  13   0.0672   0.0488   0.1451  -0.0260  -0.0268   0.0599   0.00    0.0
2026/01/15 02:52:30.000   67.857349539   20.968456023   388.6265   6  13   0.0671   0.0487   0.1448  -0.0260  -0.0267   0.0598   0.00    0.0
2026/01/15 02:53:00.000   67.857349547   20.968456011   388.6318   6  13   0.0670   0.0486   0.1446  -0.0259  -0.0267   0.0596   0.00    0.0
2026/01/15 02:53:30.000   67.857349559   20.968455991   388.6371   6  13   0.0669   0.0485   0.1444  -0.0258  -0.0266   0.0595   0.00    0.0
2026/01/15 02:54:00.000   67.857349573   20.968455966   388.6430   6  13   0.0668   0.0484   0.1442  -0.0258  -0.0265   0.0594   0.00    0.0
2026/01/15 02:54:30.000   67.857349588   20.968455947   388.6481   6  13   0.0666   0.0484   0.1439  -0.0257  -0.0264   0.0592   0.00    0.0
2026/01/15 02:55:00.000   67.857349597   20.968455927   388.6525   6  13   0.0665   0.0483   0.1437  -0.0256  -0.0263   0.0591   0.00    0.0
2026/01/15 02:55:30.000   67.857349611   20.968455907   388.6579   6  13   0.0664   0.0482   0.1435  -0.0256  -0.0262   0.0590   0.00    0.0
2026/01/15 02:56:00.000   67.857349628   20.968455884   388.6632   6  13   0.0663   0.0481   0.1432  -0.0255  -0.0261   0.0589   0.00    0.0
2026/01/15 02:56:30.000   67.857349642   20.968455862   388.6686   6  13   0.0662   0.0481   0.1430  -0.0254  -0.0260   0.0587   0.00    0.0
2026/01/15 02:57:00.000   67.857349658   20.968455832   388.6744   6  13   0.0661   0.0480   0.1428  -0.0254  -0.0260   0.0586   0.00    0.0
2026/01/15 02:57:30.000   67.857349668   20.968455809   388.6792   6  13   0.0660   0.0479   0.1426  -0.0253  -0.0259   0.0585   0.00    0.0
2026/01/15 02:58:00.000   67.857349679   20.968455785   388.6841   6  13   0.0659   0.0478   0.1423  -0.0253  -0.0258   0.0583   0.00    0.0
2026/01/15 02:58:30.000   67.857349693   20.968455758   388.6884   6  13   0.0658   0.0477   0.1421  -0.0252  -0.0258   0.0582   0.00    0.0
2026/01/15 02:59:00.000   67.857349706   20.968455733   388.6929   6  13   0.0657   0.0477   0.1418  -0.0251  -0.0257   0.0580   0.00    0.0
2026/01/15 02:59:30.000   67.857349724   20.968455700   388.6977   6  13   0.0656   0.0476   0.1416  -0.0251  -0.0257   0.0579   0.00    0.0
2026/01/15 03:00:00.000   67.857349745   20.968455678   388.7048   6  13   0.0655   0.0475   0.1414  -0.0250  -0.0256   0.0578   0.00    0.0
2026/01/15 03:00:30.000   67.857349769   20.968455648   388.7117   6  13   0.0653   0.0474   0.1411  -0.0249  -0.0255   0.0576   0.00    0.0
2026/01/15 03:01:00.000   67.857349786   20.968455620   388.7180   6  13   0.0652   0.0473   0.1409  -0.0249  -0.0255   0.0575   0.00    0.0
2026/01/15 03:01:30.000   67.857349804   20.968455593   388.7237   6  13   0.0651   0.0473   0.1406  -0.0248  -0.0254   0.0573   0.00    0.0
2026/01/15 03:02:00.000   67.857349826   20.968455560   388.7298   6  13   0.0650   0.0472   0.1404  -0.0248  -0.0254   0.0572   0.00    0.0
2026/01/15 03:02:30.000   67.857349848   20.968455526   388.7359   6  13   0.0649   0.0471   0.1401  -0.0247  -0.0253   0.0570   0.00    0.0
2026/01/15 03:03:00.000   67.857349871   20.968455498   388.7416   6  13   0.0648   0.0470   0.1399  -0.0246  -0.0253   0.0569   0.00    0.0
2026/01/15 03:03:30.000   67.857349891   20.968455475   388.7469   6  13   0.0647   0.0469   0.1396  -0.0246  -0.0252   0.0567   0.00    0.0
2026/01/15 03:04:00.000   67.857349912   20.968455449   388.7530   6  13   0.0646   0.0469   0.1394  -0.0245  -0.0252   0.0566   0.00    0.0
2026/01/15 03:04:30.000   67.857349933   20.968455429   388.7589   6  13   0.0644   0.0468   0.1391  -0.0245  -0.0251   0.0565   0.00    0.0
2026/01/15 03:05:00.000   67.857349955   20.968455397   388.7646   6  13   0.0643   0.0467   0.1389  -0.0244  -0.0250   0.0563   0.00    0.0
2026/01/15 03:05:30.000   67.857349976   20.968455356   388.7703   6  13   0.0642   0.0466   0.1386  -0.0243  -0.0250   0.0562   0.00    0.0
2026/01/15 03:06:00.000   67.857349993   20.968455323   388.7757   6  13   0.0641   0.0465   0.1384  -0.0243  -0.0249   0.0560   0.00    0.0
2026/01/15 03:06:30.000   67.857350021   20.968455292   388.7829   6  13   0.0640   0.0465   0.1381  -0.0242  -0.0249   0.0559   0.00    0.0
2026/01/15 03:07:00.000   67.857350046   20.968455269   388.7890   6  13   0.0639   0.0464   0.1379  -0.0242  -0.0248   0.0557   0.00    0.0
2026/01/15 03:07:30.000   67.857350073   20.968455241   388.7968   6  13   0.0638   0.0463   0.1376  -0.0241  -0.0248   0.0555   0.00    0.0
2026/01/15 03:08:00.000   67.857350105   20.968455210   388.8050   6  13   0.0636   0.0462   0.1374  -0.0240  -0.0247   0.0554   0.00    0.0
2026/01/15 03:08:30.000   67.857350139   20.968455184   388.8129   6  13   0.0635   0.0462   0.1371  -0.0240  -0.0247   0.0552   0.00    0.0
2026/01/15 03:09:00.000   67.857350168   20.968455154   388.8199   6  13   0.0634   0.0461   0.1369  -0.0239  -0.0246   0.0551   0.00    0.0
2026/01/15 03:09:30.000   67.857350199   20.968455121   388.8275   6  13   0.0633   0.0460   0.1366  -0.0239  -0.0246   0.0549   0.00    0.0
2026/01/15 03:10:00.000   67.857350225   20.968455092   388.8336   6  13   0.0632   0.0459   0.1364  -0.0238  -0.0245   0.0547   0.00    0.0
2026/01/15 03:10:30.000   67.857350232   20.968455069   388.8341   6  12   0.0631   0.0459   0.1362  -0.0238  -0.0245   0.0546   0.00    0.0
2026/01/15 03:11:00.000   67.857350239   20.968455043   388.8345   6  12   0.0630   0.0458   0.1360  -0.0237  -0.0244   0.0545   0.00    0.0
2026/01/15 03:11:30.000   67.857350246   20.968455022   388.8353   6  12   0.0629   0.0457   0.1357  -0.0237  -0.0244   0.0544   0.00    0.0
2026/01/15 03:12:00.000   67.857350256   20.968455004   388.8366   6  12   0.0628   0.0456   0.1355  -0.0236  -0.0243   0.0543   0.00    0.0
2026/01/15 03:12:30.000   67.857350267   20.968454985   388.8378   6  12   0.0627   0.0456   0.1353  -0.0236  -0.0243   0.0542   0.00    0.0
2026/01/15 03:13:00.000   67.857350275   20.968454959   388.8393   6  12   0.0626   0.0455   0.1351  -0.0235  -0.0242   0.0541   0.00    0.0
2026/01/15 03:13:30.000   67.857350282   20.968454940   388.8400   6  12   0.0625   0.0454   0.1349  -0.0235  -0.0242   0.0540   0.00    0.0
2026/01/15 03:14:00.000   67.857350290   20.968454917   388.8416   6  12   0.0624   0.0454   0.1347  -0.0234  -0.0241   0.0539   0.00    0.0
2026/01/15 03:14:30.000   67.857350301   20.968454896   388.8435   6  12   0.0623   0.0453   0.1345  -0.0234  -0.0241   0.0538   0.00    0.0
2026/01/15 03:15:00.000   67.857350313   20.968454870   388.8454   6  12   0.0622   0.0452   0.1343  -0.0233  -0.0240   0.0537   0.00    0.0
2026/01/15 03:15:30.000   67.857350324   20.968454849   388.8467   6  11   0.0621   0.0452   0.1342  -0.0233  -0.0240   0.0536   0.00    0.0
2026/01/15 03:16:00.000   67.857350336   20.968454824   388.8485   6  11   0.0620   0.0451   0.1340  -0.0232  -0.0239   0.0535   0.00    0.0
2026/01/15 03:16:30.000   67.857350347   20.968454806   388.8501   6  11   0.0620   0.0450   0.1338  -0.0231  -0.0238   0.0534   0.00    0.0
2026/01/15 03:17:00.000   67.857350357   20.968454785   388.8518   6  11   0.0619   0.0450   0.1336  -0.0231  -0.0238   0.0533   0.00    0.0
2026/01/15 03:17:30.000   67.857350372   20.968454756   388.8537   6  11   0.0618   0.0449   0.1334  -0.0230  -0.0237   0.0532   0.00    0.0
2026/01/15 03:18:00.000   67.857350387   20.968454730   388.8562   6  11   0.0617   0.0448   0.1333  -0.0230  -0.0237   0.0531   0.00    0.0
2026/01/15 03:18:30.000   67.857350408   20.968454703   388.8590   6  10   0.0616   0.0448   0.1331  -0.0230  -0.0237   0.0531   0.00    0.0
2026/01/15 03:19:00.000   67.857350428   20.968454677   388.8616   6  10   0.0615   0.0447   0.1330  -0.0229  -0.0236   0.0530   0.00    0.0
2026/01/15 03:19:30.000   67.857350447   20.968454646   388.8647   6  10   0.0615   0.0447   0.1329  -0.0229  -0.0236   0.0530   0.00    0.0
2026/01/15 03:20:00.000   67.857350469   20.968454620   388.8675   6  10   0.0614   0.0446   0.1328  -0.0229  -0.0236   0.0529   0.00    0.0
2026/01/15 03:20:30.000   67.857350493   20.968454589   388.8702   6  10   0.0613   0.0445   0.1326  -0.0228  -0.0236   0.0529   0.00    0.0
2026/01/15 03:21:00.000   67.857350512   20.968454559   388.8736   6  10   0.0613   0.0445   0.1325  -0.0228  -0.0236   0.0529   0.00    0.0
2026/01/15 03:21:30.000   67.857350533   20.968454528   388.8769   6  10   0.0612   0.0444   0.1324  -0.0228  -0.0235   0.0528   0.00    0.0
2026/01/15 03:22:00.000   67.857350554   20.968454496   388.8802   6  10   0.0611   0.0444   0.1322  -0.0227  -0.0235   0.0528   0.00    0.0
2026/01/15 03:22:30.000   67.857350578   20.968454463   388.8828   6  10   0.0610   0.0443   0.1321  -0.0227  -0.0235   0.0527   0.00    0.0
2026/01/15 03:23:00.000   67.857350598   20.968454428   388.8860   6  10   0.0610   0.0442   0.1320  -0.0227  -0.0234   0.0527   0.00    0.0
2026/01/15 03:23:30.000   67.857350617   20.968454393   388.8892   6  10   0.0609   0.0442   0.1318  -0.0226  -0.0234   0.0527   0.00    0.0
2026/01/15 03:24:00.000   67.857350639   20.968454357   388.8922   6  10   0.0608   0.0441   0.1317  -0.0226  -0.0234   0.0526   0.00    0.0
2026/01/15 03:24:30.000   67.857350661   20.968454326   388.8951   6  10   0.0607   0.0441   0.1316  -0.0226  -0.0234   0.0526   0.00    0.0
2026/01/15 03:25:00.000   67.857350682   20.968454297   388.8982   6  10   0.0607   0.0440   0.1315  -0.0225  -0.0233   0.0526   0.00    0.0
2026/01/15 03:25:30.000   67.857350702   20.968454264   388.9013   6  10   0.0606   0.0439   0.1313  -0.0225  -0.0233   0.0525   0.00    0.0
2026/01/15 03:26:00.000   67.857350720   20.968454234   388.9048   6  10   0.0605   0.0439   0.1312  -0.0225  -0.0233   0.0525   0.00    0.0
2026/01/15 03:26:30.000   67.857350739   20.968454202   388.9085   6  10   0.0604   0.0438   0.1311  -0.0224  -0.0233   0.0525   0.00    0.0
2026/01/15 03:27:00.000   67.857350758   20.968454170   388.9116   6  10   0.0604   0.0438   0.1309  -0.0224  -0.0232   0.0524   0.00    0.0
2026/01/15 03:27:30.000   67.857350777   20.968454135   388.9148   6  10   0.0603   0.0437   0.1308  -0.0224  -0.0232   0.0524   0.00    0.0
2026/01/15 03:28:00.000   67.857350798   20.968454105   388.9177   6  10   0.0602   0.0437   0.1307  -0.0223  -0.0232   0.0524   0.00    0.0
2026/01/15 03:28:30.000   67.857350821   20.968454066   388.9212   6  10   0.0601   0.0436   0.1306  -0.0223  -0.0232   0.0523   0.00    0.0
2026/01/15 03:29:00.000   67.857350842   20.968454031   388.9244   6  10   0.0601   0.0435   0.1304  -0.0223  -0.0231   0.0523   0.00    0.0
