% program   : RTKPOST-EX 2.5.0
% inp file  : C:\PPP_PROJECT\New_Data\obs\RNXDATA\KIRU00SWE_R_20260150000_01D_30S_MO.rnx
% inp file  : C:\PPP_PROJECT\New_Data\nav\BRDC00IGS_R_20260150000_01D_MN.rnx
% obs start : 2026/01/15 00:00:00.0 GPST (week2401 345600.0s)
% obs end   : 2026/01/15 23:59:30.0 GPST (week2401 431970.0s)
% pos mode  : PPP Static
% freqs     : L1+L2/E5b
% solution  : Forward
% elev mask : 15.0 deg
% dynamics  : on
% tidecorr  :
% ionos opt : Broadcast
% tropo opt : Saastamoinen
% ephemeris : Broadcast
% navi sys  : GPS
% antenna1  :                       ( 0.0000  0.0000  0.0000)
%
% (lat/lon/height=WGS84/ellipsoidal,Q=1:fix,2:float,3:sbas,4:dgps,5:single,6:ppp,ns=# of satellites)
%  GPST                  latitude(deg) longitude(deg)  height(m)   Q  ns   sdn(m)   sde(m)   sdu(m)  sdne(m)  sdeu(m)  sdun(m) age(s)  ratio
2026/01/15 00:24:30.000   67.857333162   20.968481230   383.2053   6   4   0.2320   0.2148   0.6135  -0.1096  -0.2095   0.1818   0.00    0.0
2026/01/15 00:56:00.000   67.857333907   20.968492176   382.6087   6   4   0.1770   0.1555   0.4550  -0.0982  -0.1657   0.1855   0.00    0.0
2026/01/15 01:23:00.000   67.857345360   20.968476555   384.8752   6   4   0.1559   0.1218   0.3792  -0.0727  -0.1038   0.1673   0.00    0.0
2026/01/15 01:23:30.000   67.857345570   20.968476292   384.9192   6   4   0.1556   0.1213   0.3780  -0.0723  -0.1027   0.1669   0.00    0.0
2026/01/15 01:24:00.000   67.857345774   20.968476023   384.9633   6   4   0.1552   0.1208   0.3769  -0.0719  -0.1017   0.1666   0.00    0.0
2026/01/15 01:24:30.000   67.857345975   20.968475754   385.0074   6   4   0.1549   0.1204   0.3758  -0.0714  -0.1006   0.1663   0.00    0.0
2026/01/15 01:25:00.000   67.857346171   20.968475446   385.0580   6   4   0.1546   0.1199   0.3748  -0.0710  -0.0997   0.1659   0.00    0.0
2026/01/15 01:25:30.000   67.857346351   20.968475213   385.1028   6   4   0.1543   0.1195   0.3739  -0.0706  -0.0987   0.1655   0.00    0.0
2026/01/15 01:26:30.000   67.857346727   20.968474690   385.1975   6   4   0.1537   0.1187   0.3720  -0.0697  -0.0969   0.1647   0.00    0.0
2026/01/15 01:27:30.000   67.857347092   20.968474180   385.2899   6   4   0.1531   0.1178   0.3702  -0.0689  -0.0951   0.1639   0.00    0.0
2026/01/15 01:28:00.000   67.857347277   20.968473911   385.3366   6   4   0.1528   0.1174   0.3693  -0.0684  -0.0941   0.1635   0.00    0.0
2026/01/15 01:28:30.000   67.857347451   20.968473669   385.3817   6   4   0.1525   0.1170   0.3684  -0.0680  -0.0932   0.1631   0.00    0.0
2026/01/15 01:31:00.000   67.857348316   20.968472498   385.6031   6   4   0.1510   0.1151   0.3639  -0.0660  -0.0887   0.1611   0.00    0.0
2026/01/15 01:31:30.000   67.857348485   20.968472286   385.6430   6   4   0.1507   0.1147   0.3630  -0.0656  -0.0879   0.1608   0.00    0.0
2026/01/15 01:32:30.000   67.857348841   20.968471826   385.7311   6   4   0.1501   0.1140   0.3613  -0.0649  -0.0861   0.1600   0.00    0.0
2026/01/15 01:33:00.000   67.857349009   20.968471616   385.7723   6   4   0.1499   0.1136   0.3604  -0.0645  -0.0852   0.1596   0.00    0.0
2026/01/15 01:33:30.000   67.857349186   20.968471378   385.8154   6   4   0.1496   0.1133   0.3595  -0.0641  -0.0843   0.1592   0.00    0.0
2026/01/15 01:34:00.000   67.857349354   20.968471170   385.8567   6   4   0.1493   0.1129   0.3586  -0.0637  -0.0835   0.1588   0.00    0.0
2026/01/15 01:35:00.000   67.857349675   20.968470774   385.9362   6   4   0.1487   0.1122   0.3569  -0.0630  -0.0818   0.1581   0.00    0.0
2026/01/15 01:35:30.000   67.857349818   20.968470622   385.9716   6   4   0.1484   0.1119   0.3560  -0.0627  -0.0809   0.1577   0.00    0.0
2026/01/15 01:36:00.000   67.857349979   20.968470413   386.0115   6   4   0.1481   0.1116   0.3552  -0.0623  -0.0800   0.1573   0.00    0.0
2026/01/15 01:36:30.000   67.857350141   20.968470203   386.0524   6   4   0.1478   0.1112   0.3543  -0.0620  -0.0792   0.1569   0.00    0.0
2026/01/15 01:37:00.000   67.857350304   20.968469986   386.0931   6   4   0.1476   0.1109   0.3535  -0.0616  -0.0783   0.1565   0.00    0.0
2026/01/15 01:37:30.000   67.857350464   20.968469774   386.1323   6   4   0.1473   0.1106   0.3526  -0.0613  -0.0775   0.1561   0.00    0.0
2026/01/15 01:38:30.000   67.857350769   20.968469401   386.2105   6   4   0.1467   0.1099   0.3509  -0.0606  -0.0758   0.1553   0.00    0.0
2026/01/15 01:39:00.000   67.857350912   20.968469219   386.2501   6   4   0.1464   0.1096   0.3501  -0.0603  -0.0750   0.1550   0.00    0.0
2026/01/15 01:39:30.000   67.857351059   20.968469024   386.2875   6   4   0.1462   0.1093   0.3492  -0.0599  -0.0742   0.1546   0.00    0.0
2026/01/15 01:40:00.000   67.857351219   20.968468842   386.3251   6   4   0.1459   0.1090   0.3484  -0.0596  -0.0733   0.1542   0.00    0.0
2026/01/15 01:40:30.000   67.857351377   20.968468627   386.3644   6   4   0.1456   0.1087   0.3475  -0.0593  -0.0725   0.1538   0.00    0.0
2026/01/15 01:41:00.000   67.857351523   20.968468464   386.3988   6   4   0.1453   0.1084   0.3467  -0.0590  -0.0717   0.1534   0.00    0.0
2026/01/15 01:41:30.000   67.857351666   20.968468300   386.4362   6   4   0.1450   0.1081   0.3459  -0.0586  -0.0709   0.1530   0.00    0.0
2026/01/15 01:42:00.000   67.857351811   20.968468115   386.4735   6   4   0.1448   0.1078   0.3450  -0.0583  -0.0700   0.1526   0.00    0.0
2026/01/15 01:42:30.000   67.857351946   20.968467941   386.5083   6   4   0.1445   0.1075   0.3442  -0.0580  -0.0692   0.1522   0.00    0.0
2026/01/15 01:43:00.000   67.857352087   20.968467773   386.5452   6   4   0.1442   0.1072   0.3433  -0.0577  -0.0684   0.1518   0.00    0.0
2026/01/15 01:43:30.000   67.857352222   20.968467621   386.5800   6   4   0.1439   0.1070   0.3425  -0.0574  -0.0676   0.1514   0.00    0.0
2026/01/15 01:44:00.000   67.857352345   20.968467463   386.6135   6   4   0.1436   0.1067   0.3416  -0.0571  -0.0668   0.1510   0.00    0.0
2026/01/15 01:44:30.000   67.857352483   20.968467311   386.6482   6   4   0.1434   0.1064   0.3408  -0.0568  -0.0660   0.1506   0.00    0.0
2026/01/15 01:45:00.000   67.857352609   20.968467178   386.6790   6   4   0.1431   0.1061   0.3400  -0.0566  -0.0652   0.1502   0.00    0.0
2026/01/15 01:45:30.000   67.857352744   20.968467036   386.7131   6   4   0.1428   0.1059   0.3391  -0.0563  -0.0644   0.1498   0.00    0.0
2026/01/15 01:46:00.000   67.857352872   20.968466900   386.7472   6   4   0.1425   0.1056   0.3383  -0.0560  -0.0636   0.1494   0.00    0.0
2026/01/15 01:46:30.000   67.857352994   20.968466763   386.7787   6   4   0.1423   0.1053   0.3374  -0.0557  -0.0628   0.1490   0.00    0.0
2026/01/15 01:47:00.000   67.857353120   20.968466621   386.8098   6   4   0.1420   0.1051   0.3366  -0.0554  -0.0621   0.1486   0.00    0.0
2026/01/15 01:47:30.000   67.857353246   20.968466494   386.8402   6   4   0.1417   0.1048   0.3358  -0.0552  -0.0613   0.1482   0.00    0.0
2026/01/15 01:48:00.000   67.857353364   20.968466367   386.8708   6   4   0.1415   0.1046   0.3349  -0.0549  -0.0605   0.1478   0.00    0.0
2026/01/15 01:48:30.000   67.857353482   20.968466243   386.8991   6   4   0.1412   0.1043   0.3341  -0.0546  -0.0597   0.1474   0.00    0.0
2026/01/15 01:49:00.000   67.857353596   20.968466139   386.9270   6   4   0.1409   0.1040   0.3332  -0.0544  -0.0590   0.1470   0.00    0.0
2026/01/15 01:49:30.000   67.857353724   20.968466025   386.9527   6   4   0.1406   0.1038   0.3323  -0.0541  -0.0582   0.1466   0.00    0.0
2026/01/15 01:50:00.000   67.857353857   20.968465903   386.9792   6   4   0.1403   0.1036   0.3314  -0.0538  -0.0575   0.1463   0.00    0.0
2026/01/15 01:50:30.000   67.857353982   20.968465800   387.0030   6   4   0.1400   0.1033   0.3305  -0.0536  -0.0568   0.1459   0.00    0.0
2026/01/15 01:51:00.000   67.857354110   20.968465681   387.0281   6   4   0.1397   0.1031   0.3297  -0.0533  -0.0561   0.1456   0.00    0.0
2026/01/15 01:51:30.000   67.857354238   20.968465551   387.0537   6   4   0.1394   0.1028   0.3288  -0.0531  -0.0553   0.1453   0.00    0.0
2026/01/15 01:52:00.000   67.857354375   20.968465412   387.0785   6   4   0.1391   0.1026   0.3279  -0.0528  -0.0546   0.1449   0.00    0.0
2026/01/15 01:52:30.000   67.857354511   20.968465292   387.1052   6   4   0.1387   0.1024   0.3270  -0.0526  -0.0539   0.1446   0.00    0.0
2026/01/15 01:53:00.000   67.857354634   20.968465176   387.1296   6   4   0.1384   0.1021   0.3261  -0.0523  -0.0532   0.1442   0.00    0.0
2026/01/15 01:53:30.000   67.857354759   20.968465059   387.1527   6   4   0.1381   0.1019   0.3252  -0.0521  -0.0525   0.1439   0.00    0.0
2026/01/15 01:54:00.000   67.857354885   20.968464947   387.1762   6   4   0.1378   0.1017   0.3243  -0.0518  -0.0518   0.1435   0.00    0.0
2026/01/15 01:54:30.000   67.857354998   20.968464826   387.1985   6   4   0.1375   0.1014   0.3234  -0.0516  -0.0511   0.1432   0.00    0.0
2026/01/15 01:55:00.000   67.857355128   20.968464712   387.2223   6   4   0.1372   0.1012   0.3225  -0.0513  -0.0505   0.1428   0.00    0.0
2026/01/15 01:55:30.000   67.857355257   20.968464582   387.2458   6   4   0.1369   0.1010   0.3217  -0.0511  -0.0498   0.1424   0.00    0.0
2026/01/15 01:56:00.000   67.857355375   20.968464460   387.2697   6   4   0.1366   0.1008   0.3208  -0.0509  -0.0491   0.1421   0.00    0.0
2026/01/15 01:56:30.000   67.857355497   20.968464341   387.2943   6   4   0.1363   0.1006   0.3199  -0.0507  -0.0484   0.1417   0.00    0.0
2026/01/15 01:57:00.000   67.857355616   20.968464231   387.3169   6   4   0.1360   0.1004   0.3190  -0.0504  -0.0478   0.1414   0.00    0.0
2026/01/15 01:57:30.000   67.857355743   20.968464053   387.3293   6   5   0.1357   0.1001   0.3181  -0.0502  -0.0474   0.1410   0.00    0.0
2026/01/15 01:58:00.000   67.857355865   20.968463886   387.3444   6   5   0.1354   0.0998   0.3171  -0.0500  -0.0470   0.1407   0.00    0.0
2026/01/15 01:58:30.000   67.857355978   20.968463727   387.3583   6   5   0.1351   0.0996   0.3161  -0.0497  -0.0466   0.1403   0.00    0.0
2026/01/15 01:59:00.000   67.857356089   20.968463567   387.3720   6   5   0.1348   0.0994   0.3151  -0.0495  -0.0462   0.1400   0.00    0.0
2026/01/15 01:59:30.000   67.857356204   20.968463399   387.3837   6   5   0.1345   0.0991   0.3142  -0.0493  -0.0458   0.1396   0.00    0.0
2026/01/15 02:00:00.000   67.857356296   20.968463224   387.3985   6   5   0.1342   0.0989   0.3132  -0.0490  -0.0454   0.1393   0.00    0.0
2026/01/15 02:00:30.000   67.857356403   20.968463052   387.4131   6   5   0.1339   0.0986   0.3123  -0.0488  -0.0450   0.1389   0.00    0.0
2026/01/15 02:01:00.000   67.857356499   20.968462864   387.4274   6   5   0.1336   0.0984   0.3113  -0.0486  -0.0447   0.1386   0.00    0.0
2026/01/15 02:01:30.000   67.857356603   20.968462693   387.4415   6   5   0.1333   0.0982   0.3104  -0.0483  -0.0443   0.1382   0.00    0.0
2026/01/15 02:02:00.000   67.857356705   20.968462510   387.4563   6   5   0.1330   0.0980   0.3095  -0.0481  -0.0439   0.1379   0.00    0.0
2026/01/15 02:02:30.000   67.857356788   20.968462372   387.4627   6   5   0.1327   0.0977   0.3084  -0.0478  -0.0433   0.1374   0.00    0.0
2026/01/15 02:03:00.000   67.857356862   20.968462228   387.4684   6   5   0.1324   0.0975   0.3073  -0.0475  -0.0427   0.1370   0.00    0.0
2026/01/15 02:03:30.000   67.857356938   20.968462093   387.4751   6   5   0.1321   0.0972   0.3063  -0.0472  -0.0421   0.1366   0.00    0.0
2026/01/15 02:04:00.000   67.857357002   20.968461965   387.4777   6   5   0.1318   0.0970   0.3052  -0.0469  -0.0415   0.1361   0.00    0.0
2026/01/15 02:04:30.000   67.857357081   20.968461821   387.4859   6   5   0.1315   0.0967   0.3042  -0.0467  -0.0409   0.1357   0.00    0.0
2026/01/15 02:05:00.000   67.857357162   20.968461673   387.4946   6   5   0.1312   0.0965   0.3031  -0.0464  -0.0403   0.1353   0.00    0.0
2026/01/15 02:05:30.000   67.857357242   20.968461533   387.4998   6   5   0.1309   0.0962   0.3021  -0.0461  -0.0398   0.1348   0.00    0.0
2026/01/15 02:06:00.000   67.857357319   20.968461388   387.5059   6   5   0.1306   0.0960   0.3011  -0.0458  -0.0392   0.1344   0.00    0.0
2026/01/15 02:06:30.000   67.857357394   20.968461232   387.5100   6   5   0.1303   0.0958   0.3001  -0.0456  -0.0386   0.1340   0.00    0.0
2026/01/15 02:07:00.000   67.857357465   20.968461079   387.5176   6   5   0.1300   0.0955   0.2991  -0.0453  -0.0381   0.1336   0.00    0.0
2026/01/15 02:07:30.000   67.857357539   20.968460934   387.5269   6   5   0.1297   0.0953   0.2981  -0.0450  -0.0375   0.1332   0.00    0.0
2026/01/15 02:08:00.000   67.857357602   20.968460785   387.5326   6   5   0.1294   0.0950   0.2971  -0.0448  -0.0370   0.1328   0.00    0.0
2026/01/15 02:08:30.000   67.857357601   20.968460658   387.5247   6   5   0.1290   0.0948   0.2959  -0.0445  -0.0364   0.1321   0.00    0.0
2026/01/15 02:09:00.000   67.857357594   20.968460545   387.5146   6   5   0.1286   0.0946   0.2947  -0.0443  -0.0359   0.1314   0.00    0.0
2026/01/15 02:09:30.000   67.857357584   20.968460412   387.5012   6   5   0.1282   0.0944   0.2935  -0.0440  -0.0354   0.1308   0.00    0.0
2026/01/15 02:10:00.000   67.857357579   20.968460291   387.4934   6   5   0.1278   0.0941   0.2924  -0.0438  -0.0349   0.1301   0.00    0.0
2026/01/15 02:10:30.000   67.857357550   20.968460182   387.4782   6   5   0.1274   0.0939   0.2912  -0.0435  -0.0344   0.1295   0.00    0.0
2026/01/15 02:11:00.000   67.857357522   20.968460079   387.4651   6   5   0.1270   0.0937   0.2901  -0.0433  -0.0339   0.1289   0.00    0.0
2026/01/15 02:11:30.000   67.857357523   20.968459946   387.4589   6   5   0.1266   0.0934   0.2890  -0.0430  -0.0334   0.1283   0.00    0.0
2026/01/15 02:12:00.000   67.857357504   20.968459823   387.4451   6   4   0.1263   0.0932   0.2881  -0.0429  -0.0333   0.1279   0.00    0.0
2026/01/15 02:12:30.000   67.857357487   20.968459699   387.4335   6   4   0.1260   0.0930   0.2873  -0.0428  -0.0331   0.1276   0.00    0.0
2026/01/15 18:48:30.000   67.857356025   20.968457024   388.8372   6   4   0.0444   0.0340   0.1041  -0.0074   0.0117   0.0433   0.00    0.0
2026/01/15 18:49:30.000   67.857356030   20.968457037   388.8303   6   4   0.0444   0.0339   0.1040  -0.0074   0.0117   0.0433   0.00    0.0
2026/01/15 18:50:00.000   67.857356032   20.968457044   388.8265   6   4   0.0444   0.0339   0.1040  -0.0075   0.0117   0.0433   0.00    0.0
2026/01/15 18:50:30.000   67.857356033   20.968457049   388.8229   6   4   0.0444   0.0339   0.1040  -0.0075   0.0117   0.0433   0.00    0.0
2026/01/15 18:51:00.000   67.857356035   20.968457056   388.8193   6   4   0.0444   0.0339   0.1039  -0.0075   0.0117   0.0433   0.00    0.0
2026/01/15 18:51:30.000   67.857356037   20.968457063   388.8156   6   4   0.0444   0.0339   0.1039  -0.0075   0.0117   0.0433   0.00    0.0
2026/01/15 18:52:30.000   67.857356042   20.968457071   388.8083   6   4   0.0444   0.0339   0.1039  -0.0075   0.0117   0.0433   0.00    0.0
2026/01/15 18:53:00.000   67.857356045   20.968457077   388.8048   6   4   0.0443   0.0339   0.1038  -0.0075   0.0117   0.0433   0.00    0.0
2026/01/15 18:53:30.000   67.857356047   20.968457081   388.8013   6   4   0.0443   0.0339   0.1038  -0.0075   0.0117   0.0433   0.00    0.0
2026/01/15 18:55:00.000   67.857356055   20.968457096   388.7909   6   4   0.0443   0.0339   0.1037  -0.0075   0.0117   0.0433   0.00    0.0
2026/01/15 18:55:30.000   67.857356059   20.968457100   388.7875   6   4   0.0443   0.0339   0.1037  -0.0075   0.0117   0.0433   0.00    0.0
2026/01/15 19:12:00.000   67.857356225   20.968456945   388.6879   6   4   0.0441   0.0337   0.1031  -0.0078   0.0115   0.0431   0.00    0.0
2026/01/15 19:12:30.000   67.857356232   20.968456935   388.6854   6   4   0.0441   0.0337   0.1031  -0.0078   0.0115   0.0431   0.00    0.0
2026/01/15 19:13:00.000   67.857356240   20.968456923   388.6828   6   4   0.0441   0.0336   0.1031  -0.0078   0.0115   0.0431   0.00    0.0
2026/01/15 19:13:30.000   67.857356246   20.968456914   388.6803   6   4   0.0441   0.0336   0.1030  -0.0078   0.0115   0.0431   0.00    0.0
2026/01/15 19:14:00.000   67.857356253   20.968456903   388.6778   6   4   0.0441   0.0336   0.1030  -0.0078   0.0115   0.0431   0.00    0.0
2026/01/15 20:06:30.000   67.857357498   20.968454601   388.6834   6   4   0.0427   0.0329   0.0999  -0.0070   0.0116   0.0416   0.00    0.0
2026/01/15 20:07:00.000   67.857357515   20.968454567   388.6869   6   4   0.0426   0.0329   0.0999  -0.0070   0.0116   0.0415   0.00    0.0
2026/01/15 20:07:30.000   67.857357532   20.968454532   388.6903   6   4   0.0426   0.0329   0.0998  -0.0070   0.0116   0.0415   0.00    0.0
2026/01/15 20:08:00.000   67.857357549   20.968454496   388.6935   6   4   0.0426   0.0329   0.0998  -0.0070   0.0116   0.0415   0.00    0.0
2026/01/15 20:08:30.000   67.857357565   20.968454458   388.6970   6   4   0.0426   0.0329   0.0998  -0.0070   0.0116   0.0415   0.00    0.0
2026/01/15 20:09:00.000   67.857357582   20.968454420   388.7002   6   4   0.0426   0.0328   0.0997  -0.0069   0.0116   0.0414   0.00    0.0
2026/01/15 20:10:00.000   67.857357615   20.968454349   388.7066   6   4   0.0425   0.0328   0.0996  -0.0069   0.0117   0.0414   0.00    0.0
2026/01/15 20:10:30.000   67.857357631   20.968454311   388.7102   6   4   0.0425   0.0328   0.0996  -0.0069   0.0117   0.0414   0.00    0.0
2026/01/15 20:11:00.000   67.857357648   20.968454272   388.7139   6   4   0.0425   0.0328   0.0996  -0.0069   0.0117   0.0413   0.00    0.0
2026/01/15 20:11:30.000   67.857357665   20.968454234   388.7178   6   4   0.0425   0.0328   0.0995  -0.0069   0.0117   0.0413   0.00    0.0
2026/01/15 20:18:30.000   67.857357880   20.968453724   388.7805   6   4   0.0422   0.0327   0.0989  -0.0066   0.0119   0.0409   0.00    0.0
2026/01/15 20:19:00.000   67.857357894   20.968453687   388.7855   6   4   0.0422   0.0327   0.0989  -0.0066   0.0119   0.0409   0.00    0.0
2026/01/15 20:22:00.000   67.857357983   20.968453466   388.8160   6   4   0.0420   0.0326   0.0986  -0.0065   0.0119   0.0407   0.00    0.0
2026/01/15 20:22:30.000   67.857357997   20.968453432   388.8209   6   4   0.0420   0.0326   0.0986  -0.0065   0.0120   0.0407   0.00    0.0
2026/01/15 20:23:00.000   67.857358011   20.968453398   388.8259   6   4   0.0420   0.0326   0.0985  -0.0065   0.0120   0.0407   0.00    0.0
2026/01/15 20:23:30.000   67.857358027   20.968453363   388.8314   6   4   0.0420   0.0326   0.0985  -0.0065   0.0120   0.0406   0.00    0.0
2026/01/15 20:24:00.000   67.857358041   20.968453328   388.8367   6   4   0.0420   0.0326   0.0984  -0.0065   0.0120   0.0406   0.00    0.0
2026/01/15 20:24:30.000   67.857358055   20.968453295   388.8420   6   4   0.0419   0.0326   0.0984  -0.0065   0.0120   0.0406   0.00    0.0
2026/01/15 20:25:00.000   67.857358069   20.968453260   388.8471   6   4   0.0419   0.0326   0.0984  -0.0064   0.0120   0.0406   0.00    0.0
2026/01/15 20:25:30.000   67.857358080   20.968453227   388.8516   6   4   0.0419   0.0326   0.0983  -0.0064   0.0120   0.0405   0.00    0.0
2026/01/15 20:26:00.000   67.857358094   20.968453195   388.8567   6   4   0.0419   0.0325   0.0983  -0.0064   0.0120   0.0405   0.00    0.0
2026/01/15 20:26:30.000   67.857358108   20.968453163   388.8616   6   4   0.0419   0.0325   0.0982  -0.0064   0.0120   0.0405   0.00    0.0
2026/01/15 20:27:00.000   67.857358121   20.968453131   388.8667   6   4   0.0419   0.0325   0.0982  -0.0064   0.0121   0.0404   0.00    0.0
2026/01/15 20:27:30.000   67.857358134   20.968453093   388.8718   6   4   0.0418   0.0325   0.0981  -0.0064   0.0121   0.0404   0.00    0.0
2026/01/15 20:28:00.000   67.857358148   20.968453059   388.8769   6   4   0.0418   0.0325   0.0981  -0.0063   0.0121   0.0404   0.00    0.0
2026/01/15 20:28:30.000   67.857358163   20.968453024   388.8821   6   4   0.0418   0.0325   0.0980  -0.0063   0.0121   0.0403   0.00    0.0
2026/01/15 20:29:00.000   67.857358175   20.968452993   388.8869   6   4   0.0418   0.0325   0.0980  -0.0063   0.0121   0.0403   0.00    0.0
