% program   : RTKPOST-EX 2.5.0
% inp file  : C:\PPP_PROJECT\New_Data\obs\RNXDATA\WUH200CHN_R_20260150000_01D_30S_MO.rnx
% inp file  : C:\PPP_PROJECT\New_Data\nav\BRDC00IGS_R_20260150000_01D_MN.rnx
% obs start : 2026/01/15 00:00:00.0 GPST (week2401 345600.0s)
% obs end   : 2026/01/15 23:59:30.0 GPST (week2401 431970.0s)
% pos mode  : PPP Static
% freqs     : L1+L2/E5b
% solution  : Forward
% elev mask : 15.0 deg
% dynamics  : on
% tidecorr  :
% ionos opt : Broadcast
% tropo opt : Saastamoinen
% ephemeris : Broadcast
% navi sys  : GPS GLONASS Galileo QZSS BDS NavIC SBAS
% antenna1  :                       ( 0.0000  0.0000  0.0000)
%
% (lat/lon/height=WGS84/ellipsoidal,Q=1:fix,2:float,3:sbas,4:dgps,5:single,6:ppp,ns=# of satellites)
%  GPST                  latitude(deg) longitude(deg)  height(m)   Q  ns   sdn(m)   sde(m)   sdu(m)  sdne(m)  sdeu(m)  sdun(m) age(s)  ratio
2026/01/15 00:00:00.000   30.531690736  114.357262181    25.5732   6   5   1.1944   1.1602   2.8683   0.4550   0.6445  -0.9110   0.00    0.0
2026/01/15 00:00:30.000   30.531691613  114.357260962    25.4412   6   6   0.8447   0.8211   2.0302   0.3210   0.4591  -0.6438   0.00    0.0
2026/01/15 00:01:00.000   30.531691516  114.357260693    25.5859   6   6   0.6896   0.6705   1.6576   0.2614   0.3755  -0.5252   0.00    0.0
2026/01/15 00:01:30.000   30.531691364  114.357260976    25.7401   6   7   0.5971   0.5811   1.4362   0.2259   0.3273  -0.4542   0.00    0.0
2026/01/15 00:02:00.000   30.531691566  114.357261037    25.7935   6   6   0.5340   0.5202   1.2850   0.2019   0.2946  -0.4056   0.00    0.0
2026/01/15 00:02:30.000   30.531691579  114.357261207    25.8222   6   6   0.4874   0.4753   1.1734   0.1841   0.2706  -0.3697   0.00    0.0
2026/01/15 00:03:00.000   30.531691951  114.357261471    25.7824   6   6   0.4512   0.4404   1.0867   0.1703   0.2520  -0.3417   0.00    0.0
2026/01/15 00:03:30.000   30.531691983  114.357261624    25.7909   6   6   0.4221   0.4124   1.0168   0.1593   0.2372  -0.3191   0.00    0.0
2026/01/15 00:04:00.000   30.531692219  114.357261814    25.7820   6   6   0.3979   0.3893   0.9589   0.1502   0.2249  -0.3003   0.00    0.0
2026/01/15 00:04:30.000   30.531692130  114.357261806    25.8061   6   7   0.3775   0.3697   0.9099   0.1425   0.2146  -0.2844   0.00    0.0
2026/01/15 00:05:00.000   30.531692228  114.357261961    25.8149   6   6   0.3599   0.3528   0.8678   0.1358   0.2058  -0.2706   0.00    0.0
2026/01/15 00:05:30.000   30.531692110  114.357261972    25.8212   6   7   0.3445   0.3378   0.8299   0.1295   0.1965  -0.2594   0.00    0.0
2026/01/15 00:06:00.000   30.531691971  114.357261869    25.8093   6   6   0.3308   0.3243   0.7959   0.1236   0.1875  -0.2497   0.00    0.0
2026/01/15 00:06:30.000   30.531691763  114.357261678    25.7554   6   6   0.3186   0.3124   0.7659   0.1185   0.1797  -0.2410   0.00    0.0
2026/01/15 00:07:00.000   30.531691674  114.357261587    25.7169   6   6   0.3077   0.3018   0.7390   0.1139   0.1729  -0.2331   0.00    0.0
2026/01/15 00:07:30.000   30.531691582  114.357261666    25.7416   6   6   0.2978   0.2922   0.7148   0.1098   0.1670  -0.2259   0.00    0.0
2026/01/15 00:08:00.000   30.531691451  114.357261587    25.6961   6   6   0.2885   0.2830   0.6912   0.1050   0.1592  -0.2208   0.00    0.0
2026/01/15 00:08:30.000   30.531691329  114.357261472    25.6483   6   7   0.2800   0.2746   0.6699   0.1007   0.1524  -0.2159   0.00    0.0
2026/01/15 00:09:00.000   30.531691245  114.357261543    25.6074   6   6   0.2722   0.2670   0.6504   0.0968   0.1464  -0.2113   0.00    0.0
2026/01/15 00:09:30.000   30.531691071  114.357261786    25.6354   6   7   0.2648   0.2594   0.6310   0.0944   0.1374  -0.2044   0.00    0.0
2026/01/15 00:10:00.000   30.531690947  114.357261858    25.6544   6   6   0.2580   0.2524   0.6124   0.0921   0.1297  -0.1989   0.00    0.0
2026/01/15 00:10:30.000   30.531690861  114.357261750    25.6059   6   7   0.2518   0.2465   0.5975   0.0891   0.1259  -0.1951   0.00    0.0
2026/01/15 00:11:00.000   30.531690782  114.357261699    25.5732   6   7   0.2461   0.2410   0.5837   0.0863   0.1224  -0.1915   0.00    0.0
2026/01/15 00:11:30.000   30.531690712  114.357261698    25.5565   6   8   0.2407   0.2359   0.5708   0.0837   0.1193  -0.1881   0.00    0.0
2026/01/15 00:12:00.000   30.531690667  114.357261687    25.5085   6   7   0.2357   0.2311   0.5588   0.0813   0.1165  -0.1848   0.00    0.0
2026/01/15 00:12:30.000   30.531690609  114.357261652    25.5072   6   8   0.2310   0.2266   0.5475   0.0791   0.1139  -0.1816   0.00    0.0
2026/01/15 00:13:00.000   30.531690586  114.357261763    25.5497   6   7   0.2264   0.2225   0.5374   0.0765   0.1124  -0.1792   0.00    0.0
2026/01/15 00:13:30.000   30.531690575  114.357261767    25.5347   6   8   0.2221   0.2183   0.5267   0.0741   0.1091  -0.1768   0.00    0.0
2026/01/15 00:14:00.000   30.531690555  114.357261766    25.5156   6   7   0.2180   0.2144   0.5171   0.0718   0.1058  -0.1744   0.00    0.0
2026/01/15 00:14:30.000   30.531690497  114.357261761    25.4955   6   7   0.2142   0.2107   0.5079   0.0697   0.1027  -0.1720   0.00    0.0
2026/01/15 00:15:00.000   30.531690491  114.357261739    25.4589   6   7   0.2105   0.2072   0.4992   0.0677   0.0999  -0.1697   0.00    0.0
2026/01/15 00:15:30.000   30.531690418  114.357261868    25.4679   6   7   0.2069   0.2036   0.4900   0.0664   0.0958  -0.1667   0.00    0.0
2026/01/15 00:16:00.000   30.531690314  114.357262014    25.4979   6   8   0.2034   0.2005   0.4821   0.0651   0.0934  -0.1638   0.00    0.0
2026/01/15 00:16:30.000   30.531690225  114.357262053    25.5103   6   9   0.2001   0.1973   0.4739   0.0640   0.0899  -0.1611   0.00    0.0
2026/01/15 00:17:00.000   30.531690152  114.357262154    25.5252   6   8   0.1970   0.1944   0.4663   0.0626   0.0871  -0.1587   0.00    0.0
2026/01/15 00:17:30.000   30.531690086  114.357262248    25.5326   6   9   0.1940   0.1915   0.4592   0.0614   0.0845  -0.1564   0.00    0.0
2026/01/15 00:18:00.000   30.531689960  114.357262367    25.5514   6   8   0.1912   0.1888   0.4521   0.0604   0.0816  -0.1540   0.00    0.0
2026/01/15 00:18:30.000   30.531689878  114.357262564    25.5713   6   8   0.1884   0.1861   0.4453   0.0594   0.0789  -0.1517   0.00    0.0
2026/01/15 00:19:00.000   30.531689794  114.357262698    25.5837   6   8   0.1858   0.1836   0.4388   0.0585   0.0764  -0.1495   0.00    0.0
2026/01/15 00:19:30.000   30.531689771  114.357262713    25.5696   6   9   0.1833   0.1813   0.4333   0.0571   0.0752  -0.1479   0.00    0.0
2026/01/15 00:20:00.000   30.531689733  114.357262838    25.5744   6   8   0.1809   0.1790   0.4273   0.0563   0.0730  -0.1458   0.00    0.0
2026/01/15 00:20:30.000   30.531689674  114.357262872    25.5723   6   9   0.1785   0.1767   0.4216   0.0555   0.0709  -0.1438   0.00    0.0
2026/01/15 00:21:00.000   30.531689588  114.357262887    25.5696   6   8   0.1763   0.1746   0.4162   0.0547   0.0690  -0.1419   0.00    0.0
2026/01/15 00:21:30.000   30.531689519  114.357262891    25.5648   6   9   0.1741   0.1725   0.4109   0.0539   0.0672  -0.1400   0.00    0.0
2026/01/15 00:22:00.000   30.531689445  114.357262903    25.5622   6   8   0.1720   0.1705   0.4059   0.0531   0.0655  -0.1382   0.00    0.0
2026/01/15 00:22:30.000   30.531689362  114.357262967    25.5634   6   8   0.1700   0.1686   0.4010   0.0524   0.0639  -0.1365   0.00    0.0
2026/01/15 00:23:00.000   30.531689281  114.357262997    25.5571   6   8   0.1680   0.1668   0.3964   0.0517   0.0624  -0.1349   0.00    0.0
2026/01/15 00:23:30.000   30.531689210  114.357263048    25.5649   6   9   0.1661   0.1650   0.3919   0.0510   0.0610  -0.1333   0.00    0.0
2026/01/15 00:24:00.000   30.531689138  114.357263057    25.5708   6   8   0.1643   0.1633   0.3875   0.0503   0.0596  -0.1317   0.00    0.0
2026/01/15 00:24:30.000   30.531689072  114.357263093    25.5774   6   9   0.1625   0.1616   0.3833   0.0496   0.0584  -0.1302   0.00    0.0
2026/01/15 00:25:00.000   30.531689016  114.357263167    25.5864   6   8   0.1607   0.1600   0.3791   0.0490   0.0571  -0.1289   0.00    0.0
2026/01/15 00:25:30.000   30.531688980  114.357263248    25.5959   6   8   0.1590   0.1584   0.3750   0.0483   0.0559  -0.1276   0.00    0.0
2026/01/15 00:26:00.000   30.531688923  114.357263304    25.6037   6   8   0.1574   0.1569   0.3711   0.0477   0.0548  -0.1264   0.00    0.0
2026/01/15 00:26:30.000   30.531688872  114.357263331    25.6115   6   8   0.1558   0.1554   0.3672   0.0471   0.0538  -0.1252   0.00    0.0
2026/01/15 00:27:00.000   30.531688825  114.357263379    25.6246   6   8   0.1542   0.1540   0.3634   0.0465   0.0529  -0.1241   0.00    0.0
2026/01/15 00:27:30.000   30.531688813  114.357263413    25.6307   6   9   0.1527   0.1526   0.3597   0.0459   0.0521  -0.1230   0.00    0.0
2026/01/15 00:28:00.000   30.531688774  114.357263458    25.6416   6   8   0.1512   0.1512   0.3563   0.0454   0.0514  -0.1218   0.00    0.0
2026/01/15 00:28:30.000   30.531688771  114.357263500    25.6395   6   8   0.1498   0.1499   0.3529   0.0449   0.0507  -0.1206   0.00    0.0
2026/01/15 00:29:00.000   30.531688766  114.357263572    25.6424   6   8   0.1485   0.1486   0.3497   0.0444   0.0501  -0.1195   0.00    0.0
2026/01/15 00:29:30.000   30.531688756  114.357263647    25.6479   6   9   0.1471   0.1474   0.3466   0.0439   0.0496  -0.1184   0.00    0.0
2026/01/15 00:30:00.000   30.531688754  114.357263702    25.6477   6   8   0.1458   0.1462   0.3435   0.0435   0.0490  -0.1173   0.00    0.0
2026/01/15 00:30:30.000   30.531688756  114.357263747    25.6565   6   8   0.1446   0.1450   0.3406   0.0430   0.0486  -0.1162   0.00    0.0
2026/01/15 00:31:00.000   30.531688746  114.357263809    25.6725   6   9   0.1434   0.1439   0.3377   0.0426   0.0481  -0.1152   0.00    0.0
2026/01/15 00:31:30.000   30.531688727  114.357263821    25.6855   6  10   0.1422   0.1428   0.3349   0.0421   0.0477  -0.1142   0.00    0.0
2026/01/15 00:32:00.000   30.531688718  114.357263877    25.6950   6   9   0.1410   0.1417   0.3322   0.0417   0.0472  -0.1132   0.00    0.0
2026/01/15 00:32:30.000   30.531688688  114.357263898    25.7053   6   9   0.1398   0.1406   0.3295   0.0412   0.0469  -0.1123   0.00    0.0
2026/01/15 00:33:00.000   30.531688683  114.357263947    25.7159   6   9   0.1387   0.1396   0.3270   0.0408   0.0465  -0.1114   0.00    0.0
2026/01/15 00:33:30.000   30.531688673  114.357264004    25.7296   6  10   0.1376   0.1386   0.3244   0.0404   0.0462  -0.1105   0.00    0.0
2026/01/15 00:34:00.000   30.531688659  114.357264053    25.7391   6   9   0.1366   0.1376   0.3220   0.0400   0.0459  -0.1096   0.00    0.0
2026/01/15 00:34:30.000   30.531688662  114.357264095    25.7484   6   9   0.1355   0.1366   0.3196   0.0396   0.0456  -0.1087   0.00    0.0
2026/01/15 00:35:00.000   30.531688667  114.357264108    25.7598   6   9   0.1345   0.1357   0.3173   0.0392   0.0453  -0.1079   0.00    0.0
2026/01/15 00:35:30.000   30.531688657  114.357264148    25.7695   6  11   0.1335   0.1348   0.3150   0.0389   0.0451  -0.1070   0.00    0.0
2026/01/15 00:36:00.000   30.531688641  114.357264174    25.7850   6  10   0.1326   0.1339   0.3127   0.0385   0.0449  -0.1062   0.00    0.0
2026/01/15 00:36:30.000   30.531688629  114.357264228    25.7886   6  11   0.1316   0.1330   0.3106   0.0381   0.0446  -0.1054   0.00    0.0
2026/01/15 00:37:00.000   30.531688597  114.357264251    25.7996   6  10   0.1307   0.1321   0.3085   0.0377   0.0444  -0.1046   0.00    0.0
2026/01/15 00:37:30.000   30.531688562  114.357264286    25.8126   6  10   0.1298   0.1313   0.3064   0.0374   0.0442  -0.1039   0.00    0.0
2026/01/15 00:38:00.000   30.531688541  114.357264327    25.8241   6   9   0.1289   0.1305   0.3044   0.0370   0.0439  -0.1031   0.00    0.0
2026/01/15 00:38:30.000   30.531688502  114.357264349    25.8304   6   9   0.1280   0.1297   0.3025   0.0366   0.0437  -0.1023   0.00    0.0
2026/01/15 00:39:00.000   30.531688478  114.357264400    25.8398   6   9   0.1272   0.1289   0.3006   0.0363   0.0435  -0.1016   0.00    0.0
2026/01/15 00:39:30.000   30.531688437  114.357264427    25.8472   6  10   0.1263   0.1281   0.2987   0.0359   0.0433  -0.1009   0.00    0.0
2026/01/15 00:40:00.000   30.531688407  114.357264476    25.8542   6   9   0.1255   0.1274   0.2969   0.0356   0.0431  -0.1002   0.00    0.0
2026/01/15 00:40:30.000   30.531688379  114.357264515    25.8574   6  10   0.1247   0.1266   0.2951   0.0352   0.0430  -0.0995   0.00    0.0
2026/01/15 00:41:00.000   30.531688357  114.357264552    25.8581   6   9   0.1239   0.1259   0.2934   0.0349   0.0428  -0.0988   0.00    0.0
2026/01/15 00:41:30.000   30.531688365  114.357264614    25.8551   6  10   0.1232   0.1252   0.2919   0.0347   0.0424  -0.0983   0.00    0.0
2026/01/15 00:42:00.000   30.531688364  114.357264645    25.8533   6   9   0.1225   0.1245   0.2904   0.0344   0.0421  -0.0979   0.00    0.0
2026/01/15 00:42:30.000   30.531688359  114.357264705    25.8507   6  10   0.1218   0.1239   0.2889   0.0342   0.0417  -0.0974   0.00    0.0
2026/01/15 00:43:00.000   30.531688363  114.357264768    25.8505   6   9   0.1211   0.1232   0.2875   0.0340   0.0414  -0.0970   0.00    0.0
2026/01/15 00:43:30.000   30.531688354  114.357264817    25.8510   6  10   0.1205   0.1226   0.2861   0.0338   0.0411  -0.0965   0.00    0.0
2026/01/15 00:44:00.000   30.531688345  114.357264864    25.8504   6   9   0.1198   0.1219   0.2847   0.0335   0.0408  -0.0961   0.00    0.0
2026/01/15 00:44:30.000   30.531688341  114.357264914    25.8464   6  10   0.1191   0.1213   0.2833   0.0333   0.0406  -0.0957   0.00    0.0
2026/01/15 00:45:00.000   30.531688342  114.357264971    25.8468   6   9   0.1185   0.1207   0.2820   0.0331   0.0403  -0.0953   0.00    0.0
2026/01/15 00:45:30.000   30.531688338  114.357265023    25.8445   6  10   0.1179   0.1201   0.2807   0.0329   0.0401  -0.0948   0.00    0.0
2026/01/15 00:46:00.000   30.531688308  114.357265047    25.8444   6   9   0.1173   0.1195   0.2794   0.0326   0.0398  -0.0944   0.00    0.0
2026/01/15 00:46:30.000   30.531688309  114.357265078    25.8456   6   9   0.1166   0.1189   0.2781   0.0324   0.0396  -0.0941   0.00    0.0
2026/01/15 00:47:00.000   30.531688311  114.357265120    25.8485   6   9   0.1160   0.1184   0.2767   0.0322   0.0394  -0.0937   0.00    0.0
2026/01/15 00:47:30.000   30.531688300  114.357265151    25.8518   6   9   0.1154   0.1178   0.2754   0.0320   0.0392  -0.0933   0.00    0.0
2026/01/15 00:48:00.000   30.531688305  114.357265190    25.8569   6   9   0.1148   0.1173   0.2742   0.0317   0.0389  -0.0930   0.00    0.0
2026/01/15 00:48:30.000   30.531688317  114.357265230    25.8625   6  10   0.1143   0.1167   0.2730   0.0315   0.0386  -0.0926   0.00    0.0
2026/01/15 00:49:00.000   30.531688314  114.357265262    25.8705   6   9   0.1137   0.1162   0.2718   0.0313   0.0383  -0.0922   0.00    0.0
2026/01/15 00:49:30.000   30.531688318  114.357265309    25.8802   6   9   0.1131   0.1157   0.2707   0.0310   0.0381  -0.0919   0.00    0.0
2026/01/15 00:50:00.000   30.531688314  114.357265344    25.8936   6   9   0.1126   0.1152   0.2695   0.0308   0.0378  -0.0915   0.00    0.0
2026/01/15 00:50:30.000   30.531688317  114.357265385    25.8972   6   9   0.1120   0.1147   0.2684   0.0306   0.0376  -0.0912   0.00    0.0
2026/01/15 00:51:00.000   30.531688321  114.357265411    25.9044   6   9   0.1115   0.1142   0.2673   0.0303   0.0374  -0.0908   0.00    0.0
2026/01/15 00:51:30.000   30.531688312  114.357265436    25.9087   6   9   0.1109   0.1137   0.2662   0.0301   0.0372  -0.0905   0.00    0.0
2026/01/15 00:52:00.000   30.531688314  114.357265467    25.9139   6   9   0.1104   0.1132   0.2651   0.0299   0.0370  -0.0901   0.00    0.0
2026/01/15 00:52:30.000   30.531688323  114.357265508    25.9181   6  10   0.1099   0.1128   0.2641   0.0297   0.0368  -0.0898   0.00    0.0
2026/01/15 00:53:00.000   30.531688321  114.357265529    25.9255   6   9   0.1094   0.1123   0.2630   0.0294   0.0366  -0.0894   0.00    0.0
2026/01/15 00:53:30.000   30.531688316  114.357265543    25.9317   6  10   0.1089   0.1119   0.2620   0.0292   0.0364  -0.0891   0.00    0.0
2026/01/15 00:54:00.000   30.531688310  114.357265574    25.9370   6   9   0.1084   0.1114   0.2610   0.0290   0.0363  -0.0888   0.00    0.0
2026/01/15 00:54:30.000   30.531688294  114.357265590    25.9426   6   9   0.1079   0.1110   0.2600   0.0288   0.0362  -0.0885   0.00    0.0
2026/01/15 00:55:00.000   30.531688295  114.357265607    25.9495   6   9   0.1074   0.1105   0.2590   0.0286   0.0360  -0.0881   0.00    0.0
2026/01/15 00:55:30.000   30.531688301  114.357265618    25.9547   6   9   0.1069   0.1101   0.2580   0.0284   0.0359  -0.0878   0.00    0.0
2026/01/15 00:56:00.000   30.531688290  114.357265649    25.9590   6   9   0.1064   0.1097   0.2571   0.0282   0.0358  -0.0875   0.00    0.0
2026/01/15 00:56:30.000   30.531688283  114.357265669    25.9630   6  10   0.1060   0.1093   0.2561   0.0279   0.0357  -0.0872   0.00    0.0
2026/01/15 00:57:00.000   30.531688286  114.357265685    25.9687   6   9   0.1055   0.1088   0.2552   0.0277   0.0356  -0.0869   0.00    0.0
2026/01/15 00:57:30.000   30.531688282  114.357265701    25.9763   6   9   0.1051   0.1084   0.2542   0.0275   0.0355  -0.0866   0.00    0.0
2026/01/15 00:58:00.000   30.531688294  114.357265732    25.9807   6   9   0.1046   0.1080   0.2533   0.0273   0.0355  -0.0863   0.00    0.0
2026/01/15 00:58:30.000   30.531688303  114.357265765    25.9858   6   9   0.1042   0.1076   0.2524   0.0271   0.0354  -0.0860   0.00    0.0
2026/01/15 00:59:00.000   30.531688311  114.357265803    25.9927   6   9   0.1037   0.1072   0.2516   0.0269   0.0353  -0.0857   0.00    0.0
2026/01/15 00:59:30.000   30.531688319  114.357265828    25.9975   6   9   0.1033   0.1069   0.2507   0.0267   0.0353  -0.0854   0.00    0.0
2026/01/15 01:00:00.000   30.531688318  114.357265853    26.0033   6   9   0.1029   0.1065   0.2498   0.0265   0.0353  -0.0851   0.00    0.0
2026/01/15 01:00:30.000   30.531688329  114.357265858    26.0016   6  10   0.1024   0.1061   0.2489   0.0263   0.0351  -0.0847   0.00    0.0
2026/01/15 01:01:00.000   30.531688324  114.357265852    26.0013   6   9   0.1020   0.1057   0.2480   0.0262   0.0350  -0.0843   0.00    0.0
2026/01/15 01:01:30.000   30.531688343  114.357265864    25.9966   6  10   0.1015   0.1053   0.2471   0.0261   0.0349  -0.0840   0.00    0.0
2026/01/15 01:02:00.000   30.531688346  114.357265871    25.9923   6   9   0.1011   0.1050   0.2462   0.0259   0.0348  -0.0836   0.00    0.0
2026/01/15 01:02:30.000   30.531688344  114.357265871    25.9877   6   9   0.1007   0.1046   0.2453   0.0258   0.0347  -0.0832   0.00    0.0
2026/01/15 01:03:00.000   30.531688359  114.357265876    25.9839   6  10   0.1002   0.1042   0.2444   0.0256   0.0346  -0.0829   0.00    0.0
2026/01/15 01:03:30.000   30.531688358  114.357265876    25.9807   6  11   0.0998   0.1039   0.2436   0.0255   0.0345  -0.0825   0.00    0.0
2026/01/15 01:04:00.000   30.531688352  114.357265883    25.9830   6  10   0.0994   0.1035   0.2427   0.0253   0.0344  -0.0822   0.00    0.0
2026/01/15 01:04:30.000   30.531688346  114.357265886    25.9823   6  11   0.0990   0.1032   0.2419   0.0252   0.0343  -0.0818   0.00    0.0
2026/01/15 01:05:00.000   30.531688352  114.357265891    25.9800   6  10   0.0986   0.1029   0.2411   0.0251   0.0343  -0.0815   0.00    0.0
2026/01/15 01:05:30.000   30.531688364  114.357265895    25.9791   6  11   0.0982   0.1025   0.2403   0.0249   0.0342  -0.0812   0.00    0.0
2026/01/15 01:06:00.000   30.531688379  114.357265904    25.9790   6  10   0.0978   0.1022   0.2395   0.0248   0.0342  -0.0808   0.00    0.0
2026/01/15 01:06:30.000   30.531688388  114.357265912    25.9805   6  10   0.0974   0.1018   0.2387   0.0246   0.0341  -0.0805   0.00    0.0
2026/01/15 01:07:00.000   30.531688393  114.357265921    25.9843   6  10   0.0970   0.1015   0.2379   0.0245   0.0341  -0.0802   0.00    0.0
2026/01/15 01:07:30.000   30.531688398  114.357265915    25.9830   6  11   0.0966   0.1012   0.2371   0.0243   0.0340  -0.0799   0.00    0.0
2026/01/15 01:08:00.000   30.531688392  114.357265901    25.9828   6  10   0.0962   0.1009   0.2363   0.0242   0.0340  -0.0796   0.00    0.0
2026/01/15 01:08:30.000   30.531688388  114.357265900    25.9805   6  11   0.0959   0.1006   0.2356   0.0241   0.0340  -0.0793   0.00    0.0
2026/01/15 01:09:00.000   30.531688372  114.357265898    25.9807   6  10   0.0955   0.1003   0.2348   0.0239   0.0340  -0.0790   0.00    0.0
2026/01/15 01:09:30.000   30.531688372  114.357265905    25.9813   6  11   0.0951   0.0999   0.2341   0.0238   0.0339  -0.0787   0.00    0.0
2026/01/15 01:10:00.000   30.531688364  114.357265906    25.9820   6  10   0.0948   0.0996   0.2334   0.0236   0.0339  -0.0784   0.00    0.0
2026/01/15 01:10:30.000   30.531688363  114.357265900    25.9836   6  10   0.0944   0.0993   0.2326   0.0235   0.0339  -0.0781   0.00    0.0
2026/01/15 01:11:00.000   30.531688367  114.357265899    25.9816   6  10   0.0941   0.0990   0.2318   0.0234   0.0338  -0.0778   0.00    0.0
2026/01/15 01:11:30.000   30.531688382  114.357265895    25.9777   6  11   0.0937   0.0987   0.2311   0.0233   0.0338  -0.0775   0.00    0.0
2026/01/15 01:12:00.000   30.531688379  114.357265885    25.9777   6  10   0.0933   0.0985   0.2304   0.0232   0.0337  -0.0771   0.00    0.0
2026/01/15 01:12:30.000   30.531688381  114.357265884    25.9787   6  11   0.0930   0.0982   0.2296   0.0231   0.0337  -0.0768   0.00    0.0
2026/01/15 01:13:00.000   30.531688387  114.357265885    25.9784   6  10   0.0926   0.0979   0.2289   0.0229   0.0337  -0.0765   0.00    0.0
2026/01/15 01:13:30.000   30.531688391  114.357265885    25.9748   6  11   0.0923   0.0976   0.2282   0.0228   0.0336  -0.0762   0.00    0.0
2026/01/15 01:14:00.000   30.531688386  114.357265890    25.9748   6  10   0.0920   0.0973   0.2275   0.0227   0.0336  -0.0759   0.00    0.0
2026/01/15 01:14:30.000   30.531688384  114.357265878    25.9732   6  10   0.0916   0.0970   0.2268   0.0226   0.0336  -0.0756   0.00    0.0
2026/01/15 01:15:00.000   30.531688377  114.357265877    25.9727   6  10   0.0913   0.0968   0.2261   0.0225   0.0336  -0.0754   0.00    0.0
2026/01/15 01:15:30.000   30.531688372  114.357265880    25.9719   6  11   0.0910   0.0965   0.2254   0.0224   0.0336  -0.0751   0.00    0.0
2026/01/15 01:16:00.000   30.531688373  114.357265897    25.9737   6  10   0.0906   0.0962   0.2248   0.0223   0.0336  -0.0748   0.00    0.0
2026/01/15 01:16:30.000   30.531688374  114.357265898    25.9759   6  11   0.0903   0.0960   0.2241   0.0221   0.0336  -0.0746   0.00    0.0
2026/01/15 01:17:00.000   30.531688380  114.357265898    25.9768   6   9   0.0900   0.0957   0.2235   0.0220   0.0337  -0.0744   0.00    0.0
2026/01/15 01:17:30.000   30.531688379  114.357265907    25.9809   6  10   0.0897   0.0954   0.2229   0.0219   0.0337  -0.0741   0.00    0.0
2026/01/15 01:18:00.000   30.531688375  114.357265910    25.9854   6   9   0.0895   0.0952   0.2223   0.0218   0.0338  -0.0739   0.00    0.0
2026/01/15 01:18:30.000   30.531688363  114.357265901    25.9872   6   9   0.0892   0.0949   0.2217   0.0216   0.0339  -0.0737   0.00    0.0
2026/01/15 01:19:00.000   30.531688368  114.357265899    25.9876   6   9   0.0889   0.0946   0.2211   0.0215   0.0339  -0.0735   0.00    0.0
2026/01/15 01:19:30.000   30.531688365  114.357265911    25.9886   6  10   0.0886   0.0944   0.2206   0.0214   0.0340  -0.0733   0.00    0.0
2026/01/15 01:20:00.000   30.531688354  114.357265911    25.9903   6   9   0.0883   0.0941   0.2200   0.0212   0.0341  -0.0731   0.00    0.0
2026/01/15 01:20:30.000   30.531688342  114.357265906    25.9923   6   9   0.0880   0.0939   0.2194   0.0211   0.0341  -0.0729   0.00    0.0
2026/01/15 01:21:00.000   30.531688338  114.357265907    25.9949   6   9   0.0878   0.0936   0.2189   0.0210   0.0342  -0.0727   0.00    0.0
2026/01/15 01:21:30.000   30.531688333  114.357265903    25.9951   6  10   0.0875   0.0934   0.2183   0.0209   0.0343  -0.0725   0.00    0.0
2026/01/15 01:22:00.000   30.531688332  114.357265906    25.9978   6   9   0.0872   0.0932   0.2177   0.0207   0.0344  -0.0724   0.00    0.0
2026/01/15 01:22:30.000   30.531688333  114.357265894    26.0016   6   9   0.0869   0.0929   0.2172   0.0206   0.0344  -0.0722   0.00    0.0
2026/01/15 01:23:00.000   30.531688338  114.357265891    26.0028   6   9   0.0867   0.0927   0.2167   0.0205   0.0345  -0.0720   0.00    0.0
2026/01/15 01:23:30.000   30.531688333  114.357265893    26.0052   6  10   0.0864   0.0924   0.2161   0.0204   0.0346  -0.0718   0.00    0.0
2026/01/15 01:24:00.000   30.531688330  114.357265877    26.0075   6   9   0.0862   0.0922   0.2156   0.0202   0.0347  -0.0716   0.00    0.0
2026/01/15 01:24:30.000   30.531688325  114.357265866    26.0101   6   9   0.0859   0.0920   0.2150   0.0201   0.0347  -0.0714   0.00    0.0
2026/01/15 01:25:00.000   30.531688312  114.357265858    26.0150   6   9   0.0856   0.0917   0.2145   0.0200   0.0348  -0.0712   0.00    0.0
2026/01/15 01:25:30.000   30.531688302  114.357265856    26.0176   6   9   0.0854   0.0915   0.2139   0.0199   0.0348  -0.0710   0.00    0.0
2026/01/15 01:26:00.000   30.531688295  114.357265845    26.0207   6   9   0.0851   0.0913   0.2134   0.0198   0.0349  -0.0708   0.00    0.0
2026/01/15 01:26:30.000   30.531688290  114.357265834    26.0201   6   9   0.0849   0.0911   0.2129   0.0197   0.0349  -0.0706   0.00    0.0
2026/01/15 01:27:00.000   30.531688282  114.357265828    26.0225   6   9   0.0846   0.0908   0.2123   0.0196   0.0350  -0.0704   0.00    0.0
2026/01/15 01:27:30.000   30.531688261  114.357265837    26.0278   6   9   0.0844   0.0906   0.2118   0.0195   0.0351  -0.0703   0.00    0.0
2026/01/15 01:28:00.000   30.531688255  114.357265841    26.0305   6   9   0.0841   0.0904   0.2113   0.0193   0.0351  -0.0701   0.00    0.0
2026/01/15 01:28:30.000   30.531688241  114.357265838    26.0349   6   9   0.0839   0.0902   0.2108   0.0192   0.0352  -0.0699   0.00    0.0
2026/01/15 01:29:00.000   30.531688236  114.357265831    26.0337   6   9   0.0836   0.0900   0.2103   0.0191   0.0352  -0.0697   0.00    0.0
2026/01/15 01:29:30.000   30.531688227  114.357265820    26.0339   6   9   0.0834   0.0898   0.2098   0.0190   0.0353  -0.0695   0.00    0.0
2026/01/15 01:30:00.000   30.531688221  114.357265808    26.0357   6   9   0.0831   0.0896   0.2093   0.0189   0.0353  -0.0693   0.00    0.0
2026/01/15 01:30:30.000   30.531688211  114.357265802    26.0410   6   9   0.0829   0.0893   0.2088   0.0188   0.0354  -0.0692   0.00    0.0
2026/01/15 01:31:00.000   30.531688196  114.357265795    26.0474   6   9   0.0827   0.0891   0.2083   0.0187   0.0354  -0.0690   0.00    0.0
2026/01/15 01:31:30.000   30.531688184  114.357265778    26.0524   6  10   0.0824   0.0889   0.2078   0.0186   0.0355  -0.0688   0.00    0.0
2026/01/15 01:32:00.000   30.531688180  114.357265773    26.0568   6   9   0.0822   0.0887   0.2073   0.0185   0.0355  -0.0686   0.00    0.0
2026/01/15 01:32:30.000   30.531688168  114.357265753    26.0599   6  10   0.0820   0.0885   0.2068   0.0184   0.0356  -0.0685   0.00    0.0
2026/01/15 01:33:00.000   30.531688161  114.357265745    26.0620   6   9   0.0818   0.0883   0.2063   0.0183   0.0357  -0.0683   0.00    0.0
2026/01/15 01:33:30.000   30.531688153  114.357265741    26.0642   6   9   0.0815   0.0881   0.2058   0.0182   0.0357  -0.0681   0.00    0.0
2026/01/15 01:34:00.000   30.531688144  114.357265739    26.0689   6   9   0.0813   0.0879   0.2054   0.0180   0.0358  -0.0680   0.00    0.0
2026/01/15 01:34:30.000   30.531688134  114.357265727    26.0721   6   9   0.0811   0.0877   0.2049   0.0179   0.0358  -0.0678   0.00    0.0
2026/01/15 01:35:00.000   30.531688121  114.357265721    26.0763   6   9   0.0809   0.0875   0.2044   0.0178   0.0359  -0.0677   0.00    0.0
2026/01/15 01:35:30.000   30.531688107  114.357265709    26.0785   6   9   0.0807   0.0874   0.2040   0.0177   0.0359  -0.0675   0.00    0.0
2026/01/15 01:36:00.000   30.531688098  114.357265708    26.0853   6   9   0.0804   0.0872   0.2035   0.0176   0.0359  -0.0674   0.00    0.0
2026/01/15 01:36:30.000   30.531688093  114.357265696    26.0917   6  10   0.0802   0.0870   0.2030   0.0175   0.0360  -0.0672   0.00    0.0
2026/01/15 01:37:00.000   30.531688085  114.357265688    26.0967   6   9   0.0800   0.0868   0.2026   0.0174   0.0360  -0.0671   0.00    0.0
2026/01/15 01:37:30.000   30.531688081  114.357265679    26.0999   6  10   0.0798   0.0866   0.2021   0.0172   0.0361  -0.0670   0.00    0.0
2026/01/15 01:38:00.000   30.531688070  114.357265663    26.1039   6   9   0.0796   0.0864   0.2016   0.0171   0.0361  -0.0669   0.00    0.0
2026/01/15 01:38:30.000   30.531688055  114.357265644    26.1112   6  10   0.0794   0.0862   0.2012   0.0170   0.0362  -0.0667   0.00    0.0
2026/01/15 01:39:00.000   30.531688045  114.357265631    26.1197   6   9   0.0792   0.0860   0.2007   0.0169   0.0362  -0.0666   0.00    0.0
2026/01/15 01:39:30.000   30.531688029  114.357265624    26.1281   6   9   0.0790   0.0858   0.2002   0.0168   0.0362  -0.0665   0.00    0.0
2026/01/15 01:40:00.000   30.531688027  114.357265612    26.1355   6  10   0.0788   0.0857   0.1997   0.0168   0.0362  -0.0663   0.00    0.0
2026/01/15 01:40:30.000   30.531688017  114.357265598    26.1452   6   9   0.0786   0.0855   0.1992   0.0167   0.0362  -0.0662   0.00    0.0
2026/01/15 01:41:00.000   30.531688010  114.357265587    26.1544   6  10   0.0784   0.0853   0.1988   0.0167   0.0361  -0.0661   0.00    0.0
2026/01/15 01:41:30.000   30.531687997  114.357265569    26.1642   6   9   0.0782   0.0851   0.1983   0.0167   0.0361  -0.0660   0.00    0.0
2026/01/15 01:42:00.000   30.531687987  114.357265552    26.1738   6  10   0.0780   0.0849   0.1978   0.0166   0.0361  -0.0658   0.00    0.0
2026/01/15 01:42:30.000   30.531687971  114.357265545    26.1809   6   9   0.0778   0.0847   0.1974   0.0165   0.0361  -0.0657   0.00    0.0
2026/01/15 01:43:00.000   30.531687959  114.357265524    26.1895   6   9   0.0776   0.0846   0.1969   0.0165   0.0361  -0.0656   0.00    0.0
2026/01/15 01:43:30.000   30.531687943  114.357265508    26.1990   6   9   0.0774   0.0844   0.1965   0.0164   0.0360  -0.0655   0.00    0.0
2026/01/15 01:44:00.000   30.531687925  114.357265495    26.2075   6   9   0.0772   0.0842   0.1960   0.0164   0.0360  -0.0653   0.00    0.0
2026/01/15 01:44:30.000   30.531687909  114.357265478    26.2155   6   9   0.0770   0.0840   0.1955   0.0164   0.0359  -0.0652   0.00    0.0
2026/01/15 01:45:00.000   30.531687892  114.357265456    26.2238   6  10   0.0768   0.0838   0.1950   0.0164   0.0358  -0.0650   0.00    0.0
2026/01/15 01:45:30.000   30.531687880  114.357265430    26.2309   6   9   0.0766   0.0836   0.1945   0.0164   0.0357  -0.0648   0.00    0.0
2026/01/15 01:46:00.000   30.531687866  114.357265408    26.2378   6  10   0.0764   0.0835   0.1941   0.0164   0.0356  -0.0647   0.00    0.0
2026/01/15 01:46:30.000   30.531687853  114.357265392    26.2420   6   9   0.0763   0.0833   0.1936   0.0164   0.0355  -0.0645   0.00    0.0
2026/01/15 01:47:00.000   30.531687843  114.357265365    26.2493   6   9   0.0761   0.0831   0.1931   0.0164   0.0354  -0.0644   0.00    0.0
2026/01/15 01:47:30.000   30.531687830  114.357265351    26.2567   6   9   0.0759   0.0829   0.1926   0.0164   0.0353  -0.0642   0.00    0.0
2026/01/15 01:48:00.000   30.531687820  114.357265324    26.2618   6  10   0.0757   0.0828   0.1921   0.0164   0.0352  -0.0640   0.00    0.0
2026/01/15 01:48:30.000   30.531687804  114.357265299    26.2688   6   9   0.0755   0.0826   0.1917   0.0164   0.0351  -0.0639   0.00    0.0
2026/01/15 01:49:00.000   30.531687786  114.357265269    26.2766   6  10   0.0753   0.0824   0.1913   0.0164   0.0350  -0.0638   0.00    0.0
2026/01/15 01:49:30.000   30.531687767  114.357265241    26.2831   6   9   0.0752   0.0822   0.1909   0.0164   0.0349  -0.0637   0.00    0.0
2026/01/15 01:50:00.000   30.531687744  114.357265207    26.2894   6  10   0.0750   0.0821   0.1905   0.0164   0.0348  -0.0636   0.00    0.0
2026/01/15 01:50:30.000   30.531687728  114.357265181    26.2953   6   9   0.0748   0.0819   0.1900   0.0164   0.0347  -0.0635   0.00    0.0
2026/01/15 01:51:00.000   30.531687706  114.357265154    26.3037   6  10   0.0746   0.0817   0.1896   0.0164   0.0345  -0.0634   0.00    0.0
2026/01/15 01:51:30.000   30.531687691  114.357265126    26.3111   6   9   0.0745   0.0816   0.1892   0.0164   0.0344  -0.0633   0.00    0.0
2026/01/15 01:52:00.000   30.531687676  114.357265086    26.3172   6   9   0.0743   0.0814   0.1888   0.0164   0.0343  -0.0631   0.00    0.0
2026/01/15 01:52:30.000   30.531687656  114.357265057    26.3242   6   9   0.0742   0.0812   0.1884   0.0164   0.0342  -0.0630   0.00    0.0
2026/01/15 01:53:00.000   30.531687635  114.357265020    26.3321   6   9   0.0740   0.0811   0.1880   0.0164   0.0341  -0.0629   0.00    0.0
2026/01/15 01:53:30.000   30.531687612  114.357264984    26.3375   6   9   0.0738   0.0809   0.1877   0.0164   0.0340  -0.0628   0.00    0.0
2026/01/15 01:54:00.000   30.531687590  114.357264956    26.3426   6  10   0.0737   0.0808   0.1873   0.0164   0.0340  -0.0627   0.00    0.0
2026/01/15 01:54:30.000   30.531687564  114.357264923    26.3479   6   9   0.0735   0.0806   0.1869   0.0164   0.0339  -0.0626   0.00    0.0
2026/01/15 01:55:00.000   30.531687542  114.357264894    26.3532   6  10   0.0734   0.0804   0.1865   0.0164   0.0338  -0.0625   0.00    0.0
2026/01/15 01:55:30.000   30.531687514  114.357264868    26.3579   6   9   0.0732   0.0803   0.1861   0.0164   0.0337  -0.0624   0.00    0.0
2026/01/15 01:56:00.000   30.531687488  114.357264837    26.3637   6  10   0.0730   0.0801   0.1858   0.0164   0.0337  -0.0623   0.00    0.0
2026/01/15 01:56:30.000   30.531687464  114.357264806    26.3685   6   9   0.0729   0.0800   0.1854   0.0164   0.0336  -0.0622   0.00    0.0
2026/01/15 01:57:00.000   30.531687435  114.357264776    26.3728   6  10   0.0727   0.0798   0.1850   0.0164   0.0336  -0.0621   0.00    0.0
2026/01/15 01:57:30.000   30.531687416  114.357264740    26.3781   6   9   0.0726   0.0797   0.1847   0.0164   0.0335  -0.0620   0.00    0.0
2026/01/15 01:58:00.000   30.531687389  114.357264697    26.3838   6   9   0.0724   0.0795   0.1843   0.0163   0.0334  -0.0619   0.00    0.0
2026/01/15 01:58:30.000   30.531687363  114.357264662    26.3901   6   9   0.0723   0.0794   0.1840   0.0163   0.0334  -0.0619   0.00    0.0
2026/01/15 01:59:00.000   30.531687336  114.357264626    26.3967   6  10   0.0721   0.0792   0.1836   0.0163   0.0333  -0.0618   0.00    0.0
2026/01/15 01:59:30.000   30.531687311  114.357264598    26.4018   6   9   0.0720   0.0791   0.1833   0.0163   0.0333  -0.0617   0.00    0.0
2026/01/15 02:00:00.000   30.531687289  114.357264563    26.4069   6  10   0.0718   0.0789   0.1829   0.0163   0.0332  -0.0616   0.00    0.0
2026/01/15 02:00:30.000   30.531687263  114.357264527    26.4118   6   9   0.0717   0.0788   0.1826   0.0163   0.0332  -0.0615   0.00    0.0
2026/01/15 02:01:00.000   30.531687233  114.357264494    26.4163   6  10   0.0716   0.0786   0.1822   0.0163   0.0331  -0.0614   0.00    0.0
2026/01/15 02:01:30.000   30.531687206  114.357264468    26.4208   6   9   0.0714   0.0785   0.1819   0.0162   0.0331  -0.0613   0.00    0.0
2026/01/15 02:02:00.000   30.531687177  114.357264444    26.4255   6   9   0.0713   0.0783   0.1816   0.0162   0.0330  -0.0613   0.00    0.0
2026/01/15 02:02:30.000   30.531687151  114.357264414    26.4309   6   9   0.0711   0.0782   0.1812   0.0162   0.0330  -0.0612   0.00    0.0
2026/01/15 02:03:00.000   30.531687124  114.357264386    26.4357   6   9   0.0710   0.0780   0.1809   0.0162   0.0329  -0.0611   0.00    0.0
2026/01/15 02:03:30.000   30.531687098  114.357264360    26.4402   6   8   0.0709   0.0779   0.1806   0.0162   0.0329  -0.0610   0.00    0.0
2026/01/15 02:04:00.000   30.531687071  114.357264332    26.4448   6   9   0.0707   0.0778   0.1803   0.0162   0.0329  -0.0609   0.00    0.0
2026/01/15 02:04:30.000   30.531687041  114.357264305    26.4479   6   8   0.0706   0.0776   0.1800   0.0161   0.0328  -0.0608   0.00    0.0
2026/01/15 02:05:00.000   30.531687009  114.357264273    26.4515   6   9   0.0705   0.0775   0.1797   0.0161   0.0328  -0.0608   0.00    0.0
2026/01/15 02:05:30.000   30.531686984  114.357264247    26.4553   6   8   0.0703   0.0773   0.1794   0.0161   0.0327  -0.0607   0.00    0.0
2026/01/15 02:06:00.000   30.531686957  114.357264215    26.4588   6   8   0.0702   0.0772   0.1791   0.0161   0.0327  -0.0606   0.00    0.0
2026/01/15 02:06:30.000   30.531686928  114.357264184    26.4626   6   8   0.0701   0.0771   0.1788   0.0160   0.0327  -0.0605   0.00    0.0
2026/01/15 02:07:00.000   30.531686900  114.357264158    26.4675   6   8   0.0699   0.0769   0.1785   0.0160   0.0326  -0.0604   0.00    0.0
2026/01/15 02:07:30.000   30.531686874  114.357264128    26.4730   6   7   0.0698   0.0768   0.1782   0.0160   0.0326  -0.0604   0.00    0.0
2026/01/15 02:08:00.000   30.531686848  114.357264101    26.4781   6   8   0.0697   0.0767   0.1780   0.0160   0.0326  -0.0603   0.00    0.0
2026/01/15 02:08:30.000   30.531686824  114.357264072    26.4835   6   7   0.0696   0.0765   0.1777   0.0159   0.0326  -0.0602   0.00    0.0
2026/01/15 02:09:00.000   30.531686793  114.357264040    26.4874   6   8   0.0694   0.0764   0.1774   0.0159   0.0326  -0.0601   0.00    0.0
2026/01/15 02:09:30.000   30.531686765  114.357264012    26.4918   6   7   0.0693   0.0763   0.1772   0.0158   0.0325  -0.0600   0.00    0.0
2026/01/15 02:10:00.000   30.531686738  114.357263986    26.4981   6   7   0.0692   0.0761   0.1769   0.0158   0.0325  -0.0599   0.00    0.0
2026/01/15 02:10:30.000   30.531686710  114.357263964    26.5033   6   7   0.0691   0.0760   0.1767   0.0158   0.0325  -0.0599   0.00    0.0
2026/01/15 02:11:00.000   30.531686678  114.357263945    26.5073   6   8   0.0690   0.0759   0.1764   0.0157   0.0325  -0.0598   0.00    0.0
2026/01/15 02:11:30.000   30.531686646  114.357263929    26.5116   6   7   0.0688   0.0757   0.1762   0.0157   0.0325  -0.0597   0.00    0.0
2026/01/15 02:12:00.000   30.531686611  114.357263900    26.5166   6   8   0.0687   0.0756   0.1759   0.0156   0.0325  -0.0596   0.00    0.0
2026/01/15 02:12:30.000   30.531686584  114.357263876    26.5198   6   7   0.0686   0.0755   0.1757   0.0156   0.0325  -0.0595   0.00    0.0
2026/01/15 02:13:00.000   30.531686555  114.357263852    26.5239   6   8   0.0685   0.0754   0.1754   0.0155   0.0325  -0.0594   0.00    0.0
2026/01/15 02:13:30.000   30.531686529  114.357263820    26.5278   6   7   0.0684   0.0752   0.1752   0.0155   0.0325  -0.0594   0.00    0.0
2026/01/15 02:14:00.000   30.531686495  114.357263793    26.5311   6   7   0.0683   0.0751   0.1749   0.0154   0.0325  -0.0593   0.00    0.0
2026/01/15 02:14:30.000   30.531686464  114.357263776    26.5343   6   7   0.0681   0.0750   0.1747   0.0154   0.0324  -0.0592   0.00    0.0
2026/01/15 02:15:00.000   30.531686436  114.357263750    26.5381   6   8   0.0680   0.0748   0.1744   0.0153   0.0324  -0.0591   0.00    0.0
2026/01/15 02:15:30.000   30.531686407  114.357263733    26.5414   6   7   0.0679   0.0747   0.1742   0.0153   0.0324  -0.0590   0.00    0.0
2026/01/15 02:16:00.000   30.531686375  114.357263713    26.5435   6   8   0.0678   0.0746   0.1739   0.0152   0.0324  -0.0590   0.00    0.0
2026/01/15 02:16:30.000   30.531686345  114.357263694    26.5473   6   7   0.0677   0.0745   0.1737   0.0152   0.0324  -0.0589   0.00    0.0
2026/01/15 02:17:00.000   30.531686313  114.357263672    26.5521   6   8   0.0676   0.0743   0.1735   0.0151   0.0324  -0.0588   0.00    0.0
2026/01/15 02:17:30.000   30.531686281  114.357263653    26.5541   6   7   0.0675   0.0742   0.1732   0.0151   0.0324  -0.0587   0.00    0.0
2026/01/15 02:18:00.000   30.531686248  114.357263634    26.5565   6   7   0.0674   0.0741   0.1730   0.0150   0.0324  -0.0587   0.00    0.0
2026/01/15 02:18:30.000   30.531686216  114.357263614    26.5588   6   6   0.0673   0.0740   0.1728   0.0150   0.0323  -0.0586   0.00    0.0
2026/01/15 02:19:00.000   30.531686184  114.357263591    26.5609   6   8   0.0672   0.0738   0.1726   0.0149   0.0323  -0.0585   0.00    0.0
2026/01/15 02:19:30.000   30.531686153  114.357263567    26.5629   6   6   0.0671   0.0737   0.1724   0.0149   0.0323  -0.0585   0.00    0.0
2026/01/15 02:20:00.000   30.531686120  114.357263544    26.5653   6   8   0.0670   0.0736   0.1722   0.0149   0.0322  -0.0584   0.00    0.0
2026/01/15 02:20:30.000   30.531686090  114.357263522    26.5661   6   6   0.0669   0.0735   0.1720   0.0148   0.0322  -0.0584   0.00    0.0
2026/01/15 02:21:00.000   30.531686056  114.357263498    26.5681   6   8   0.0668   0.0734   0.1718   0.0148   0.0322  -0.0583   0.00    0.0
2026/01/15 02:21:30.000   30.531686021  114.357263480    26.5701   6   7   0.0667   0.0733   0.1716   0.0147   0.0321  -0.0583   0.00    0.0
2026/01/15 02:22:00.000   30.531685987  114.357263458    26.5732   6   7   0.0666   0.0731   0.1714   0.0147   0.0321  -0.0582   0.00    0.0
2026/01/15 02:22:30.000   30.531685959  114.357263437    26.5754   6   7   0.0665   0.0730   0.1712   0.0147   0.0321  -0.0581   0.00    0.0
2026/01/15 02:23:00.000   30.531685927  114.357263415    26.5780   6   8   0.0664   0.0729   0.1710   0.0146   0.0321  -0.0581   0.00    0.0
2026/01/15 02:23:30.000   30.531685894  114.357263397    26.5810   6   7   0.0663   0.0728   0.1708   0.0146   0.0320  -0.0580   0.00    0.0
2026/01/15 02:24:00.000   30.531685859  114.357263367    26.5837   6   7   0.0662   0.0727   0.1706   0.0145   0.0320  -0.0580   0.00    0.0
2026/01/15 02:24:30.000   30.531685825  114.357263347    26.5862   6   7   0.0661   0.0726   0.1704   0.0145   0.0320  -0.0579   0.00    0.0
2026/01/15 02:25:00.000   30.531685790  114.357263330    26.5892   6   8   0.0660   0.0725   0.1702   0.0144   0.0320  -0.0579   0.00    0.0
2026/01/15 02:25:30.000   30.531685753  114.357263312    26.5918   6   7   0.0659   0.0723   0.1700   0.0144   0.0320  -0.0578   0.00    0.0
2026/01/15 02:26:00.000   30.531685716  114.357263294    26.5942   6   7   0.0658   0.0722   0.1699   0.0143   0.0319  -0.0578   0.00    0.0
2026/01/15 02:26:30.000   30.531685682  114.357263269    26.5963   6   7   0.0657   0.0721   0.1697   0.0143   0.0319  -0.0577   0.00    0.0
2026/01/15 02:27:00.000   30.531685648  114.357263244    26.5975   6   7   0.0656   0.0720   0.1695   0.0142   0.0319  -0.0577   0.00    0.0
2026/01/15 02:27:30.000   30.531685616  114.357263222    26.5989   6   6   0.0655   0.0719   0.1693   0.0142   0.0319  -0.0576   0.00    0.0
2026/01/15 02:28:00.000   30.531685581  114.357263193    26.5998   6   7   0.0654   0.0718   0.1691   0.0141   0.0319  -0.0575   0.00    0.0
2026/01/15 02:28:30.000   30.531685549  114.357263165    26.6005   6   6   0.0653   0.0717   0.1690   0.0141   0.0319  -0.0575   0.00    0.0
2026/01/15 02:29:00.000   30.531685513  114.357263135    26.6033   6   8   0.0653   0.0716   0.1688   0.0140   0.0319  -0.0574   0.00    0.0
2026/01/15 02:29:30.000   30.531685478  114.357263108    26.6047   6   7   0.0652   0.0715   0.1686   0.0140   0.0319  -0.0574   0.00    0.0
2026/01/15 02:30:00.000   30.531685443  114.357263078    26.6055   6   7   0.0651   0.0714   0.1684   0.0139   0.0319  -0.0573   0.00    0.0
2026/01/15 02:30:30.000   30.531685415  114.357263054    26.6055   6   7   0.0650   0.0713   0.1683   0.0139   0.0319  -0.0573   0.00    0.0
2026/01/15 02:31:00.000   30.531685388  114.357263035    26.6050   6   8   0.0649   0.0712   0.1681   0.0138   0.0319  -0.0572   0.00    0.0
2026/01/15 02:31:30.000   30.531685354  114.357263025    26.6077   6   7   0.0648   0.0710   0.1679   0.0138   0.0319  -0.0571   0.00    0.0
2026/01/15 02:32:00.000   30.531685323  114.357263021    26.6122   6   8   0.0647   0.0709   0.1677   0.0137   0.0318  -0.0571   0.00    0.0
2026/01/15 02:32:30.000   30.531685292  114.357263018    26.6161   6   7   0.0646   0.0708   0.1675   0.0137   0.0318  -0.0570   0.00    0.0
2026/01/15 02:33:00.000   30.531685258  114.357263012    26.6202   6   8   0.0645   0.0707   0.1673   0.0136   0.0317  -0.0570   0.00    0.0
2026/01/15 02:33:30.000   30.531685229  114.357263005    26.6237   6   7   0.0645   0.0706   0.1671   0.0136   0.0317  -0.0569   0.00    0.0
2026/01/15 02:34:00.000   30.531685198  114.357263001    26.6287   6   7   0.0644   0.0705   0.1669   0.0135   0.0317  -0.0569   0.00    0.0
2026/01/15 02:34:30.000   30.531685170  114.357262991    26.6330   6   7   0.0643   0.0704   0.1667   0.0135   0.0317  -0.0568   0.00    0.0
2026/01/15 02:35:00.000   30.531685140  114.357262985    26.6386   6   8   0.0642   0.0703   0.1665   0.0134   0.0316  -0.0568   0.00    0.0
2026/01/15 02:35:30.000   30.531685112  114.357262979    26.6429   6   7   0.0641   0.0702   0.1663   0.0134   0.0316  -0.0567   0.00    0.0
2026/01/15 02:36:00.000   30.531685080  114.357262966    26.6474   6   8   0.0640   0.0701   0.1661   0.0133   0.0316  -0.0567   0.00    0.0
2026/01/15 02:36:30.000   30.531685048  114.357262960    26.6523   6   7   0.0639   0.0700   0.1659   0.0133   0.0316  -0.0566   0.00    0.0
2026/01/15 02:37:00.000   30.531685020  114.357262950    26.6549   6   8   0.0639   0.0699   0.1657   0.0132   0.0315  -0.0566   0.00    0.0
2026/01/15 02:37:30.000   30.531684986  114.357262939    26.6593   6   7   0.0638   0.0698   0.1655   0.0132   0.0315  -0.0565   0.00    0.0
2026/01/15 02:38:00.000   30.531684951  114.357262931    26.6629   6   7   0.0637   0.0697   0.1653   0.0131   0.0315  -0.0565   0.00    0.0
2026/01/15 02:38:30.000   30.531684923  114.357262921    26.6653   6   7   0.0636   0.0695   0.1651   0.0131   0.0315  -0.0564   0.00    0.0
2026/01/15 02:39:00.000   30.531684890  114.357262911    26.6689   6   8   0.0635   0.0694   0.1649   0.0130   0.0315  -0.0564   0.00    0.0
2026/01/15 02:39:30.000   30.531684858  114.357262906    26.6733   6   7   0.0634   0.0693   0.1648   0.0129   0.0314  -0.0563   0.00    0.0
2026/01/15 02:40:00.000   30.531684827  114.357262901    26.6773   6   8   0.0633   0.0692   0.1646   0.0129   0.0314  -0.0563   0.00    0.0
2026/01/15 02:40:30.000   30.531684797  114.357262894    26.6810   6   7   0.0633   0.0691   0.1644   0.0128   0.0314  -0.0562   0.00    0.0
2026/01/15 02:41:00.000   30.531684768  114.357262888    26.6843   6   8   0.0632   0.0690   0.1642   0.0128   0.0314  -0.0562   0.00    0.0
2026/01/15 02:41:30.000   30.531684739  114.357262889    26.6867   6   7   0.0631   0.0689   0.1640   0.0127   0.0314  -0.0561   0.00    0.0
2026/01/15 02:42:00.000   30.531684706  114.357262887    26.6906   6   7   0.0630   0.0688   0.1638   0.0126   0.0314  -0.0561   0.00    0.0
2026/01/15 02:42:30.000   30.531684672  114.357262884    26.6932   6   7   0.0629   0.0687   0.1636   0.0126   0.0314  -0.0560   0.00    0.0
2026/01/15 02:43:00.000   30.531684639  114.357262878    26.6960   6   8   0.0629   0.0686   0.1634   0.0125   0.0314  -0.0560   0.00    0.0
2026/01/15 02:43:30.000   30.531684611  114.357262876    26.6981   6   7   0.0628   0.0685   0.1632   0.0125   0.0313  -0.0559   0.00    0.0
2026/01/15 02:44:00.000   30.531684578  114.357262875    26.7004   6   8   0.0627   0.0684   0.1630   0.0124   0.0313  -0.0559   0.00    0.0
2026/01/15 02:44:30.000   30.531684544  114.357262875    26.7039   6   7   0.0626   0.0683   0.1629   0.0124   0.0313  -0.0559   0.00    0.0
2026/01/15 02:45:00.000   30.531684512  114.357262872    26.7072   6   8   0.0625   0.0682   0.1627   0.0123   0.0313  -0.0558   0.00    0.0
2026/01/15 02:45:30.000   30.531684477  114.357262873    26.7097   6   7   0.0625   0.0681   0.1625   0.0122   0.0313  -0.0558   0.00    0.0
2026/01/15 02:46:00.000   30.531684445  114.357262869    26.7103   6   8   0.0624   0.0680   0.1623   0.0122   0.0313  -0.0557   0.00    0.0
2026/01/15 02:46:30.000   30.531684409  114.357262863    26.7121   6   7   0.0623   0.0679   0.1621   0.0121   0.0313  -0.0557   0.00    0.0
2026/01/15 02:47:00.000   30.531684376  114.357262866    26.7142   6   8   0.0622   0.0678   0.1619   0.0121   0.0313  -0.0556   0.00    0.0
2026/01/15 02:47:30.000   30.531684343  114.357262864    26.7156   6   7   0.0621   0.0678   0.1617   0.0120   0.0313  -0.0556   0.00    0.0
2026/01/15 02:48:00.000   30.531684307  114.357262866    26.7173   6   8   0.0621   0.0677   0.1616   0.0119   0.0313  -0.0555   0.00    0.0
2026/01/15 02:48:30.000   30.531684271  114.357262865    26.7186   6   7   0.0620   0.0676   0.1614   0.0119   0.0313  -0.0555   0.00    0.0
2026/01/15 02:49:00.000   30.531684237  114.357262868    26.7204   6   8   0.0619   0.0675   0.1612   0.0118   0.0313  -0.0554   0.00    0.0
2026/01/15 02:49:30.000   30.531684200  114.357262870    26.7224   6   7   0.0618   0.0674   0.1610   0.0117   0.0313  -0.0554   0.00    0.0
2026/01/15 02:50:00.000   30.531684163  114.357262866    26.7240   6   7   0.0618   0.0673   0.1608   0.0117   0.0313  -0.0553   0.00    0.0
2026/01/15 02:50:30.000   30.531684128  114.357262865    26.7260   6   7   0.0617   0.0672   0.1607   0.0116   0.0313  -0.0553   0.00    0.0
2026/01/15 02:51:00.000   30.531684092  114.357262867    26.7267   6   7   0.0616   0.0671   0.1605   0.0115   0.0313  -0.0552   0.00    0.0
2026/01/15 02:51:30.000   30.531684057  114.357262863    26.7280   6   6   0.0615   0.0670   0.1603   0.0115   0.0314  -0.0552   0.00    0.0
2026/01/15 02:52:00.000   30.531684022  114.357262857    26.7296   6   7   0.0615   0.0669   0.1602   0.0114   0.0314  -0.0551   0.00    0.0
2026/01/15 02:52:30.000   30.531683988  114.357262856    26.7313   6   6   0.0614   0.0668   0.1600   0.0113   0.0314  -0.0551   0.00    0.0
2026/01/15 02:53:00.000   30.531683956  114.357262851    26.7318   6   7   0.0613   0.0667   0.1599   0.0113   0.0314  -0.0550   0.00    0.0
2026/01/15 02:53:30.000   30.531683921  114.357262854    26.7336   6   6   0.0612   0.0666   0.1597   0.0112   0.0314  -0.0549   0.00    0.0
2026/01/15 02:54:00.000   30.531683885  114.357262853    26.7364   6   6   0.0611   0.0665   0.1595   0.0112   0.0314  -0.0549   0.00    0.0
2026/01/15 02:54:30.000   30.531683849  114.357262855    26.7387   6   6   0.0611   0.0665   0.1593   0.0112   0.0314  -0.0548   0.00    0.0
2026/01/15 02:55:00.000   30.531683814  114.357262856    26.7411   6   6   0.0610   0.0664   0.1591   0.0111   0.0314  -0.0547   0.00    0.0
2026/01/15 02:55:30.000   30.531683781  114.357262863    26.7425   6   6   0.0609   0.0663   0.1589   0.0111   0.0314  -0.0546   0.00    0.0
2026/01/15 02:56:00.000   30.531683747  114.357262861    26.7445   6   7   0.0608   0.0662   0.1587   0.0111   0.0314  -0.0546   0.00    0.0
2026/01/15 02:56:30.000   30.531683714  114.357262860    26.7453   6   6   0.0608   0.0661   0.1586   0.0110   0.0313  -0.0545   0.00    0.0
2026/01/15 02:57:00.000   30.531683682  114.357262854    26.7458   6   7   0.0607   0.0660   0.1584   0.0110   0.0313  -0.0544   0.00    0.0
2026/01/15 02:57:30.000   30.531683649  114.357262855    26.7474   6   6   0.0606   0.0659   0.1582   0.0109   0.0313  -0.0544   0.00    0.0
2026/01/15 02:58:00.000   30.531683618  114.357262860    26.7481   6   6   0.0605   0.0658   0.1580   0.0109   0.0313  -0.0543   0.00    0.0
2026/01/15 02:58:30.000   30.531683586  114.357262862    26.7489   6   6   0.0605   0.0657   0.1578   0.0108   0.0313  -0.0542   0.00    0.0
2026/01/15 02:59:00.000   30.531683554  114.357262863    26.7495   6   7   0.0604   0.0656   0.1577   0.0108   0.0313  -0.0541   0.00    0.0
2026/01/15 02:59:30.000   30.531683521  114.357262866    26.7508   6   6   0.0603   0.0656   0.1575   0.0108   0.0313  -0.0541   0.00    0.0
2026/01/15 03:00:00.000   30.531683489  114.357262867    26.7513   6   6   0.0602   0.0655   0.1573   0.0107   0.0313  -0.0540   0.00    0.0
2026/01/15 03:00:30.000   30.531683460  114.357262869    26.7525   6   6   0.0602   0.0654   0.1571   0.0107   0.0313  -0.0539   0.00    0.0
2026/01/15 03:01:00.000   30.531683431  114.357262872    26.7532   6   7   0.0601   0.0653   0.1570   0.0106   0.0313  -0.0539   0.00    0.0
2026/01/15 03:01:30.000   30.531683403  114.357262877    26.7528   6   5   0.0600   0.0652   0.1568   0.0106   0.0313  -0.0538   0.00    0.0
2026/01/15 03:02:00.000   30.531683373  114.357262882    26.7544   6   8   0.0599   0.0651   0.1566   0.0105   0.0313  -0.0537   0.00    0.0
2026/01/15 03:02:30.000   30.531683340  114.357262885    26.7556   6   6   0.0599   0.0650   0.1565   0.0105   0.0313  -0.0536   0.00    0.0
2026/01/15 03:03:00.000   30.531683310  114.357262888    26.7570   6   7   0.0598   0.0649   0.1563   0.0105   0.0313  -0.0536   0.00    0.0
2026/01/15 03:03:30.000   30.531683283  114.357262894    26.7583   6   6   0.0597   0.0649   0.1561   0.0104   0.0313  -0.0535   0.00    0.0
2026/01/15 03:04:00.000   30.531683252  114.357262906    26.7599   6   7   0.0596   0.0648   0.1559   0.0104   0.0313  -0.0534   0.00    0.0
2026/01/15 03:04:30.000   30.531683219  114.357262924    26.7633   6   6   0.0596   0.0647   0.1558   0.0103   0.0313  -0.0533   0.00    0.0
2026/01/15 03:05:00.000   30.531683195  114.357262932    26.7635   6   7   0.0595   0.0646   0.1556   0.0103   0.0313  -0.0533   0.00    0.0
2026/01/15 03:05:30.000   30.531683169  114.357262942    26.7641   6   6   0.0594   0.0645   0.1554   0.0102   0.0313  -0.0532   0.00    0.0
2026/01/15 03:06:00.000   30.531683141  114.357262959    26.7648   6   7   0.0594   0.0644   0.1552   0.0102   0.0313  -0.0531   0.00    0.0
2026/01/15 03:06:30.000   30.531683118  114.357262968    26.7642   6   6   0.0593   0.0644   0.1551   0.0102   0.0313  -0.0530   0.00    0.0
2026/01/15 03:07:00.000   30.531683089  114.357262976    26.7644   6   7   0.0592   0.0643   0.1549   0.0101   0.0313  -0.0530   0.00    0.0
2026/01/15 03:07:30.000   30.531683061  114.357262982    26.7646   6   6   0.0591   0.0642   0.1547   0.0101   0.0313  -0.0529   0.00    0.0
2026/01/15 03:08:00.000   30.531683031  114.357262989    26.7651   6   7   0.0591   0.0641   0.1545   0.0100   0.0313  -0.0528   0.00    0.0
2026/01/15 03:08:30.000   30.531683004  114.357262993    26.7643   6   6   0.0590   0.0640   0.1544   0.0100   0.0313  -0.0528   0.00    0.0
2026/01/15 03:09:00.000   30.531682980  114.357262996    26.7631   6   7   0.0589   0.0639   0.1542   0.0099   0.0313  -0.0527   0.00    0.0
2026/01/15 03:09:30.000   30.531682948  114.357263005    26.7654   6   6   0.0589   0.0639   0.1540   0.0099   0.0313  -0.0526   0.00    0.0
2026/01/15 03:10:00.000   30.531682924  114.357263008    26.7660   6   7   0.0588   0.0638   0.1538   0.0098   0.0313  -0.0525   0.00    0.0
2026/01/15 03:10:30.000   30.531682902  114.357263010    26.7661   6   6   0.0587   0.0637   0.1537   0.0098   0.0313  -0.0525   0.00    0.0
2026/01/15 03:11:00.000   30.531682881  114.357263016    26.7672   6   7   0.0587   0.0636   0.1535   0.0097   0.0313  -0.0524   0.00    0.0
2026/01/15 03:11:30.000   30.531682857  114.357263019    26.7676   6   6   0.0586   0.0635   0.1533   0.0097   0.0313  -0.0523   0.00    0.0
2026/01/15 03:12:00.000   30.531682836  114.357263020    26.7673   6   7   0.0585   0.0635   0.1532   0.0096   0.0313  -0.0523   0.00    0.0
2026/01/15 03:12:30.000   30.531682814  114.357263029    26.7675   6   6   0.0585   0.0634   0.1530   0.0096   0.0313  -0.0522   0.00    0.0
2026/01/15 03:13:00.000   30.531682793  114.357263035    26.7674   6   7   0.0584   0.0633   0.1528   0.0095   0.0313  -0.0521   0.00    0.0
2026/01/15 03:13:30.000   30.531682773  114.357263041    26.7665   6   6   0.0583   0.0632   0.1527   0.0095   0.0313  -0.0520   0.00    0.0
2026/01/15 03:14:00.000   30.531682753  114.357263044    26.7662   6   6   0.0583   0.0632   0.1525   0.0094   0.0313  -0.0520   0.00    0.0
2026/01/15 03:14:30.000   30.531682729  114.357263050    26.7664   6   6   0.0582   0.0631   0.1524   0.0094   0.0313  -0.0519   0.00    0.0
2026/01/15 03:15:00.000   30.531682706  114.357263048    26.7670   6   7   0.0581   0.0630   0.1522   0.0093   0.0313  -0.0518   0.00    0.0
2026/01/15 03:15:30.000   30.531682685  114.357263053    26.7663   6   6   0.0581   0.0629   0.1520   0.0092   0.0313  -0.0517   0.00    0.0
2026/01/15 03:16:00.000   30.531682661  114.357263056    26.7661   6   7   0.0580   0.0628   0.1519   0.0092   0.0313  -0.0517   0.00    0.0
2026/01/15 03:16:30.000   30.531682639  114.357263063    26.7652   6   6   0.0579   0.0628   0.1517   0.0091   0.0313  -0.0516   0.00    0.0
2026/01/15 03:17:00.000   30.531682617  114.357263067    26.7639   6   7   0.0579   0.0627   0.1515   0.0091   0.0313  -0.0515   0.00    0.0
2026/01/15 03:17:30.000   30.531682598  114.357263071    26.7624   6   6   0.0578   0.0626   0.1514   0.0090   0.0313  -0.0514   0.00    0.0
2026/01/15 03:18:00.000   30.531682574  114.357263075    26.7618   6   7   0.0577   0.0625   0.1512   0.0090   0.0313  -0.0514   0.00    0.0
2026/01/15 03:18:30.000   30.531682554  114.357263080    26.7617   6   6   0.0577   0.0625   0.1511   0.0089   0.0313  -0.0513   0.00    0.0
2026/01/15 03:19:00.000   30.531682535  114.357263090    26.7606   6   7   0.0576   0.0624   0.1509   0.0088   0.0313  -0.0512   0.00    0.0
2026/01/15 03:19:30.000   30.531682511  114.357263093    26.7605   6   6   0.0576   0.0623   0.1507   0.0088   0.0313  -0.0512   0.00    0.0
2026/01/15 03:20:00.000   30.531682491  114.357263094    26.7588   6   7   0.0575   0.0622   0.1506   0.0087   0.0313  -0.0511   0.00    0.0
2026/01/15 03:20:30.000   30.531682470  114.357263098    26.7571   6   6   0.0574   0.0622   0.1504   0.0087   0.0313  -0.0510   0.00    0.0
2026/01/15 03:21:00.000   30.531682449  114.357263103    26.7563   6   7   0.0574   0.0621   0.1503   0.0086   0.0313  -0.0509   0.00    0.0
2026/01/15 03:21:30.000   30.531682430  114.357263105    26.7550   6   6   0.0573   0.0620   0.1501   0.0086   0.0313  -0.0509   0.00    0.0
2026/01/15 03:22:00.000   30.531682412  114.357263106    26.7528   6   7   0.0572   0.0620   0.1500   0.0085   0.0313  -0.0508   0.00    0.0
2026/01/15 03:22:30.000   30.531682394  114.357263108    26.7513   6   6   0.0572   0.0619   0.1498   0.0084   0.0313  -0.0507   0.00    0.0
2026/01/15 03:23:00.000   30.531682378  114.357263114    26.7491   6   7   0.0571   0.0618   0.1496   0.0084   0.0313  -0.0507   0.00    0.0
2026/01/15 03:23:30.000   30.531682361  114.357263120    26.7469   6   6   0.0571   0.0618   0.1495   0.0083   0.0313  -0.0506   0.00    0.0
2026/01/15 03:24:00.000   30.531682345  114.357263127    26.7453   6   7   0.0570   0.0617   0.1493   0.0082   0.0312  -0.0505   0.00    0.0
2026/01/15 03:24:30.000   30.531682329  114.357263137    26.7441   6   6   0.0569   0.0616   0.1492   0.0082   0.0312  -0.0504   0.00    0.0
2026/01/15 03:25:00.000   30.531682312  114.357263144    26.7419   6   7   0.0569   0.0616   0.1490   0.0081   0.0312  -0.0504   0.00    0.0
2026/01/15 03:25:30.000   30.531682295  114.357263153    26.7401   6   6   0.0568   0.0615   0.1489   0.0081   0.0312  -0.0503   0.00    0.0
2026/01/15 03:26:00.000   30.531682276  114.357263159    26.7398   6   7   0.0568   0.0614   0.1487   0.0080   0.0312  -0.0502   0.00    0.0
2026/01/15 03:26:30.000   30.531682261  114.357263172    26.7382   6   6   0.0567   0.0614   0.1486   0.0079   0.0312  -0.0502   0.00    0.0
2026/01/15 03:27:00.000   30.531682245  114.357263184    26.7362   6   7   0.0566   0.0613   0.1484   0.0079   0.0312  -0.0501   0.00    0.0
2026/01/15 03:27:30.000   30.531682227  114.357263194    26.7348   6   6   0.0566   0.0612   0.1483   0.0078   0.0312  -0.0500   0.00    0.0
2026/01/15 03:28:00.000   30.531682211  114.357263206    26.7321   6   6   0.0565   0.0612   0.1481   0.0077   0.0312  -0.0500   0.00    0.0
2026/01/15 03:28:30.000   30.531682193  114.357263220    26.7310   6   5   0.0565   0.0611   0.1480   0.0077   0.0311  -0.0499   0.00    0.0
2026/01/15 03:29:00.000   30.531682176  114.357263224    26.7291   6   6   0.0564   0.0610   0.1478   0.0077   0.0311  -0.0498   0.00    0.0
