% program   : RTKLIB ver.EX 2.5.0
% inp file  : C:\PPP_PROJECT\New_Data\obs\RNXDATA\KIRU00SWE_R_20260150000_01D_30S_MO.rnx
% inp file  : C:\PPP_PROJECT\New_Data\nav\BRDC00IGS_R_20260150000_01D_MN.rnx
% inp file  : C:\PPP_PROJECT\New_Data\DATA_FINAL_ANT_EXTRA\COD0MGXFIN_20260150000_01D_05M_ORB.SP3
% inp file  : C:\PPP_PROJECT\New_Data\DATA_FINAL_ANT_EXTRA\COD0MGXFIN_20260150000_01D_30S_CLK.CLK
% inp file  : C:\PPP_PROJECT\Old_data\products\bia\WUM0MGXRAP_20260150000_01D_01D_OSB.BIA
% obs start : 2026/01/15 00:00:00.0 GPST (week2401 345600.0s)
% obs end   : 2026/01/15 23:59:30.0 GPST (week2401 431970.0s)
% pos mode  : PPP Static
% freqs     : L1+L2/E5b
% solution  : Forward
% elev mask : 15.0 deg
% dynamics  : on
% tidecorr  :
% ionos opt : Iono-Free LC
% tropo opt : Saastamoinen
% ephemeris : Precise
% navi sys  : GPS Galileo BDS
% antenna1  : SEPCHOKE_B3E6   SPKE  ( 0.0000  0.0000  0.0620)
%
% (lat/lon/height=WGS84/ellipsoidal,Q=1:fix,2:float,3:sbas,4:dgps,5:single,6:ppp,ns=# of satellites)
%  GPST                  latitude(deg) longitude(deg)  height(m)   Q  ns   sdn(m)   sde(m)   sdu(m)  sdne(m)  sdeu(m)  sdun(m) age(s)  ratio
2026/01/15 00:00:00.000   67.857349400   20.968466210   391.1279   6   9   2.9458   2.7869   7.0697  -0.7086  -1.2424   2.5553   0.00    0.0
2026/01/15 00:46:30.000   67.857350164   20.968460264   390.9875   6   5   0.3120   0.2698   0.7581  -0.0932  -0.2329   0.3041   0.00    0.0
2026/01/15 00:47:00.000   67.857350185   20.968460347   390.9988   6  13   0.3110   0.2685   0.7555  -0.0936  -0.2321   0.3041   0.00    0.0
2026/01/15 00:47:30.000   67.857350153   20.968460326   390.9958   6  14   0.3099   0.2672   0.7533  -0.0938  -0.2311   0.3042   0.00    0.0
2026/01/15 00:50:30.000   67.857350065   20.968460603   390.9672   6   5   0.3032   0.2598   0.7375  -0.0955  -0.2255   0.3009   0.00    0.0
2026/01/15 00:51:00.000   67.857350121   20.968460670   390.9745   6  15   0.3017   0.2585   0.7320  -0.0953  -0.2237   0.2988   0.00    0.0
2026/01/15 00:51:30.000   67.857350161   20.968460727   390.9777   6  15   0.3003   0.2573   0.7274  -0.0952  -0.2221   0.2970   0.00    0.0
2026/01/15 00:52:00.000   67.857350142   20.968460744   390.9803   6  13   0.2990   0.2560   0.7230  -0.0951  -0.2206   0.2954   0.00    0.0
2026/01/15 00:52:30.000   67.857350101   20.968460735   390.9782   6  13   0.2977   0.2548   0.7186  -0.0950  -0.2191   0.2937   0.00    0.0
2026/01/15 00:53:00.000   67.857350072   20.968460800   390.9679   6  13   0.2963   0.2537   0.7141  -0.0949  -0.2176   0.2920   0.00    0.0
2026/01/15 00:53:30.000   67.857350034   20.968460903   390.9611   6  14   0.2950   0.2525   0.7094  -0.0947  -0.2160   0.2901   0.00    0.0
2026/01/15 00:54:00.000   67.857350049   20.968460979   390.9622   6  14   0.2935   0.2513   0.7048  -0.0944  -0.2143   0.2881   0.00    0.0
2026/01/15 00:54:30.000   67.857350052   20.968460920   390.9620   6  14   0.2921   0.2501   0.7000  -0.0941  -0.2124   0.2860   0.00    0.0
2026/01/15 00:55:00.000   67.857350032   20.968460953   390.9621   6  14   0.2906   0.2489   0.6949  -0.0937  -0.2105   0.2837   0.00    0.0
2026/01/15 00:55:30.000   67.857350053   20.968460917   390.9656   6  15   0.2891   0.2477   0.6894  -0.0933  -0.2085   0.2811   0.00    0.0
2026/01/15 00:56:00.000   67.857350063   20.968460871   390.9671   6  15   0.2875   0.2466   0.6836  -0.0928  -0.2063   0.2784   0.00    0.0
2026/01/15 00:56:30.000   67.857350054   20.968460706   390.9667   6  16   0.2859   0.2454   0.6774  -0.0922  -0.2040   0.2754   0.00    0.0
2026/01/15 00:57:00.000   67.857350055   20.968460721   390.9585   6  14   0.2842   0.2442   0.6709  -0.0915  -0.2016   0.2720   0.00    0.0
2026/01/15 00:57:30.000   67.857350064   20.968460741   390.9537   6  14   0.2825   0.2430   0.6642  -0.0907  -0.1989   0.2686   0.00    0.0
2026/01/15 00:58:00.000   67.857350083   20.968460906   390.9459   6  14   0.2808   0.2419   0.6571  -0.0899  -0.1961   0.2649   0.00    0.0
2026/01/15 00:58:30.000   67.857350067   20.968460893   390.9564   6  14   0.2791   0.2408   0.6503  -0.0890  -0.1936   0.2610   0.00    0.0
2026/01/15 00:59:00.000   67.857350097   20.968460926   390.9584   6  14   0.2773   0.2397   0.6433  -0.0880  -0.1909   0.2569   0.00    0.0
2026/01/15 00:59:30.000   67.857350072   20.968460947   390.9635   6  14   0.2754   0.2386   0.6359  -0.0870  -0.1881   0.2525   0.00    0.0
2026/01/15 01:00:00.000   67.857350068   20.968460904   390.9568   6  14   0.2737   0.2375   0.6287  -0.0860  -0.1851   0.2484   0.00    0.0
2026/01/15 01:00:30.000   67.857350065   20.968460926   390.9518   6  14   0.2720   0.2364   0.6212  -0.0849  -0.1822   0.2442   0.00    0.0
2026/01/15 01:01:00.000   67.857350058   20.968461012   390.9496   6  14   0.2703   0.2353   0.6135  -0.0838  -0.1791   0.2397   0.00    0.0
2026/01/15 01:01:30.000   67.857350068   20.968461009   390.9450   6  14   0.2685   0.2342   0.6056  -0.0826  -0.1760   0.2351   0.00    0.0
2026/01/15 01:02:00.000   67.857350078   20.968461018   390.9466   6  14   0.2667   0.2332   0.5974  -0.0814  -0.1728   0.2303   0.00    0.0
2026/01/15 01:02:30.000   67.857350101   20.968461003   390.9501   6  14   0.2649   0.2321   0.5890  -0.0802  -0.1695   0.2253   0.00    0.0
2026/01/15 01:03:00.000   67.857350126   20.968460976   390.9571   6  15   0.2631   0.2310   0.5803  -0.0788  -0.1660   0.2201   0.00    0.0
2026/01/15 01:03:30.000   67.857350169   20.968460889   390.9645   6  15   0.2613   0.2299   0.5715  -0.0775  -0.1624   0.2147   0.00    0.0
2026/01/15 01:04:00.000   67.857350173   20.968460930   390.9679   6  15   0.2594   0.2288   0.5626  -0.0761  -0.1587   0.2093   0.00    0.0
2026/01/15 01:04:30.000   67.857350147   20.968460889   390.9793   6  15   0.2576   0.2277   0.5536  -0.0747  -0.1551   0.2037   0.00    0.0
2026/01/15 01:05:00.000   67.857350169   20.968460895   390.9814   6  15   0.2558   0.2267   0.5446  -0.0733  -0.1515   0.1980   0.00    0.0
2026/01/15 01:05:30.000   67.857350182   20.968460899   390.9848   6  15   0.2540   0.2256   0.5355  -0.0720  -0.1479   0.1923   0.00    0.0
2026/01/15 01:06:00.000   67.857350203   20.968461008   390.9869   6  15   0.2522   0.2246   0.5264  -0.0706  -0.1442   0.1864   0.00    0.0
2026/01/15 01:06:30.000   67.857350203   20.968461011   390.9892   6  15   0.2504   0.2236   0.5173  -0.0693  -0.1406   0.1804   0.00    0.0
2026/01/15 01:07:00.000   67.857350232   20.968460929   390.9948   6  15   0.2486   0.2226   0.5083  -0.0680  -0.1370   0.1743   0.00    0.0
2026/01/15 01:07:30.000   67.857350214   20.968460936   391.0020   6  15   0.2468   0.2216   0.4993  -0.0667  -0.1334   0.1682   0.00    0.0
2026/01/15 01:08:00.000   67.857350203   20.968460899   391.0097   6  15   0.2450   0.2206   0.4903  -0.0654  -0.1299   0.1620   0.00    0.0
2026/01/15 01:08:30.000   67.857350225   20.968460911   391.0139   6  15   0.2433   0.2196   0.4814  -0.0642  -0.1263   0.1557   0.00    0.0
2026/01/15 01:09:00.000   67.857350209   20.968460946   391.0195   6  15   0.2415   0.2187   0.4726  -0.0630  -0.1228   0.1493   0.00    0.0
2026/01/15 01:09:30.000   67.857350188   20.968460995   391.0226   6  15   0.2398   0.2177   0.4639  -0.0618  -0.1194   0.1429   0.00    0.0
2026/01/15 01:10:00.000   67.857350189   20.968460995   391.0300   6  15   0.2381   0.2168   0.4554  -0.0607  -0.1160   0.1363   0.00    0.0
2026/01/15 01:10:30.000   67.857350180   20.968460935   391.0397   6  15   0.2364   0.2159   0.4470  -0.0596  -0.1126   0.1297   0.00    0.0
2026/01/15 01:11:00.000   67.857350167   20.968460973   391.0425   6  15   0.2347   0.2150   0.4387  -0.0586  -0.1093   0.1230   0.00    0.0
2026/01/15 01:11:30.000   67.857350171   20.968460965   391.0451   6  15   0.2330   0.2141   0.4305  -0.0576  -0.1060   0.1161   0.00    0.0
2026/01/15 01:12:00.000   67.857350197   20.968461015   391.0412   6  15   0.2314   0.2132   0.4225  -0.0567  -0.1028   0.1092   0.00    0.0
2026/01/15 01:12:30.000   67.857350161   20.968461022   391.0444   6  15   0.2297   0.2123   0.4148  -0.0559  -0.0999   0.1023   0.00    0.0
2026/01/15 01:13:00.000   67.857350177   20.968461088   391.0417   6  15   0.2281   0.2115   0.4073  -0.0553  -0.0970   0.0953   0.00    0.0
2026/01/15 01:13:30.000   67.857350169   20.968461056   391.0467   6  15   0.2266   0.2106   0.3999  -0.0546  -0.0942   0.0881   0.00    0.0
2026/01/15 01:14:00.000   67.857350191   20.968461125   391.0488   6  15   0.2250   0.2098   0.3927  -0.0541  -0.0915   0.0807   0.00    0.0
2026/01/15 01:14:30.000   67.857350215   20.968461101   391.0509   6  15   0.2234   0.2090   0.3857  -0.0536  -0.0889   0.0728   0.00    0.0
2026/01/15 01:15:00.000   67.857350236   20.968461136   391.0527   6  15   0.2219   0.2082   0.3788  -0.0531  -0.0863   0.0645   0.00    0.0
2026/01/15 01:15:30.000   67.857350249   20.968461148   391.0521   6  15   0.2204   0.2074   0.3720  -0.0527  -0.0838   0.0555   0.00    0.0
2026/01/15 01:16:00.000   67.857350259   20.968461198   391.0555   6  15   0.2188   0.2066   0.3654  -0.0524  -0.0813   0.0453   0.00    0.0
2026/01/15 01:16:30.000   67.857350262   20.968461268   391.0579   6  15   0.2173   0.2058   0.3589  -0.0521  -0.0789   0.0329   0.00    0.0
2026/01/15 01:17:00.000   67.857350285   20.968461270   391.0580   6  15   0.2158   0.2050   0.3526  -0.0518  -0.0766   0.0131   0.00    0.0
2026/01/15 01:17:30.000   67.857350282   20.968461311   391.0580   6  15   0.2143   0.2042   0.3464  -0.0516  -0.0743  -0.0263   0.00    0.0
2026/01/15 01:18:00.000   67.857350305   20.968461335   391.0618   6  15   0.2128   0.2035   0.3404  -0.0515  -0.0721  -0.0387   0.00    0.0
2026/01/15 01:18:30.000   67.857350311   20.968461419   391.0633   6  15   0.2113   0.2027   0.3345  -0.0513  -0.0699  -0.0475   0.00    0.0
2026/01/15 01:19:00.000   67.857350313   20.968461361   391.0659   6  15   0.2098   0.2019   0.3287  -0.0513  -0.0678  -0.0544   0.00    0.0
2026/01/15 01:19:30.000   67.857350340   20.968461448   391.0663   6  15   0.2083   0.2011   0.3231  -0.0512  -0.0657  -0.0602   0.00    0.0
2026/01/15 01:20:00.000   67.857350366   20.968461470   391.0658   6  15   0.2068   0.2003   0.3176  -0.0512  -0.0636  -0.0650   0.00    0.0
2026/01/15 01:20:30.000   67.857350380   20.968461440   391.0652   6  17   0.2053   0.1995   0.3121  -0.0512  -0.0617  -0.0689   0.00    0.0
2026/01/15 01:21:00.000   67.857350391   20.968461503   391.0645   6  17   0.2037   0.1987   0.3068  -0.0513  -0.0599  -0.0724   0.00    0.0
2026/01/15 01:21:30.000   67.857350422   20.968461510   391.0657   6  17   0.2022   0.1979   0.3018  -0.0513  -0.0582  -0.0755   0.00    0.0
2026/01/15 01:22:00.000   67.857350457   20.968461455   391.0650   6  17   0.2006   0.1971   0.2968  -0.0514  -0.0566  -0.0782   0.00    0.0
2026/01/15 01:22:30.000   67.857350499   20.968461411   391.0631   6  17   0.1991   0.1962   0.2920  -0.0515  -0.0550  -0.0806   0.00    0.0
2026/01/15 01:23:00.000   67.857350523   20.968461384   391.0622   6  17   0.1976   0.1954   0.2872  -0.0516  -0.0535  -0.0827   0.00    0.0
2026/01/15 01:23:30.000   67.857350552   20.968461414   391.0613   6  17   0.1960   0.1946   0.2826  -0.0518  -0.0521  -0.0846   0.00    0.0
2026/01/15 01:24:00.000   67.857350592   20.968461359   391.0611   6  17   0.1944   0.1938   0.2781  -0.0519  -0.0507  -0.0863   0.00    0.0
2026/01/15 01:24:30.000   67.857350631   20.968461321   391.0583   6  17   0.1929   0.1929   0.2736  -0.0521  -0.0493  -0.0877   0.00    0.0
2026/01/15 01:25:00.000   67.857350659   20.968461265   391.0581   6  16   0.1914   0.1921   0.2694  -0.0523  -0.0480  -0.0892   0.00    0.0
2026/01/15 01:26:00.000   67.857350649   20.968461162   391.0618   6  15   0.1894   0.1907   0.2648  -0.0526  -0.0462  -0.0899   0.00    0.0
2026/01/15 01:26:30.000   67.857350660   20.968461177   391.0619   6  15   0.1878   0.1900   0.2605  -0.0529  -0.0449  -0.0911   0.00    0.0
2026/01/15 01:27:00.000   67.857350688   20.968461178   391.0618   6  15   0.1862   0.1892   0.2564  -0.0533  -0.0436  -0.0920   0.00    0.0
2026/01/15 01:27:30.000   67.857350714   20.968461230   391.0612   6  14   0.1846   0.1884   0.2524  -0.0536  -0.0424  -0.0929   0.00    0.0
2026/01/15 01:28:00.000   67.857350753   20.968461192   391.0603   6  15   0.1830   0.1876   0.2484  -0.0539  -0.0412  -0.0935   0.00    0.0
2026/01/15 01:28:30.000   67.857350790   20.968461194   391.0582   6  15   0.1814   0.1868   0.2446  -0.0543  -0.0400  -0.0941   0.00    0.0
2026/01/15 01:29:00.000   67.857350803   20.968461158   391.0595   6  16   0.1798   0.1860   0.2408  -0.0546  -0.0388  -0.0946   0.00    0.0
2026/01/15 01:29:30.000   67.857350819   20.968461146   391.0599   6  15   0.1782   0.1852   0.2372  -0.0549  -0.0377  -0.0949   0.00    0.0
2026/01/15 01:30:00.000   67.857350848   20.968461148   391.0586   6  14   0.1766   0.1844   0.2336  -0.0553  -0.0366  -0.0952   0.00    0.0
2026/01/15 01:30:30.000   67.857350900   20.968461130   391.0549   6  15   0.1750   0.1836   0.2301  -0.0556  -0.0356  -0.0953   0.00    0.0
2026/01/15 01:31:00.000   67.857350937   20.968461189   391.0504   6  15   0.1734   0.1827   0.2267  -0.0559  -0.0345  -0.0954   0.00    0.0
2026/01/15 01:31:30.000   67.857350971   20.968461159   391.0493   6  16   0.1718   0.1819   0.2233  -0.0563  -0.0335  -0.0954   0.00    0.0
2026/01/15 01:32:00.000   67.857350992   20.968461147   391.0486   6  15   0.1703   0.1811   0.2201  -0.0566  -0.0326  -0.0954   0.00    0.0
2026/01/15 01:32:30.000   67.857351022   20.968461182   391.0456   6  15   0.1687   0.1803   0.2169  -0.0570  -0.0317  -0.0952   0.00    0.0
2026/01/15 01:33:00.000   67.857351061   20.968461186   391.0417   6  15   0.1672   0.1795   0.2137  -0.0573  -0.0308  -0.0950   0.00    0.0
2026/01/15 01:33:30.000   67.857351103   20.968461176   391.0393   6  15   0.1656   0.1787   0.2107  -0.0577  -0.0299  -0.0948   0.00    0.0
2026/01/15 01:34:00.000   67.857351130   20.968461148   391.0376   6  15   0.1641   0.1779   0.2077  -0.0580  -0.0291  -0.0945   0.00    0.0
2026/01/15 01:34:30.000   67.857351161   20.968461235   391.0351   6  15   0.1625   0.1771   0.2047  -0.0583  -0.0283  -0.0941   0.00    0.0
2026/01/15 01:35:00.000   67.857351177   20.968461213   391.0342   6  15   0.1610   0.1762   0.2018  -0.0586  -0.0275  -0.0937   0.00    0.0
2026/01/15 01:35:30.000   67.857351202   20.968461314   391.0322   6  16   0.1595   0.1754   0.1990  -0.0590  -0.0268  -0.0933   0.00    0.0
2026/01/15 01:36:00.000   67.857351233   20.968461268   391.0303   6  16   0.1580   0.1746   0.1963  -0.0593  -0.0260  -0.0928   0.00    0.0
2026/01/15 01:36:30.000   67.857351242   20.968461275   391.0299   6  16   0.1568   0.1739   0.1938  -0.0602  -0.0241  -0.0929   0.00    0.0
2026/01/15 01:37:00.000   67.857351265   20.968461313   391.0274   6  16   0.1557   0.1733   0.1913  -0.0610  -0.0221  -0.0928   0.00    0.0
2026/01/15 01:37:30.000   67.857351269   20.968461313   391.0277   6  16   0.1546   0.1726   0.1889  -0.0619  -0.0199  -0.0928   0.00    0.0
2026/01/15 01:38:00.000   67.857351274   20.968461391   391.0280   6  16   0.1534   0.1719   0.1866  -0.0627  -0.0176  -0.0927   0.00    0.0
2026/01/15 01:38:30.000   67.857351284   20.968461417   391.0265   6  16   0.1523   0.1712   0.1842  -0.0635  -0.0149  -0.0926   0.00    0.0
2026/01/15 01:39:00.000   67.857351293   20.968461404   391.0254   6  16   0.1512   0.1705   0.1820  -0.0643  -0.0118  -0.0924   0.00    0.0
2026/01/15 01:39:30.000   67.857351310   20.968461371   391.0236   6  16   0.1501   0.1698   0.1797  -0.0650  -0.0075  -0.0922   0.00    0.0
2026/01/15 01:40:00.000   67.857351329   20.968461438   391.0214   6  16   0.1490   0.1692   0.1776  -0.0657   0.0048  -0.0920   0.00    0.0
2026/01/15 01:40:30.000   67.857351347   20.968461413   391.0202   6  16   0.1479   0.1685   0.1754  -0.0664   0.0100  -0.0917   0.00    0.0
2026/01/15 01:41:00.000   67.857351346   20.968461446   391.0194   6  16   0.1469   0.1678   0.1733  -0.0671   0.0132  -0.0914   0.00    0.0
2026/01/15 01:41:30.000   67.857351347   20.968461456   391.0191   6  16   0.1458   0.1671   0.1712  -0.0678   0.0157  -0.0911   0.00    0.0
2026/01/15 01:42:00.000   67.857351370   20.968461493   391.0166   6  16   0.1447   0.1664   0.1692  -0.0684   0.0177  -0.0908   0.00    0.0
2026/01/15 01:42:30.000   67.857351387   20.968461541   391.0148   6  16   0.1437   0.1658   0.1671  -0.0690   0.0195  -0.0904   0.00    0.0
2026/01/15 01:43:00.000   67.857351402   20.968461576   391.0140   6  16   0.1426   0.1651   0.1652  -0.0696   0.0210  -0.0900   0.00    0.0
2026/01/15 01:43:30.000   67.857351412   20.968461648   391.0121   6  16   0.1416   0.1644   0.1632  -0.0702   0.0224  -0.0896   0.00    0.0
2026/01/15 01:44:00.000   67.857351419   20.968461703   391.0110   6  16   0.1405   0.1637   0.1613  -0.0707   0.0237  -0.0892   0.00    0.0
2026/01/15 01:44:30.000   67.857351445   20.968461731   391.0086   6  16   0.1395   0.1630   0.1594  -0.0712   0.0249  -0.0888   0.00    0.0
2026/01/15 01:45:00.000   67.857351467   20.968461741   391.0056   6  16   0.1385   0.1624   0.1575  -0.0717   0.0259  -0.0883   0.00    0.0
2026/01/15 01:45:30.000   67.857351481   20.968461744   391.0038   6  16   0.1375   0.1617   0.1557  -0.0722   0.0269  -0.0878   0.00    0.0
2026/01/15 01:46:00.000   67.857351500   20.968461730   391.0023   6  16   0.1365   0.1610   0.1539  -0.0727   0.0278  -0.0873   0.00    0.0
2026/01/15 01:46:30.000   67.857351514   20.968461720   391.0004   6  16   0.1355   0.1604   0.1522  -0.0732   0.0287  -0.0869   0.00    0.0
2026/01/15 01:47:00.000   67.857351523   20.968461772   390.9984   6  16   0.1345   0.1597   0.1504  -0.0736   0.0296  -0.0864   0.00    0.0
2026/01/15 01:47:30.000   67.857351536   20.968461803   390.9962   6  16   0.1336   0.1591   0.1487  -0.0742   0.0304  -0.0859   0.00    0.0
2026/01/15 01:48:00.000   67.857351546   20.968461829   390.9949   6  16   0.1327   0.1585   0.1471  -0.0746   0.0311  -0.0854   0.00    0.0
2026/01/15 01:48:30.000   67.857351566   20.968461810   390.9923   6  16   0.1317   0.1579   0.1454  -0.0751   0.0318  -0.0849   0.00    0.0
2026/01/15 01:49:00.000   67.857351577   20.968461822   390.9901   6  16   0.1308   0.1573   0.1438  -0.0756   0.0325  -0.0844   0.00    0.0
2026/01/15 01:49:30.000   67.857351586   20.968461858   390.9880   6  17   0.1299   0.1567   0.1422  -0.0760   0.0331  -0.0839   0.00    0.0
2026/01/15 01:50:00.000   67.857351602   20.968461871   390.9860   6  17   0.1290   0.1562   0.1406  -0.0764   0.0336  -0.0834   0.00    0.0
2026/01/15 01:50:30.000   67.857351616   20.968461903   390.9837   6  17   0.1282   0.1556   0.1391  -0.0768   0.0341  -0.0828   0.00    0.0
2026/01/15 01:51:00.000   67.857351635   20.968461910   390.9817   6  17   0.1273   0.1550   0.1375  -0.0772   0.0346  -0.0823   0.00    0.0
2026/01/15 01:51:30.000   67.857351652   20.968461915   390.9798   6  17   0.1264   0.1544   0.1360  -0.0776   0.0351  -0.0817   0.00    0.0
2026/01/15 01:52:00.000   67.857351672   20.968461887   390.9773   6  17   0.1256   0.1538   0.1345  -0.0779   0.0355  -0.0812   0.00    0.0
2026/01/15 01:52:30.000   67.857351678   20.968461887   390.9761   6  17   0.1247   0.1532   0.1331  -0.0782   0.0359  -0.0806   0.00    0.0
2026/01/15 01:53:00.000   67.857351693   20.968461906   390.9737   6  17   0.1239   0.1526   0.1316  -0.0786   0.0363  -0.0801   0.00    0.0
2026/01/15 01:53:30.000   67.857351707   20.968461898   390.9710   6  17   0.1230   0.1520   0.1302  -0.0788   0.0366  -0.0795   0.00    0.0
2026/01/15 01:54:00.000   67.857351725   20.968461916   390.9681   6  17   0.1222   0.1514   0.1288  -0.0791   0.0370  -0.0790   0.00    0.0
2026/01/15 01:54:30.000   67.857351745   20.968461873   390.9649   6  17   0.1214   0.1508   0.1274  -0.0794   0.0373  -0.0784   0.00    0.0
2026/01/15 01:55:00.000   67.857351760   20.968461913   390.9625   6  17   0.1206   0.1502   0.1261  -0.0796   0.0376  -0.0779   0.00    0.0
2026/01/15 01:55:30.000   67.857351774   20.968461910   390.9605   6  17   0.1198   0.1496   0.1247  -0.0799   0.0378  -0.0773   0.00    0.0
2026/01/15 01:56:00.000   67.857351789   20.968461906   390.9584   6  17   0.1190   0.1490   0.1234  -0.0801   0.0381  -0.0767   0.00    0.0
2026/01/15 01:56:30.000   67.857351798   20.968461929   390.9568   6  17   0.1182   0.1484   0.1221  -0.0802   0.0383  -0.0762   0.00    0.0
2026/01/15 01:57:00.000   67.857351818   20.968461927   390.9544   6  17   0.1174   0.1478   0.1208  -0.0804   0.0385  -0.0756   0.00    0.0
2026/01/15 01:57:30.000   67.857351829   20.968461931   390.9518   6  18   0.1167   0.1472   0.1195  -0.0806   0.0386  -0.0751   0.00    0.0
2026/01/15 01:58:00.000   67.857351842   20.968461924   390.9495   6  18   0.1159   0.1466   0.1183  -0.0807   0.0388  -0.0745   0.00    0.0
2026/01/15 01:58:30.000   67.857351854   20.968461918   390.9475   6  18   0.1151   0.1459   0.1171  -0.0808   0.0389  -0.0739   0.00    0.0
2026/01/15 01:59:00.000   67.857351860   20.968461920   390.9453   6  18   0.1144   0.1453   0.1159  -0.0809   0.0390  -0.0734   0.00    0.0
2026/01/15 01:59:30.000   67.857351871   20.968461934   390.9425   6  18   0.1136   0.1447   0.1147  -0.0809   0.0390  -0.0728   0.00    0.0
2026/01/15 02:00:00.000   67.857351879   20.968461939   390.9408   6  18   0.1129   0.1440   0.1135  -0.0810   0.0391  -0.0722   0.00    0.0
2026/01/15 02:00:30.000   67.857351907   20.968461884   390.9378   6  18   0.1121   0.1434   0.1123  -0.0810   0.0391  -0.0717   0.00    0.0
2026/01/15 02:01:00.000   67.857351931   20.968461844   390.9348   6  18   0.1114   0.1428   0.1112  -0.0811   0.0392  -0.0711   0.00    0.0
2026/01/15 02:01:30.000   67.857351949   20.968461834   390.9321   6  18   0.1107   0.1421   0.1100  -0.0811   0.0392  -0.0705   0.00    0.0
2026/01/15 02:02:00.000   67.857351965   20.968461811   390.9295   6  18   0.1100   0.1415   0.1089  -0.0811   0.0392  -0.0700   0.00    0.0
2026/01/15 02:02:30.000   67.857351981   20.968461806   390.9265   6  19   0.1093   0.1408   0.1079  -0.0810   0.0392  -0.0695   0.00    0.0
2026/01/15 02:03:00.000   67.857351996   20.968461794   390.9238   6  19   0.1086   0.1401   0.1069  -0.0810   0.0391  -0.0690   0.00    0.0
2026/01/15 02:03:30.000   67.857352008   20.968461780   390.9212   6  19   0.1079   0.1395   0.1059  -0.0809   0.0391  -0.0685   0.00    0.0
2026/01/15 02:04:00.000   67.857352021   20.968461777   390.9186   6  19   0.1072   0.1388   0.1049  -0.0809   0.0390  -0.0681   0.00    0.0
2026/01/15 02:04:30.000   67.857352045   20.968461734   390.9157   6  19   0.1066   0.1381   0.1039  -0.0808   0.0389  -0.0676   0.00    0.0
2026/01/15 02:05:00.000   67.857352049   20.968461740   390.9137   6  19   0.1059   0.1374   0.1029  -0.0807   0.0388  -0.0671   0.00    0.0
2026/01/15 02:05:30.000   67.857352058   20.968461738   390.9117   6  19   0.1053   0.1367   0.1020  -0.0806   0.0387  -0.0666   0.00    0.0
2026/01/15 02:06:00.000   67.857352067   20.968461736   390.9097   6  19   0.1046   0.1361   0.1010  -0.0805   0.0386  -0.0661   0.00    0.0
2026/01/15 02:06:30.000   67.857352077   20.968461723   390.9073   6  19   0.1039   0.1354   0.1001  -0.0803   0.0385  -0.0656   0.00    0.0
2026/01/15 02:07:00.000   67.857352088   20.968461692   390.9050   6  19   0.1033   0.1347   0.0992  -0.0802   0.0384  -0.0652   0.00    0.0
2026/01/15 02:07:30.000   67.857352105   20.968461639   390.9024   6  19   0.1027   0.1340   0.0983  -0.0800   0.0382  -0.0647   0.00    0.0
2026/01/15 02:08:00.000   67.857352122   20.968461586   390.8994   6  19   0.1020   0.1333   0.0974  -0.0798   0.0381  -0.0642   0.00    0.0
2026/01/15 02:08:30.000   67.857352139   20.968461543   390.8965   6  20   0.1014   0.1326   0.0965  -0.0797   0.0380  -0.0638   0.00    0.0
2026/01/15 02:09:00.000   67.857352149   20.968461520   390.8939   6  20   0.1008   0.1319   0.0957  -0.0796   0.0379  -0.0634   0.00    0.0
2026/01/15 02:19:30.000   67.857352075   20.968461749   390.8981   6   4   0.0990   0.1276   0.0950  -0.0767   0.0362  -0.0620   0.00    0.0
2026/01/15 02:33:00.000   67.857351968   20.968462078   390.9029   6   5   0.0970   0.1226   0.0944  -0.0733   0.0341  -0.0604   0.00    0.0
2026/01/15 02:33:30.000   67.857351966   20.968462070   390.9031   6   5   0.0969   0.1224   0.0944  -0.0732   0.0340  -0.0604   0.00    0.0
2026/01/15 02:34:00.000   67.857351959   20.968462096   390.9035   6  13   0.0969   0.1223   0.0943  -0.0731   0.0340  -0.0603   0.00    0.0
2026/01/15 02:35:00.000   67.857351963   20.968462069   390.9034   6  14   0.0967   0.1219   0.0943  -0.0729   0.0338  -0.0602   0.00    0.0
2026/01/15 02:35:30.000   67.857351963   20.968462076   390.9035   6  14   0.0966   0.1217   0.0943  -0.0727   0.0337  -0.0602   0.00    0.0
2026/01/15 02:36:00.000   67.857351960   20.968462096   390.9035   6  14   0.0966   0.1215   0.0943  -0.0726   0.0337  -0.0601   0.00    0.0
2026/01/15 02:36:30.000   67.857351956   20.968462097   390.9038   6   7   0.0965   0.1214   0.0942  -0.0725   0.0336  -0.0601   0.00    0.0
2026/01/15 02:37:00.000   67.857351955   20.968462119   390.9038   6   7   0.0964   0.1212   0.0942  -0.0724   0.0335  -0.0600   0.00    0.0
2026/01/15 02:37:30.000   67.857351956   20.968462111   390.9039   6  16   0.0964   0.1210   0.0942  -0.0722   0.0335  -0.0600   0.00    0.0
2026/01/15 02:38:00.000   67.857351961   20.968462101   390.9038   6  16   0.0963   0.1208   0.0942  -0.0721   0.0334  -0.0599   0.00    0.0
2026/01/15 02:38:30.000   67.857351960   20.968462100   390.9040   6  16   0.0962   0.1206   0.0941  -0.0720   0.0333  -0.0599   0.00    0.0
2026/01/15 02:39:00.000   67.857351957   20.968462109   390.9041   6  16   0.0961   0.1204   0.0941  -0.0718   0.0332  -0.0598   0.00    0.0
2026/01/15 02:39:30.000   67.857351960   20.968462101   390.9040   6  16   0.0960   0.1202   0.0941  -0.0717   0.0332  -0.0598   0.00    0.0
2026/01/15 02:40:00.000   67.857351959   20.968462081   390.9043   6  16   0.0960   0.1200   0.0941  -0.0716   0.0331  -0.0597   0.00    0.0
2026/01/15 02:40:30.000   67.857351960   20.968462078   390.9043   6  16   0.0959   0.1198   0.0940  -0.0714   0.0330  -0.0597   0.00    0.0
2026/01/15 02:41:00.000   67.857351958   20.968462099   390.9043   6  16   0.0958   0.1196   0.0940  -0.0713   0.0330  -0.0596   0.00    0.0
2026/01/15 02:41:30.000   67.857351956   20.968462100   390.9044   6  16   0.0957   0.1194   0.0940  -0.0711   0.0329  -0.0595   0.00    0.0
2026/01/15 02:42:00.000   67.857351952   20.968462117   390.9044   6  16   0.0956   0.1192   0.0939  -0.0710   0.0328  -0.0595   0.00    0.0
2026/01/15 02:42:30.000   67.857351956   20.968462103   390.9041   6  16   0.0955   0.1190   0.0939  -0.0708   0.0327  -0.0594   0.00    0.0
2026/01/15 02:43:00.000   67.857351955   20.968462092   390.9041   6  16   0.0954   0.1188   0.0939  -0.0707   0.0327  -0.0594   0.00    0.0
2026/01/15 02:43:30.000   67.857351952   20.968462088   390.9042   6  16   0.0953   0.1186   0.0938  -0.0705   0.0326  -0.0593   0.00    0.0
2026/01/15 02:44:00.000   67.857351954   20.968462098   390.9040   6  16   0.0952   0.1184   0.0938  -0.0704   0.0325  -0.0592   0.00    0.0
2026/01/15 02:44:30.000   67.857351950   20.968462105   390.9042   6  16   0.0951   0.1181   0.0937  -0.0702   0.0324  -0.0592   0.00    0.0
2026/01/15 02:45:00.000   67.857351943   20.968462127   390.9044   6  16   0.0950   0.1179   0.0937  -0.0700   0.0324  -0.0591   0.00    0.0
2026/01/15 02:45:30.000   67.857351944   20.968462121   390.9045   6  16   0.0949   0.1177   0.0936  -0.0699   0.0323  -0.0590   0.00    0.0
2026/01/15 02:46:00.000   67.857351948   20.968462126   390.9043   6  16   0.0948   0.1174   0.0936  -0.0697   0.0322  -0.0589   0.00    0.0
2026/01/15 02:46:30.000   67.857351956   20.968462077   390.9042   6  16   0.0947   0.1172   0.0935  -0.0695   0.0322  -0.0589   0.00    0.0
2026/01/15 02:47:00.000   67.857351959   20.968462080   390.9040   6  16   0.0946   0.1169   0.0935  -0.0693   0.0321  -0.0588   0.00    0.0
2026/01/15 02:47:30.000   67.857351965   20.968462061   390.9037   6  16   0.0944   0.1167   0.0934  -0.0691   0.0320  -0.0587   0.00    0.0
2026/01/15 02:48:00.000   67.857351966   20.968462044   390.9036   6  16   0.0943   0.1164   0.0933  -0.0689   0.0319  -0.0586   0.00    0.0
2026/01/15 02:48:30.000   67.857351969   20.968462008   390.9036   6  16   0.0942   0.1162   0.0933  -0.0687   0.0318  -0.0586   0.00    0.0
2026/01/15 02:49:00.000   67.857351973   20.968461995   390.9033   6  16   0.0940   0.1159   0.0932  -0.0685   0.0318  -0.0585   0.00    0.0
2026/01/15 02:49:30.000   67.857351980   20.968461960   390.9030   6  16   0.0939   0.1156   0.0931  -0.0683   0.0317  -0.0584   0.00    0.0
2026/01/15 02:50:00.000   67.857351982   20.968461944   390.9029   6  16   0.0938   0.1153   0.0930  -0.0681   0.0316  -0.0583   0.00    0.0
2026/01/15 02:50:30.000   67.857351979   20.968461947   390.9028   6  16   0.0936   0.1150   0.0930  -0.0678   0.0315  -0.0582   0.00    0.0
2026/01/15 02:51:00.000   67.857351980   20.968461932   390.9028   6  16   0.0935   0.1147   0.0929  -0.0676   0.0314  -0.0581   0.00    0.0
2026/01/15 02:51:30.000   67.857351982   20.968461917   390.9028   6  16   0.0933   0.1144   0.0928  -0.0674   0.0314  -0.0580   0.00    0.0
2026/01/15 02:52:00.000   67.857351987   20.968461886   390.9026   6  16   0.0931   0.1141   0.0927  -0.0671   0.0313  -0.0579   0.00    0.0
2026/01/15 02:52:30.000   67.857351994   20.968461839   390.9022   6  16   0.0930   0.1138   0.0926  -0.0669   0.0312  -0.0578   0.00    0.0
2026/01/15 02:53:00.000   67.857351995   20.968461825   390.9023   6  16   0.0928   0.1135   0.0925  -0.0666   0.0312  -0.0577   0.00    0.0
2026/01/15 02:53:30.000   67.857352004   20.968461798   390.9018   6  16   0.0927   0.1133   0.0924  -0.0664   0.0311  -0.0577   0.00    0.0
2026/01/15 02:54:00.000   67.857352012   20.968461773   390.9015   6  16   0.0925   0.1130   0.0923  -0.0662   0.0311  -0.0576   0.00    0.0
2026/01/15 02:54:30.000   67.857352019   20.968461773   390.9009   6  16   0.0924   0.1127   0.0922  -0.0660   0.0311  -0.0575   0.00    0.0
2026/01/15 02:55:00.000   67.857352019   20.968461778   390.9006   6  16   0.0922   0.1124   0.0921  -0.0658   0.0311  -0.0574   0.00    0.0
2026/01/15 02:55:30.000   67.857352025   20.968461760   390.9003   6  16   0.0921   0.1121   0.0920  -0.0656   0.0311  -0.0573   0.00    0.0
2026/01/15 02:56:00.000   67.857352030   20.968461739   390.8999   6  16   0.0919   0.1118   0.0919  -0.0653   0.0310  -0.0572   0.00    0.0
2026/01/15 02:56:30.000   67.857352037   20.968461711   390.8995   6  16   0.0917   0.1114   0.0917  -0.0651   0.0310  -0.0572   0.00    0.0
2026/01/15 02:57:00.000   67.857352043   20.968461686   390.8990   6  16   0.0915   0.1111   0.0916  -0.0648   0.0310  -0.0571   0.00    0.0
2026/01/15 02:57:30.000   67.857352045   20.968461692   390.8986   6  17   0.0914   0.1108   0.0915  -0.0646   0.0310  -0.0570   0.00    0.0
2026/01/15 02:58:00.000   67.857352051   20.968461661   390.8982   6  17   0.0912   0.1105   0.0914  -0.0643   0.0309  -0.0569   0.00    0.0
2026/01/15 02:58:30.000   67.857352056   20.968461668   390.8979   6  18   0.0910   0.1101   0.0912  -0.0640   0.0309  -0.0568   0.00    0.0
2026/01/15 02:59:00.000   67.857352058   20.968461673   390.8979   6  18   0.0908   0.1097   0.0911  -0.0638   0.0309  -0.0567   0.00    0.0
2026/01/15 02:59:30.000   67.857352068   20.968461632   390.8973   6  18   0.0906   0.1094   0.0909  -0.0635   0.0308  -0.0565   0.00    0.0
2026/01/15 03:00:00.000   67.857352070   20.968461616   390.8973   6  18   0.0904   0.1090   0.0908  -0.0632   0.0308  -0.0564   0.00    0.0
2026/01/15 03:00:30.000   67.857352077   20.968461578   390.8969   6  18   0.0902   0.1087   0.0906  -0.0629   0.0308  -0.0563   0.00    0.0
2026/01/15 03:01:00.000   67.857352083   20.968461535   390.8965   6  18   0.0900   0.1083   0.0904  -0.0626   0.0307  -0.0562   0.00    0.0
2026/01/15 03:01:30.000   67.857352085   20.968461527   390.8959   6  18   0.0897   0.1079   0.0903  -0.0623   0.0307  -0.0561   0.00    0.0
2026/01/15 03:02:00.000   67.857352096   20.968461485   390.8952   6  18   0.0895   0.1075   0.0901  -0.0620   0.0307  -0.0560   0.00    0.0
2026/01/15 03:02:30.000   67.857352106   20.968461464   390.8946   6  18   0.0893   0.1071   0.0899  -0.0617   0.0306  -0.0559   0.00    0.0
2026/01/15 03:03:00.000   67.857352113   20.968461459   390.8939   6  18   0.0891   0.1068   0.0897  -0.0614   0.0306  -0.0557   0.00    0.0
2026/01/15 03:03:30.000   67.857352120   20.968461420   390.8933   6  18   0.0888   0.1064   0.0896  -0.0611   0.0305  -0.0556   0.00    0.0
2026/01/15 03:04:00.000   67.857352122   20.968461397   390.8929   6  18   0.0886   0.1060   0.0894  -0.0608   0.0305  -0.0555   0.00    0.0
2026/01/15 03:04:30.000   67.857352130   20.968461373   390.8921   6  18   0.0883   0.1055   0.0892  -0.0604   0.0305  -0.0553   0.00    0.0
2026/01/15 03:05:00.000   67.857352137   20.968461352   390.8915   6  18   0.0881   0.1051   0.0890  -0.0601   0.0304  -0.0552   0.00    0.0
2026/01/15 03:05:30.000   67.857352149   20.968461302   390.8905   6  18   0.0878   0.1047   0.0888  -0.0598   0.0304  -0.0551   0.00    0.0
2026/01/15 03:06:00.000   67.857352156   20.968461283   390.8897   6  18   0.0876   0.1043   0.0885  -0.0594   0.0303  -0.0549   0.00    0.0
2026/01/15 03:06:30.000   67.857352163   20.968461269   390.8889   6  19   0.0873   0.1039   0.0883  -0.0591   0.0303  -0.0548   0.00    0.0
2026/01/15 03:07:00.000   67.857352175   20.968461225   390.8878   6  19   0.0871   0.1034   0.0881  -0.0587   0.0302  -0.0547   0.00    0.0
2026/01/15 03:07:30.000   67.857352186   20.968461188   390.8871   6  19   0.0868   0.1030   0.0879  -0.0584   0.0302  -0.0545   0.00    0.0
2026/01/15 03:08:00.000   67.857352191   20.968461160   390.8866   6  19   0.0866   0.1027   0.0877  -0.0581   0.0302  -0.0544   0.00    0.0
2026/01/15 03:08:30.000   67.857352192   20.968461154   390.8860   6  19   0.0863   0.1023   0.0874  -0.0578   0.0302  -0.0543   0.00    0.0
2026/01/15 03:09:00.000   67.857352201   20.968461125   390.8849   6  19   0.0861   0.1019   0.0872  -0.0575   0.0302  -0.0541   0.00    0.0
2026/01/15 03:09:30.000   67.857352211   20.968461088   390.8840   6  19   0.0859   0.1016   0.0870  -0.0573   0.0302  -0.0540   0.00    0.0
2026/01/15 03:10:00.000   67.857352220   20.968461057   390.8828   6  19   0.0856   0.1012   0.0867  -0.0570   0.0302  -0.0539   0.00    0.0
2026/01/15 03:10:30.000   67.857352229   20.968461029   390.8824   6  18   0.0854   0.1008   0.0865  -0.0567   0.0303  -0.0537   0.00    0.0
2026/01/15 03:11:00.000   67.857352239   20.968460993   390.8820   6  18   0.0851   0.1004   0.0863  -0.0564   0.0303  -0.0536   0.00    0.0
2026/01/15 03:11:30.000   67.857352244   20.968460971   390.8819   6  18   0.0849   0.1000   0.0861  -0.0561   0.0303  -0.0535   0.00    0.0
2026/01/15 03:12:00.000   67.857352251   20.968460944   390.8817   6  18   0.0846   0.0997   0.0858  -0.0558   0.0303  -0.0533   0.00    0.0
2026/01/15 03:12:30.000   67.857352262   20.968460909   390.8813   6  18   0.0843   0.0993   0.0856  -0.0555   0.0303  -0.0532   0.00    0.0
2026/01/15 03:13:00.000   67.857352270   20.968460884   390.8810   6  18   0.0841   0.0989   0.0854  -0.0552   0.0304  -0.0530   0.00    0.0
2026/01/15 03:13:30.000   67.857352278   20.968460855   390.8808   6  18   0.0838   0.0985   0.0851  -0.0549   0.0304  -0.0529   0.00    0.0
2026/01/15 03:14:00.000   67.857352287   20.968460807   390.8803   6  18   0.0835   0.0981   0.0849  -0.0546   0.0304  -0.0527   0.00    0.0
2026/01/15 03:14:30.000   67.857352300   20.968460772   390.8796   6  18   0.0832   0.0977   0.0846  -0.0543   0.0304  -0.0526   0.00    0.0
2026/01/15 03:15:00.000   67.857352313   20.968460731   390.8789   6  18   0.0830   0.0973   0.0844  -0.0540   0.0304  -0.0524   0.00    0.0
2026/01/15 03:15:30.000   67.857352322   20.968460703   390.8783   6  18   0.0827   0.0969   0.0841  -0.0536   0.0304  -0.0523   0.00    0.0
2026/01/15 03:16:00.000   67.857352332   20.968460656   390.8778   6  18   0.0824   0.0964   0.0839  -0.0533   0.0304  -0.0521   0.00    0.0
2026/01/15 03:16:30.000   67.857352346   20.968460601   390.8770   6  18   0.0821   0.0960   0.0836  -0.0530   0.0304  -0.0520   0.00    0.0
2026/01/15 03:17:00.000   67.857352361   20.968460548   390.8762   6  18   0.0818   0.0956   0.0833  -0.0527   0.0304  -0.0518   0.00    0.0
2026/01/15 03:17:30.000   67.857352375   20.968460498   390.8752   6  18   0.0815   0.0952   0.0831  -0.0523   0.0303  -0.0516   0.00    0.0
2026/01/15 03:18:00.000   67.857352387   20.968460469   390.8745   6  18   0.0812   0.0948   0.0828  -0.0520   0.0303  -0.0515   0.00    0.0
2026/01/15 03:28:30.000   67.857352362   20.968460540   390.8772   6   5   0.0804   0.0929   0.0825  -0.0508   0.0295  -0.0508   0.00    0.0
2026/01/15 03:30:00.000   67.857352359   20.968460536   390.8780   6   5   0.0803   0.0926   0.0824  -0.0506   0.0294  -0.0507   0.00    0.0
2026/01/15 03:30:30.000   67.857352357   20.968460532   390.8784   6  11   0.0803   0.0926   0.0824  -0.0505   0.0293  -0.0506   0.00    0.0
2026/01/15 03:31:00.000   67.857352356   20.968460524   390.8785   6   9   0.0802   0.0925   0.0824  -0.0505   0.0293  -0.0506   0.00    0.0
2026/01/15 03:31:30.000   67.857352359   20.968460528   390.8784   6   9   0.0802   0.0924   0.0824  -0.0504   0.0293  -0.0506   0.00    0.0
2026/01/15 03:32:30.000   67.857352355   20.968460558   390.8787   6  12   0.0801   0.0922   0.0824  -0.0503   0.0292  -0.0505   0.00    0.0
2026/01/15 03:33:30.000   67.857352351   20.968460572   390.8790   6  12   0.0801   0.0921   0.0823  -0.0502   0.0291  -0.0505   0.00    0.0
2026/01/15 03:34:00.000   67.857352352   20.968460574   390.8790   6  16   0.0800   0.0920   0.0823  -0.0501   0.0291  -0.0504   0.00    0.0
2026/01/15 03:34:30.000   67.857352347   20.968460589   390.8793   6  16   0.0800   0.0919   0.0823  -0.0501   0.0290  -0.0504   0.00    0.0
2026/01/15 03:35:00.000   67.857352347   20.968460592   390.8794   6  16   0.0800   0.0918   0.0823  -0.0500   0.0290  -0.0504   0.00    0.0
2026/01/15 03:35:30.000   67.857352345   20.968460601   390.8796   6  16   0.0799   0.0917   0.0823  -0.0500   0.0290  -0.0504   0.00    0.0
2026/01/15 03:36:00.000   67.857352341   20.968460610   390.8799   6  16   0.0799   0.0917   0.0823  -0.0499   0.0289  -0.0503   0.00    0.0
2026/01/15 03:36:30.000   67.857352334   20.968460614   390.8804   6  16   0.0799   0.0916   0.0823  -0.0499   0.0289  -0.0503   0.00    0.0
2026/01/15 03:37:00.000   67.857352330   20.968460631   390.8806   6  16   0.0798   0.0915   0.0822  -0.0498   0.0289  -0.0503   0.00    0.0
2026/01/15 03:37:30.000   67.857352329   20.968460642   390.8807   6  16   0.0798   0.0914   0.0822  -0.0498   0.0288  -0.0502   0.00    0.0
2026/01/15 03:38:00.000   67.857352329   20.968460641   390.8809   6  16   0.0797   0.0913   0.0822  -0.0497   0.0288  -0.0502   0.00    0.0
2026/01/15 03:38:30.000   67.857352328   20.968460646   390.8810   6  16   0.0797   0.0913   0.0822  -0.0496   0.0288  -0.0502   0.00    0.0
2026/01/15 03:39:00.000   67.857352324   20.968460664   390.8813   6  16   0.0797   0.0912   0.0822  -0.0496   0.0287  -0.0501   0.00    0.0
2026/01/15 03:39:30.000   67.857352326   20.968460653   390.8812   6  16   0.0796   0.0911   0.0821  -0.0495   0.0287  -0.0501   0.00    0.0
2026/01/15 03:40:00.000   67.857352321   20.968460667   390.8815   6  16   0.0796   0.0910   0.0821  -0.0495   0.0286  -0.0501   0.00    0.0
2026/01/15 03:40:30.000   67.857352314   20.968460678   390.8819   6  16   0.0795   0.0909   0.0821  -0.0494   0.0286  -0.0500   0.00    0.0
2026/01/15 03:41:00.000   67.857352315   20.968460679   390.8818   6  16   0.0795   0.0908   0.0821  -0.0494   0.0286  -0.0500   0.00    0.0
2026/01/15 03:41:30.000   67.857352315   20.968460683   390.8818   6  16   0.0795   0.0908   0.0820  -0.0493   0.0285  -0.0500   0.00    0.0
2026/01/15 03:42:00.000   67.857352312   20.968460692   390.8819   6  16   0.0794   0.0907   0.0820  -0.0492   0.0285  -0.0499   0.00    0.0
2026/01/15 03:42:30.000   67.857352310   20.968460700   390.8820   6  16   0.0794   0.0906   0.0820  -0.0492   0.0285  -0.0499   0.00    0.0
2026/01/15 03:43:00.000   67.857352312   20.968460701   390.8819   6  16   0.0793   0.0905   0.0819  -0.0491   0.0284  -0.0499   0.00    0.0
2026/01/15 03:43:30.000   67.857352314   20.968460693   390.8819   6  16   0.0793   0.0904   0.0819  -0.0490   0.0284  -0.0498   0.00    0.0
2026/01/15 03:44:00.000   67.857352315   20.968460684   390.8819   6  16   0.0792   0.0903   0.0818  -0.0490   0.0283  -0.0498   0.00    0.0
2026/01/15 03:44:30.000   67.857352319   20.968460683   390.8814   6  16   0.0792   0.0902   0.0818  -0.0489   0.0283  -0.0497   0.00    0.0
2026/01/15 03:45:00.000   67.857352321   20.968460676   390.8810   6  16   0.0791   0.0901   0.0818  -0.0488   0.0282  -0.0497   0.00    0.0
2026/01/15 03:45:30.000   67.857352324   20.968460659   390.8806   6  16   0.0790   0.0900   0.0817  -0.0488   0.0282  -0.0496   0.00    0.0
2026/01/15 03:46:00.000   67.857352327   20.968460659   390.8805   6  16   0.0790   0.0900   0.0817  -0.0487   0.0282  -0.0496   0.00    0.0
2026/01/15 03:46:30.000   67.857352330   20.968460678   390.8800   6  16   0.0789   0.0899   0.0816  -0.0486   0.0281  -0.0495   0.00    0.0
2026/01/15 03:47:00.000   67.857352333   20.968460669   390.8796   6  16   0.0788   0.0898   0.0816  -0.0485   0.0281  -0.0495   0.00    0.0
2026/01/15 03:47:30.000   67.857352335   20.968460658   390.8793   6  16   0.0788   0.0897   0.0815  -0.0484   0.0280  -0.0494   0.00    0.0
2026/01/15 03:48:00.000   67.857352340   20.968460642   390.8788   6  16   0.0787   0.0896   0.0814  -0.0484   0.0279  -0.0494   0.00    0.0
2026/01/15 03:48:30.000   67.857352342   20.968460627   390.8785   6  16   0.0786   0.0894   0.0814  -0.0483   0.0279  -0.0493   0.00    0.0
2026/01/15 03:49:00.000   67.857352351   20.968460609   390.8776   6  16   0.0786   0.0893   0.0813  -0.0482   0.0278  -0.0492   0.00    0.0
2026/01/15 03:49:30.000   67.857352355   20.968460616   390.8769   6  16   0.0785   0.0892   0.0812  -0.0481   0.0278  -0.0492   0.00    0.0
2026/01/15 03:50:00.000   67.857352359   20.968460616   390.8765   6  15   0.0784   0.0891   0.0811  -0.0480   0.0277  -0.0491   0.00    0.0
2026/01/15 03:50:30.000   67.857352365   20.968460602   390.8760   6  15   0.0783   0.0890   0.0811  -0.0479   0.0276  -0.0490   0.00    0.0
2026/01/15 03:51:00.000   67.857352371   20.968460592   390.8755   6  15   0.0782   0.0889   0.0810  -0.0478   0.0276  -0.0490   0.00    0.0
2026/01/15 03:51:30.000   67.857352378   20.968460584   390.8749   6  15   0.0781   0.0888   0.0809  -0.0477   0.0275  -0.0489   0.00    0.0
2026/01/15 03:52:00.000   67.857352382   20.968460593   390.8744   6  15   0.0781   0.0887   0.0808  -0.0476   0.0274  -0.0488   0.00    0.0
2026/01/15 03:52:30.000   67.857352385   20.968460577   390.8738   6  15   0.0780   0.0886   0.0808  -0.0475   0.0273  -0.0487   0.00    0.0
2026/01/15 03:53:00.000   67.857352391   20.968460584   390.8730   6  15   0.0779   0.0884   0.0807  -0.0474   0.0273  -0.0487   0.00    0.0
2026/01/15 03:53:30.000   67.857352398   20.968460575   390.8722   6  15   0.0778   0.0883   0.0806  -0.0472   0.0272  -0.0486   0.00    0.0
2026/01/15 03:54:00.000   67.857352408   20.968460566   390.8713   6  15   0.0776   0.0882   0.0805  -0.0471   0.0271  -0.0485   0.00    0.0
2026/01/15 03:54:30.000   67.857352414   20.968460556   390.8706   6  15   0.0775   0.0881   0.0804  -0.0470   0.0270  -0.0484   0.00    0.0
2026/01/15 03:55:00.000   67.857352420   20.968460537   390.8699   6  15   0.0774   0.0879   0.0803  -0.0469   0.0269  -0.0483   0.00    0.0
2026/01/15 03:55:30.000   67.857352424   20.968460528   390.8692   6  15   0.0773   0.0878   0.0802  -0.0467   0.0268  -0.0482   0.00    0.0
2026/01/15 03:56:00.000   67.857352430   20.968460516   390.8685   6  15   0.0772   0.0877   0.0800  -0.0466   0.0267  -0.0481   0.00    0.0
2026/01/15 03:56:30.000   67.857352435   20.968460506   390.8679   6  15   0.0771   0.0875   0.0799  -0.0465   0.0266  -0.0480   0.00    0.0
2026/01/15 03:57:00.000   67.857352439   20.968460505   390.8673   6  15   0.0769   0.0874   0.0798  -0.0463   0.0265  -0.0479   0.00    0.0
2026/01/15 03:57:30.000   67.857352449   20.968460487   390.8667   6  15   0.0768   0.0872   0.0797  -0.0462   0.0264  -0.0478   0.00    0.0
2026/01/15 03:58:00.000   67.857352457   20.968460460   390.8658   6  15   0.0767   0.0871   0.0796  -0.0460   0.0263  -0.0477   0.00    0.0
2026/01/15 03:58:30.000   67.857352465   20.968460432   390.8648   6  15   0.0765   0.0869   0.0794  -0.0459   0.0262  -0.0476   0.00    0.0
2026/01/15 03:59:00.000   67.857352472   20.968460418   390.8640   6  15   0.0764   0.0868   0.0793  -0.0457   0.0261  -0.0475   0.00    0.0
2026/01/15 03:59:30.000   67.857352480   20.968460404   390.8628   6  15   0.0762   0.0866   0.0792  -0.0456   0.0260  -0.0474   0.00    0.0
2026/01/15 04:00:00.000   67.857352490   20.968460394   390.8616   6  15   0.0761   0.0865   0.0790  -0.0454   0.0258  -0.0472   0.00    0.0
2026/01/15 04:00:30.000   67.857352497   20.968460379   390.8605   6  15   0.0759   0.0863   0.0789  -0.0453   0.0257  -0.0471   0.00    0.0
2026/01/15 04:01:00.000   67.857352509   20.968460350   390.8591   6  15   0.0758   0.0861   0.0787  -0.0451   0.0256  -0.0470   0.00    0.0
2026/01/15 04:01:30.000   67.857352520   20.968460332   390.8577   6  15   0.0756   0.0860   0.0785  -0.0449   0.0254  -0.0469   0.00    0.0
2026/01/15 04:51:00.000   67.857352502   20.968460547   390.8613   6   4   0.0734   0.0814   0.0775  -0.0417   0.0232  -0.0446   0.00    0.0
2026/01/15 04:53:00.000   67.857352498   20.968460567   390.8618   6  10   0.0733   0.0813   0.0775  -0.0416   0.0231  -0.0445   0.00    0.0
2026/01/15 04:53:30.000   67.857352499   20.968460568   390.8618   6   8   0.0732   0.0812   0.0775  -0.0416   0.0231  -0.0445   0.00    0.0
2026/01/15 04:54:00.000   67.857352500   20.968460572   390.8617   6  14   0.0732   0.0812   0.0775  -0.0415   0.0230  -0.0444   0.00    0.0
2026/01/15 04:54:30.000   67.857352498   20.968460584   390.8619   6  14   0.0732   0.0812   0.0774  -0.0415   0.0230  -0.0444   0.00    0.0
2026/01/15 04:55:00.000   67.857352498   20.968460592   390.8618   6  14   0.0732   0.0811   0.0774  -0.0415   0.0230  -0.0444   0.00    0.0
2026/01/15 04:55:30.000   67.857352497   20.968460601   390.8618   6  14   0.0731   0.0811   0.0774  -0.0414   0.0230  -0.0444   0.00    0.0
2026/01/15 04:56:00.000   67.857352499   20.968460605   390.8616   6  14   0.0731   0.0810   0.0774  -0.0414   0.0229  -0.0443   0.00    0.0
2026/01/15 05:01:00.000   67.857352507   20.968460589   390.8613   6   7   0.0729   0.0807   0.0773  -0.0411   0.0227  -0.0441   0.00    0.0
2026/01/15 05:01:30.000   67.857352508   20.968460585   390.8613   6  14   0.0728   0.0806   0.0773  -0.0411   0.0226  -0.0441   0.00    0.0
2026/01/15 05:02:00.000   67.857352510   20.968460581   390.8612   6  14   0.0728   0.0805   0.0773  -0.0410   0.0226  -0.0440   0.00    0.0
2026/01/15 05:02:30.000   67.857352511   20.968460580   390.8611   6  14   0.0728   0.0805   0.0772  -0.0410   0.0226  -0.0440   0.00    0.0
2026/01/15 05:03:00.000   67.857352510   20.968460587   390.8612   6  14   0.0727   0.0804   0.0772  -0.0409   0.0225  -0.0440   0.00    0.0
2026/01/15 05:03:30.000   67.857352510   20.968460587   390.8611   6  14   0.0727   0.0803   0.0772  -0.0409   0.0225  -0.0439   0.00    0.0
2026/01/15 05:04:00.000   67.857352514   20.968460589   390.8609   6  14   0.0727   0.0803   0.0772  -0.0409   0.0225  -0.0439   0.00    0.0
2026/01/15 05:04:30.000   67.857352515   20.968460587   390.8609   6  14   0.0726   0.0802   0.0772  -0.0408   0.0224  -0.0439   0.00    0.0
2026/01/15 05:05:00.000   67.857352518   20.968460576   390.8607   6  14   0.0726   0.0801   0.0771  -0.0408   0.0224  -0.0438   0.00    0.0
2026/01/15 05:05:30.000   67.857352517   20.968460584   390.8608   6  14   0.0725   0.0801   0.0771  -0.0407   0.0223  -0.0438   0.00    0.0
2026/01/15 05:06:00.000   67.857352520   20.968460589   390.8606   6  14   0.0725   0.0800   0.0771  -0.0407   0.0223  -0.0438   0.00    0.0
2026/01/15 05:06:30.000   67.857352521   20.968460582   390.8606   6  14   0.0724   0.0800   0.0771  -0.0406   0.0223  -0.0437   0.00    0.0
2026/01/15 05:07:00.000   67.857352523   20.968460583   390.8603   6  14   0.0724   0.0799   0.0770  -0.0406   0.0222  -0.0437   0.00    0.0
2026/01/15 05:07:30.000   67.857352524   20.968460585   390.8604   6  14   0.0724   0.0798   0.0770  -0.0405   0.0222  -0.0436   0.00    0.0
2026/01/15 05:08:00.000   67.857352523   20.968460584   390.8604   6  14   0.0723   0.0797   0.0770  -0.0405   0.0222  -0.0436   0.00    0.0
2026/01/15 05:08:30.000   67.857352524   20.968460582   390.8605   6  14   0.0723   0.0797   0.0770  -0.0404   0.0221  -0.0436   0.00    0.0
2026/01/15 05:09:00.000   67.857352525   20.968460567   390.8604   6  14   0.0722   0.0796   0.0770  -0.0404   0.0221  -0.0435   0.00    0.0
2026/01/15 05:09:30.000   67.857352526   20.968460568   390.8605   6  14   0.0722   0.0795   0.0769  -0.0403   0.0221  -0.0435   0.00    0.0
2026/01/15 05:10:00.000   67.857352527   20.968460577   390.8603   6  14   0.0721   0.0794   0.0769  -0.0403   0.0220  -0.0435   0.00    0.0
2026/01/15 05:10:30.000   67.857352530   20.968460574   390.8601   6  14   0.0721   0.0794   0.0769  -0.0402   0.0220  -0.0434   0.00    0.0
2026/01/15 05:11:00.000   67.857352531   20.968460571   390.8601   6  14   0.0720   0.0793   0.0768  -0.0401   0.0219  -0.0434   0.00    0.0
2026/01/15 05:11:30.000   67.857352530   20.968460570   390.8601   6  14   0.0720   0.0792   0.0768  -0.0401   0.0219  -0.0433   0.00    0.0
2026/01/15 05:12:00.000   67.857352533   20.968460567   390.8600   6  15   0.0719   0.0791   0.0768  -0.0400   0.0218  -0.0433   0.00    0.0
2026/01/15 05:12:30.000   67.857352531   20.968460565   390.8602   6  15   0.0718   0.0790   0.0767  -0.0399   0.0218  -0.0433   0.00    0.0
2026/01/15 05:13:00.000   67.857352530   20.968460583   390.8603   6  15   0.0718   0.0789   0.0767  -0.0399   0.0217  -0.0432   0.00    0.0
2026/01/15 05:13:30.000   67.857352527   20.968460586   390.8604   6  16   0.0717   0.0788   0.0767  -0.0398   0.0217  -0.0432   0.00    0.0
2026/01/15 05:14:00.000   67.857352526   20.968460599   390.8605   6  16   0.0716   0.0787   0.0766  -0.0397   0.0216  -0.0431   0.00    0.0
2026/01/15 05:14:30.000   67.857352522   20.968460609   390.8607   6  16   0.0716   0.0786   0.0766  -0.0396   0.0216  -0.0431   0.00    0.0
2026/01/15 05:15:00.000   67.857352524   20.968460611   390.8603   6  17   0.0715   0.0785   0.0766  -0.0395   0.0215  -0.0430   0.00    0.0
2026/01/15 05:15:30.000   67.857352524   20.968460598   390.8603   6  17   0.0714   0.0784   0.0765  -0.0394   0.0215  -0.0430   0.00    0.0
2026/01/15 05:16:00.000   67.857352525   20.968460599   390.8599   6  17   0.0713   0.0782   0.0765  -0.0393   0.0214  -0.0429   0.00    0.0
2026/01/15 05:16:30.000   67.857352527   20.968460580   390.8595   6  18   0.0713   0.0781   0.0764  -0.0393   0.0213  -0.0429   0.00    0.0
2026/01/15 05:17:00.000   67.857352530   20.968460570   390.8591   6  18   0.0712   0.0780   0.0764  -0.0392   0.0213  -0.0428   0.00    0.0
2026/01/15 05:17:30.000   67.857352529   20.968460567   390.8591   6  18   0.0711   0.0779   0.0763  -0.0391   0.0212  -0.0427   0.00    0.0
2026/01/15 06:54:00.000   67.857351819   20.968462899   390.8860   6   4   0.0656   0.0709   0.0744  -0.0313   0.0156  -0.0380   0.00    0.0
2026/01/15 06:54:30.000   67.857351815   20.968462904   390.8861   6   4   0.0656   0.0708   0.0744  -0.0313   0.0155  -0.0380   0.00    0.0
2026/01/15 06:55:00.000   67.857351811   20.968462912   390.8863   6   4   0.0655   0.0708   0.0744  -0.0313   0.0155  -0.0380   0.00    0.0
2026/01/15 06:55:30.000   67.857351807   20.968462920   390.8865   6   4   0.0655   0.0708   0.0744  -0.0312   0.0155  -0.0379   0.00    0.0
2026/01/15 06:56:00.000   67.857351804   20.968462937   390.8865   6   4   0.0655   0.0708   0.0744  -0.0312   0.0155  -0.0379   0.00    0.0
2026/01/15 06:56:30.000   67.857351801   20.968462942   390.8867   6   4   0.0655   0.0707   0.0744  -0.0312   0.0155  -0.0379   0.00    0.0
2026/01/15 06:57:00.000   67.857351797   20.968462950   390.8868   6   4   0.0654   0.0707   0.0744  -0.0311   0.0154  -0.0379   0.00    0.0
2026/01/15 06:57:30.000   67.857351795   20.968462958   390.8868   6   4   0.0654   0.0707   0.0744  -0.0311   0.0154  -0.0378   0.00    0.0
2026/01/15 06:58:00.000   67.857351791   20.968462966   390.8870   6   4   0.0654   0.0707   0.0744  -0.0311   0.0154  -0.0378   0.00    0.0
2026/01/15 06:58:30.000   67.857351788   20.968462972   390.8871   6   4   0.0654   0.0707   0.0744  -0.0310   0.0154  -0.0378   0.00    0.0
2026/01/15 06:59:00.000   67.857351782   20.968462986   390.8874   6   4   0.0653   0.0706   0.0743  -0.0310   0.0153  -0.0378   0.00    0.0
2026/01/15 06:59:30.000   67.857351781   20.968462994   390.8874   6   4   0.0653   0.0706   0.0743  -0.0310   0.0153  -0.0378   0.00    0.0
2026/01/15 07:00:00.000   67.857351779   20.968463003   390.8874   6   4   0.0653   0.0706   0.0743  -0.0309   0.0153  -0.0377   0.00    0.0
2026/01/15 07:00:30.000   67.857351778   20.968463016   390.8873   6   4   0.0653   0.0706   0.0743  -0.0309   0.0153  -0.0377   0.00    0.0
2026/01/15 07:01:00.000   67.857351773   20.968463026   390.8875   6   4   0.0653   0.0705   0.0743  -0.0309   0.0152  -0.0377   0.00    0.0
2026/01/15 07:01:30.000   67.857351772   20.968463034   390.8876   6   4   0.0652   0.0705   0.0743  -0.0308   0.0152  -0.0377   0.00    0.0
2026/01/15 07:02:00.000   67.857351767   20.968463051   390.8877   6   4   0.0652   0.0705   0.0743  -0.0308   0.0152  -0.0376   0.00    0.0
2026/01/15 07:02:30.000   67.857351765   20.968463057   390.8877   6   4   0.0652   0.0705   0.0743  -0.0308   0.0152  -0.0376   0.00    0.0
2026/01/15 07:03:00.000   67.857351762   20.968463063   390.8879   6   4   0.0652   0.0705   0.0743  -0.0307   0.0151  -0.0376   0.00    0.0
2026/01/15 07:03:30.000   67.857351758   20.968463070   390.8880   6   4   0.0651   0.0704   0.0743  -0.0307   0.0151  -0.0376   0.00    0.0
2026/01/15 07:04:00.000   67.857351754   20.968463077   390.8882   6   4   0.0651   0.0704   0.0743  -0.0307   0.0151  -0.0376   0.00    0.0
2026/01/15 07:04:30.000   67.857351752   20.968463084   390.8882   6   4   0.0651   0.0704   0.0743  -0.0306   0.0151  -0.0375   0.00    0.0
2026/01/15 07:05:00.000   67.857351749   20.968463098   390.8882   6   4   0.0651   0.0704   0.0742  -0.0306   0.0150  -0.0375   0.00    0.0
2026/01/15 07:05:30.000   67.857351744   20.968463113   390.8884   6   4   0.0651   0.0703   0.0742  -0.0306   0.0150  -0.0375   0.00    0.0
2026/01/15 07:16:30.000   67.857351672   20.968463294   390.8913   6  11   0.0646   0.0698   0.0741  -0.0298   0.0144  -0.0370   0.00    0.0
2026/01/15 07:17:00.000   67.857351669   20.968463300   390.8914   6  13   0.0646   0.0698   0.0741  -0.0298   0.0143  -0.0370   0.00    0.0
2026/01/15 07:17:30.000   67.857351665   20.968463307   390.8916   6  14   0.0646   0.0698   0.0740  -0.0298   0.0143  -0.0370   0.00    0.0
2026/01/15 07:18:00.000   67.857351664   20.968463315   390.8916   6  14   0.0645   0.0698   0.0740  -0.0297   0.0143  -0.0370   0.00    0.0
2026/01/15 07:18:30.000   67.857351661   20.968463326   390.8917   6  14   0.0645   0.0698   0.0740  -0.0297   0.0142  -0.0369   0.00    0.0
2026/01/15 07:19:00.000   67.857351660   20.968463334   390.8918   6  14   0.0645   0.0697   0.0740  -0.0297   0.0142  -0.0369   0.00    0.0
2026/01/15 07:19:30.000   67.857351656   20.968463340   390.8921   6  14   0.0645   0.0697   0.0740  -0.0296   0.0142  -0.0369   0.00    0.0
2026/01/15 07:20:00.000   67.857351655   20.968463343   390.8921   6  14   0.0645   0.0697   0.0740  -0.0296   0.0141  -0.0369   0.00    0.0
2026/01/15 07:20:30.000   67.857351651   20.968463361   390.8923   6  14   0.0644   0.0697   0.0740  -0.0296   0.0141  -0.0369   0.00    0.0
2026/01/15 07:21:00.000   67.857351647   20.968463376   390.8925   6  14   0.0644   0.0696   0.0740  -0.0295   0.0141  -0.0368   0.00    0.0
2026/01/15 07:21:30.000   67.857351642   20.968463379   390.8929   6  14   0.0644   0.0696   0.0740  -0.0295   0.0140  -0.0368   0.00    0.0
2026/01/15 07:22:00.000   67.857351640   20.968463390   390.8930   6  15   0.0644   0.0696   0.0740  -0.0295   0.0140  -0.0368   0.00    0.0
2026/01/15 07:22:30.000   67.857351637   20.968463398   390.8932   6  15   0.0643   0.0696   0.0739  -0.0294   0.0140  -0.0368   0.00    0.0
2026/01/15 07:23:00.000   67.857351632   20.968463407   390.8935   6  15   0.0643   0.0695   0.0739  -0.0294   0.0139  -0.0367   0.00    0.0
2026/01/15 07:23:30.000   67.857351631   20.968463418   390.8936   6  15   0.0643   0.0695   0.0739  -0.0294   0.0139  -0.0367   0.00    0.0
2026/01/15 07:24:00.000   67.857351630   20.968463422   390.8935   6  14   0.0643   0.0695   0.0739  -0.0293   0.0139  -0.0367   0.00    0.0
2026/01/15 07:24:30.000   67.857351624   20.968463431   390.8940   6  14   0.0642   0.0695   0.0739  -0.0293   0.0138  -0.0367   0.00    0.0
2026/01/15 07:25:00.000   67.857351620   20.968463442   390.8941   6  14   0.0642   0.0694   0.0739  -0.0293   0.0138  -0.0367   0.00    0.0
2026/01/15 07:25:30.000   67.857351618   20.968463445   390.8941   6  14   0.0642   0.0694   0.0739  -0.0292   0.0138  -0.0366   0.00    0.0
2026/01/15 07:26:00.000   67.857351616   20.968463452   390.8942   6  14   0.0641   0.0694   0.0738  -0.0292   0.0137  -0.0366   0.00    0.0
2026/01/15 07:26:30.000   67.857351614   20.968463465   390.8944   6  14   0.0641   0.0693   0.0738  -0.0291   0.0137  -0.0366   0.00    0.0
2026/01/15 07:27:00.000   67.857351613   20.968463467   390.8945   6  14   0.0641   0.0693   0.0738  -0.0291   0.0137  -0.0366   0.00    0.0
2026/01/15 07:27:30.000   67.857351611   20.968463469   390.8945   6  14   0.0641   0.0693   0.0738  -0.0291   0.0136  -0.0365   0.00    0.0
2026/01/15 07:28:00.000   67.857351610   20.968463474   390.8944   6  15   0.0640   0.0692   0.0738  -0.0290   0.0136  -0.0365   0.00    0.0
2026/01/15 07:28:30.000   67.857351611   20.968463474   390.8943   6  16   0.0640   0.0692   0.0738  -0.0290   0.0136  -0.0365   0.00    0.0
2026/01/15 07:29:00.000   67.857351611   20.968463476   390.8943   6  17   0.0639   0.0692   0.0737  -0.0290   0.0136  -0.0365   0.00    0.0
2026/01/15 07:29:30.000   67.857351610   20.968463485   390.8941   6  17   0.0639   0.0691   0.0737  -0.0289   0.0135  -0.0364   0.00    0.0
2026/01/15 07:30:00.000   67.857351610   20.968463489   390.8940   6  17   0.0639   0.0691   0.0737  -0.0289   0.0135  -0.0364   0.00    0.0
2026/01/15 07:30:30.000   67.857351604   20.968463502   390.8943   6  17   0.0638   0.0691   0.0736  -0.0288   0.0135  -0.0364   0.00    0.0
2026/01/15 07:31:00.000   67.857351604   20.968463503   390.8943   6  17   0.0638   0.0690   0.0736  -0.0288   0.0135  -0.0364   0.00    0.0
2026/01/15 07:31:30.000   67.857351604   20.968463504   390.8943   6  17   0.0637   0.0690   0.0736  -0.0288   0.0134  -0.0363   0.00    0.0
2026/01/15 07:32:00.000   67.857351602   20.968463512   390.8943   6  17   0.0637   0.0690   0.0736  -0.0287   0.0134  -0.0363   0.00    0.0
2026/01/15 07:32:30.000   67.857351602   20.968463517   390.8940   6  17   0.0637   0.0689   0.0735  -0.0287   0.0134  -0.0363   0.00    0.0
2026/01/15 07:33:00.000   67.857351600   20.968463524   390.8940   6  17   0.0636   0.0689   0.0735  -0.0286   0.0134  -0.0362   0.00    0.0
2026/01/15 07:33:30.000   67.857351598   20.968463529   390.8939   6  17   0.0636   0.0688   0.0734  -0.0286   0.0133  -0.0362   0.00    0.0
2026/01/15 07:34:00.000   67.857351597   20.968463534   390.8937   6  17   0.0635   0.0688   0.0734  -0.0285   0.0133  -0.0362   0.00    0.0
