% program   : RTKPOST ver.demo5 b34d
% inp file  : E:\Master courses\SNDP-PROJECT\New_Data\obs\RNXDATA\WUH200CHN_R_20260150000_01D_30S_MO.obs
% inp file  : E:\Master courses\SNDP-PROJECT\New_Data\nav\BRDC00IGS_R_20260150000_01D_MN.rnx
% inp file  : E:\Master courses\SNDP-PROJECT\New_Data\DATA_FINAL_ANT_EXTRA\COD0MGXFIN_20260150000_01D_05M_ORB.SP3
% inp file  : E:\Master courses\SNDP\SNDP-PROJECT\1_DATA\HKWS_OP71_data\IGS0OPSFIN_20260150000_01D_30S_CLK.CLK
% obs start : 2026/01/15 00:00:00.0 GPST (week2401 345600.0s)
% obs end   : 2026/01/15 02:00:00.0 GPST (week2401 352800.0s)
% pos mode  : PPP Static
% solution  : Forward
% elev mask : 15.0 deg
% dynamics  : off
% tidecorr  : off
% tropo opt : Saastamoinen
% ephemeris : Broadcast+SBAS
% navi sys  : GPS Galileo BDS
% antenna1  : JAVRINGANT_G5T  NONE  ( 0.0000  0.0000  0.1206)
%
% (lat/lon/height=WGS84/ellipsoidal,Q=1:fix,2:float,3:sbas,4:dgps,5:single,6:ppp,ns=# of satellites)
%  GPST                  latitude(deg) longitude(deg)  height(m)   Q  ns   sdn(m)   sde(m)   sdu(m)  sdne(m)  sdeu(m)  sdun(m) age(s)  ratio
2026/01/15 00:00:00.000   30.531681926  114.357278192    31.4782   6  23   1.6460   1.4761   3.8120   0.3248   1.1894  -1.5413   0.00    0.0
2026/01/15 00:00:30.000   30.531688098  114.357271300    30.1563   6  23   1.1645   1.0453   2.6983   0.2295   0.8441  -1.0901   0.00    0.0
2026/01/15 00:01:00.000   30.531689238  114.357273665    30.9844   6  23   0.9507   0.8543   2.2027   0.1875   0.6909  -0.8891   0.00    0.0
2026/01/15 00:01:30.000   30.531689644  114.357276694    31.6114   6  23   0.8232   0.7404   1.9067   0.1625   0.5996  -0.7689   0.00    0.0
2026/01/15 00:02:00.000   30.531689899  114.357278028    31.6781   6  23   0.7360   0.6626   1.7043   0.1454   0.5373  -0.6867   0.00    0.0
2026/01/15 00:02:30.000   30.531689523  114.357279420    31.8856   6  23   0.6716   0.6053   1.5547   0.1329   0.4914  -0.6258   0.00    0.0
2026/01/15 00:03:00.000   30.531690029  114.357279436    31.5770   6  23   0.6216   0.5607   1.4383   0.1232   0.4557  -0.5785   0.00    0.0
2026/01/15 00:03:30.000   30.531690246  114.357280840    31.8644   6  23   0.5812   0.5248   1.3444   0.1154   0.4270  -0.5402   0.00    0.0
2026/01/15 00:04:00.000   30.531690647  114.357280772    31.8058   6  23   0.5478   0.4951   1.2664   0.1089   0.4033  -0.5084   0.00    0.0
2026/01/15 00:04:30.000   30.531690116  114.357280169    31.7743   6  23   0.5194   0.4700   1.2005   0.1035   0.3832  -0.4815   0.00    0.0
2026/01/15 00:05:00.000   30.531691037  114.357280311    31.6053   6  23   0.4951   0.4484   1.1436   0.0988   0.3659  -0.4583   0.00    0.0
2026/01/15 00:05:30.000   30.531691210  114.357280465    31.4215   6  23   0.4738   0.4296   1.0940   0.0948   0.3509  -0.4380   0.00    0.0
2026/01/15 00:06:00.000   30.531691366  114.357280474    31.3528   6  23   0.4550   0.4130   1.0501   0.0912   0.3376  -0.4201   0.00    0.0
2026/01/15 00:06:30.000   30.531690891  114.357279987    31.1910   6  23   0.4383   0.3982   1.0110   0.0880   0.3258  -0.4041   0.00    0.0
2026/01/15 00:07:00.000   30.531690485  114.357279799    31.2221   6  23   0.4233   0.3849   0.9759   0.0852   0.3152  -0.3897   0.00    0.0
2026/01/15 00:07:30.000   30.531689915  114.357280069    31.3650   6  23   0.4097   0.3729   0.9440   0.0827   0.3056  -0.3766   0.00    0.0
2026/01/15 00:08:00.000   30.531689569  114.357279816    31.4277   6  24   0.3967   0.3609   0.9128   0.0764   0.2938  -0.3666   0.00    0.0
2026/01/15 00:08:30.000   30.531689275  114.357279209    31.3219   6  24   0.3848   0.3500   0.8844   0.0708   0.2834  -0.3573   0.00    0.0
2026/01/15 00:09:00.000   30.531689329  114.357279682    31.2483   6  24   0.3739   0.3400   0.8585   0.0659   0.2740  -0.3485   0.00    0.0
2026/01/15 00:09:30.000   30.531689062  114.357279827    31.1695   6  24   0.3632   0.3296   0.8308   0.0675   0.2603  -0.3357   0.00    0.0
2026/01/15 00:10:00.000   30.531689060  114.357279420    31.1074   6  25   0.3532   0.3201   0.8042   0.0683   0.2482  -0.3250   0.00    0.0
2026/01/15 00:10:30.000   30.531688904  114.357279409    31.0160   6  24   0.3446   0.3125   0.7844   0.0643   0.2418  -0.3182   0.00    0.0
2026/01/15 00:11:00.000   30.531688795  114.357279344    30.9852   6  24   0.3367   0.3054   0.7660   0.0607   0.2359  -0.3118   0.00    0.0
2026/01/15 00:11:30.000   30.531688792  114.357279405    30.9417   6  24   0.3292   0.2988   0.7487   0.0573   0.2305  -0.3056   0.00    0.0
2026/01/15 00:12:00.000   30.531688731  114.357279404    30.8160   6  24   0.3223   0.2926   0.7325   0.0542   0.2254  -0.2998   0.00    0.0
2026/01/15 00:12:30.000   30.531688777  114.357279535    30.8381   6  24   0.3157   0.2868   0.7173   0.0514   0.2207  -0.2942   0.00    0.0
2026/01/15 00:13:00.000   30.531688699  114.357279430    30.8641   6  24   0.3094   0.2818   0.7044   0.0453   0.2179  -0.2904   0.00    0.0
2026/01/15 00:13:30.000   30.531688826  114.357279351    30.7678   6  25   0.3034   0.2762   0.6897   0.0410   0.2124  -0.2859   0.00    0.0
2026/01/15 00:14:00.000   30.531688906  114.357279105    30.7110   6  25   0.2977   0.2709   0.6759   0.0369   0.2072  -0.2815   0.00    0.0
2026/01/15 00:14:30.000   30.531688861  114.357279070    30.6843   6  25   0.2923   0.2659   0.6629   0.0329   0.2025  -0.2773   0.00    0.0
2026/01/15 00:15:00.000   30.531688807  114.357278857    30.6343   6  25   0.2872   0.2612   0.6506   0.0290   0.1980  -0.2732   0.00    0.0
2026/01/15 00:15:30.000   30.531688825  114.357279083    30.6175   6  26   0.2818   0.2562   0.6366   0.0302   0.1915  -0.2676   0.00    0.0
2026/01/15 00:16:00.000   30.531688633  114.357279121    30.6600   6  25   0.2768   0.2521   0.6252   0.0294   0.1877  -0.2628   0.00    0.0
2026/01/15 00:16:30.000   30.531688688  114.357278685    30.5839   6  26   0.2719   0.2476   0.6128   0.0302   0.1820  -0.2577   0.00    0.0
2026/01/15 00:17:00.000   30.531688695  114.357278415    30.5083   6  26   0.2673   0.2434   0.6011   0.0308   0.1768  -0.2529   0.00    0.0
2026/01/15 00:17:30.000   30.531688630  114.357278156    30.4530   6  26   0.2629   0.2394   0.5900   0.0313   0.1720  -0.2483   0.00    0.0
2026/01/15 00:18:00.000   30.531688540  114.357278181    30.4412   6  26   0.2587   0.2356   0.5795   0.0316   0.1675  -0.2440   0.00    0.0
2026/01/15 00:18:30.000   30.531688517  114.357278341    30.4453   6  26   0.2547   0.2319   0.5695   0.0318   0.1633  -0.2398   0.00    0.0
2026/01/15 00:19:00.000   30.531688569  114.357278309    30.4448   6  26   0.2509   0.2285   0.5601   0.0320   0.1593  -0.2359   0.00    0.0
2026/01/15 00:19:30.000   30.531688586  114.357278427    30.4448   6  25   0.2475   0.2255   0.5524   0.0294   0.1572  -0.2332   0.00    0.0
2026/01/15 00:20:00.000   30.531688660  114.357278620    30.4297   6  26   0.2440   0.2224   0.5437   0.0296   0.1536  -0.2295   0.00    0.0
2026/01/15 00:20:30.000   30.531688623  114.357278508    30.4561   6  26   0.2406   0.2193   0.5354   0.0298   0.1503  -0.2260   0.00    0.0
2026/01/15 00:21:00.000   30.531688514  114.357278394    30.4585   6  26   0.2373   0.2164   0.5275   0.0298   0.1472  -0.2226   0.00    0.0
2026/01/15 00:21:30.000   30.531688456  114.357278280    30.4523   6  26   0.2341   0.2136   0.5199   0.0298   0.1443  -0.2193   0.00    0.0
2026/01/15 00:22:00.000   30.531688543  114.357278202    30.3897   6  26   0.2311   0.2110   0.5126   0.0298   0.1415  -0.2162   0.00    0.0
2026/01/15 00:22:30.000   30.531688486  114.357278123    30.3410   6  26   0.2282   0.2084   0.5056   0.0297   0.1388  -0.2132   0.00    0.0
2026/01/15 00:23:00.000   30.531688531  114.357277980    30.2965   6  26   0.2253   0.2059   0.4989   0.0296   0.1364  -0.2103   0.00    0.0
2026/01/15 00:23:30.000   30.531688432  114.357277875    30.2718   6  26   0.2226   0.2035   0.4924   0.0295   0.1340  -0.2075   0.00    0.0
2026/01/15 00:24:00.000   30.531688287  114.357277834    30.2680   6  26   0.2200   0.2012   0.4862   0.0294   0.1318  -0.2048   0.00    0.0
2026/01/15 00:24:30.000   30.531688125  114.357277703    30.2604   6  26   0.2174   0.1990   0.4802   0.0292   0.1296  -0.2022   0.00    0.0
2026/01/15 00:25:00.000   30.531687997  114.357277616    30.2488   6  26   0.2150   0.1969   0.4744   0.0291   0.1276  -0.1996   0.00    0.0
2026/01/15 00:25:30.000   30.531687950  114.357277443    30.2098   6  26   0.2126   0.1948   0.4689   0.0289   0.1257  -0.1972   0.00    0.0
2026/01/15 00:26:00.000   30.531687887  114.357277225    30.1730   6  27   0.2100   0.1926   0.4627   0.0303   0.1229  -0.1940   0.00    0.0
2026/01/15 00:26:30.000   30.531688009  114.357276982    30.0641   6  27   0.2075   0.1904   0.4567   0.0316   0.1202  -0.1911   0.00    0.0
2026/01/15 00:27:00.000   30.531688053  114.357276888    30.0255   6  27   0.2051   0.1884   0.4510   0.0326   0.1176  -0.1882   0.00    0.0
2026/01/15 00:27:30.000   30.531688343  114.357276672    29.9368   6  27   0.2027   0.1864   0.4455   0.0335   0.1152  -0.1854   0.00    0.0
2026/01/15 00:28:00.000   30.531688421  114.357276601    29.9282   6  26   0.2006   0.1844   0.4403   0.0344   0.1130  -0.1826   0.00    0.0
2026/01/15 00:28:30.000   30.531688556  114.357276462    29.9218   6  26   0.1985   0.1826   0.4353   0.0352   0.1108  -0.1799   0.00    0.0
2026/01/15 00:29:00.000   30.531688620  114.357276357    29.9193   6  26   0.1965   0.1808   0.4305   0.0359   0.1088  -0.1773   0.00    0.0
2026/01/15 00:29:30.000   30.531688608  114.357276339    29.9482   6  26   0.1945   0.1790   0.4258   0.0364   0.1069  -0.1748   0.00    0.0
2026/01/15 00:30:00.000   30.531688615  114.357276293    29.9506   6  26   0.1926   0.1773   0.4213   0.0370   0.1050  -0.1723   0.00    0.0
2026/01/15 00:30:30.000   30.531688689  114.357276087    29.9560   6  26   0.1908   0.1757   0.4170   0.0374   0.1033  -0.1700   0.00    0.0
2026/01/15 00:31:00.000   30.531688655  114.357276212    29.9896   6  26   0.1890   0.1741   0.4127   0.0378   0.1016  -0.1678   0.00    0.0
2026/01/15 00:31:30.000   30.531688631  114.357276113    30.0147   6  26   0.1872   0.1725   0.4086   0.0381   0.1000  -0.1656   0.00    0.0
2026/01/15 00:32:00.000   30.531688713  114.357276174    30.0103   6  26   0.1855   0.1710   0.4047   0.0384   0.0984  -0.1635   0.00    0.0
2026/01/15 00:32:30.000   30.531688687  114.357276061    30.0071   6  26   0.1839   0.1695   0.4008   0.0386   0.0969  -0.1614   0.00    0.0
2026/01/15 00:33:00.000   30.531688886  114.357276022    29.9886   6  26   0.1822   0.1681   0.3971   0.0388   0.0955  -0.1595   0.00    0.0
2026/01/15 00:33:30.000   30.531688932  114.357275985    29.9920   6  26   0.1807   0.1667   0.3934   0.0390   0.0942  -0.1576   0.00    0.0
2026/01/15 00:34:00.000   30.531688952  114.357275912    29.9805   6  26   0.1791   0.1653   0.3899   0.0391   0.0929  -0.1557   0.00    0.0
2026/01/15 00:34:30.000   30.531689068  114.357275910    29.9785   6  26   0.1776   0.1640   0.3865   0.0392   0.0916  -0.1539   0.00    0.0
2026/01/15 00:35:00.000   30.531689152  114.357275860    29.9848   6  26   0.1762   0.1627   0.3831   0.0393   0.0904  -0.1522   0.00    0.0
2026/01/15 00:35:30.000   30.531689187  114.357275928    29.9895   6  26   0.1747   0.1614   0.3799   0.0394   0.0893  -0.1505   0.00    0.0
2026/01/15 00:36:00.000   30.531689199  114.357275843    29.9955   6  26   0.1733   0.1602   0.3767   0.0394   0.0881  -0.1489   0.00    0.0
2026/01/15 00:36:30.000   30.531689336  114.357275795    29.9753   6  26   0.1720   0.1590   0.3736   0.0395   0.0871  -0.1473   0.00    0.0
2026/01/15 00:37:00.000   30.531689290  114.357275640    29.9718   6  26   0.1706   0.1578   0.3706   0.0395   0.0860  -0.1457   0.00    0.0
2026/01/15 00:37:30.000   30.531689274  114.357275569    29.9693   6  26   0.1693   0.1566   0.3677   0.0395   0.0850  -0.1442   0.00    0.0
2026/01/15 00:38:00.000   30.531689294  114.357275492    29.9769   6  26   0.1680   0.1555   0.3648   0.0395   0.0841  -0.1428   0.00    0.0
2026/01/15 00:38:30.000   30.531689327  114.357275413    29.9614   6  26   0.1668   0.1544   0.3620   0.0394   0.0832  -0.1413   0.00    0.0
2026/01/15 00:39:00.000   30.531689438  114.357275447    29.9675   6  26   0.1656   0.1533   0.3593   0.0394   0.0823  -0.1400   0.00    0.0
2026/01/15 00:39:30.000   30.531689527  114.357275396    29.9812   6  26   0.1644   0.1523   0.3567   0.0393   0.0814  -0.1387   0.00    0.0
2026/01/15 00:40:00.000   30.531689562  114.357275442    30.0008   6  26   0.1632   0.1512   0.3542   0.0393   0.0806  -0.1374   0.00    0.0
2026/01/15 00:40:30.000   30.531689613  114.357275484    30.0161   6  26   0.1621   0.1502   0.3517   0.0392   0.0798  -0.1361   0.00    0.0
2026/01/15 00:41:00.000   30.531689627  114.357275464    30.0115   6  26   0.1609   0.1492   0.3493   0.0391   0.0791  -0.1349   0.00    0.0
2026/01/15 00:41:30.000   30.531689690  114.357275380    30.0075   6  25   0.1599   0.1483   0.3472   0.0392   0.0781  -0.1340   0.00    0.0
2026/01/15 00:42:00.000   30.531689775  114.357275302    30.0110   6  25   0.1589   0.1474   0.3451   0.0393   0.0771  -0.1331   0.00    0.0
2026/01/15 00:42:30.000   30.531689895  114.357275358    30.0062   6  25   0.1580   0.1465   0.3431   0.0394   0.0762  -0.1322   0.00    0.0
2026/01/15 00:43:00.000   30.531689962  114.357275377    30.0150   6  25   0.1570   0.1456   0.3411   0.0395   0.0753  -0.1314   0.00    0.0
2026/01/15 00:43:30.000   30.531690018  114.357275321    30.0049   6  25   0.1561   0.1447   0.3392   0.0395   0.0745  -0.1305   0.00    0.0
2026/01/15 00:44:00.000   30.531690091  114.357275296    30.0052   6  25   0.1552   0.1438   0.3373   0.0395   0.0737  -0.1297   0.00    0.0
2026/01/15 00:44:30.000   30.531690190  114.357275285    29.9891   6  25   0.1542   0.1430   0.3354   0.0396   0.0729  -0.1289   0.00    0.0
2026/01/15 00:45:00.000   30.531690270  114.357275286    29.9919   6  25   0.1533   0.1422   0.3336   0.0396   0.0721  -0.1281   0.00    0.0
2026/01/15 00:45:30.000   30.531690317  114.357275290    29.9783   6  25   0.1525   0.1413   0.3317   0.0396   0.0713  -0.1274   0.00    0.0
2026/01/15 00:46:00.000   30.531690301  114.357275199    29.9720   6  25   0.1516   0.1405   0.3300   0.0396   0.0706  -0.1266   0.00    0.0
2026/01/15 00:46:30.000   30.531690330  114.357275151    29.9543   6  26   0.1507   0.1397   0.3281   0.0395   0.0699  -0.1259   0.00    0.0
2026/01/15 00:47:00.000   30.531690380  114.357275150    29.9423   6  26   0.1499   0.1390   0.3263   0.0395   0.0691  -0.1253   0.00    0.0
2026/01/15 00:47:30.000   30.531690370  114.357275080    29.9320   6  26   0.1490   0.1382   0.3244   0.0394   0.0684  -0.1246   0.00    0.0
2026/01/15 00:48:00.000   30.531690398  114.357275012    29.9200   6  25   0.1482   0.1375   0.3228   0.0393   0.0676  -0.1239   0.00    0.0
2026/01/15 00:48:30.000   30.531690505  114.357274992    29.9249   6  25   0.1474   0.1368   0.3211   0.0392   0.0669  -0.1233   0.00    0.0
2026/01/15 00:49:00.000   30.531690532  114.357275018    29.9493   6  25   0.1466   0.1361   0.3195   0.0391   0.0661  -0.1226   0.00    0.0
2026/01/15 00:49:30.000   30.531690598  114.357274996    29.9557   6  25   0.1458   0.1354   0.3179   0.0390   0.0654  -0.1219   0.00    0.0
2026/01/15 00:50:00.000   30.531690683  114.357274982    29.9653   6  25   0.1450   0.1347   0.3163   0.0389   0.0647  -0.1213   0.00    0.0
2026/01/15 00:50:30.000   30.531690691  114.357275014    29.9600   6  25   0.1442   0.1340   0.3148   0.0388   0.0640  -0.1207   0.00    0.0
2026/01/15 00:51:00.000   30.531690748  114.357274951    29.9630   6  25   0.1434   0.1333   0.3133   0.0387   0.0633  -0.1201   0.00    0.0
2026/01/15 00:51:30.000   30.531690737  114.357274854    29.9635   6  25   0.1427   0.1327   0.3118   0.0386   0.0626  -0.1195   0.00    0.0
2026/01/15 00:52:00.000   30.531690789  114.357274833    29.9612   6  25   0.1419   0.1320   0.3103   0.0385   0.0620  -0.1189   0.00    0.0
2026/01/15 00:52:30.000   30.531690824  114.357274813    29.9554   6  25   0.1412   0.1314   0.3088   0.0383   0.0614  -0.1183   0.00    0.0
2026/01/15 00:53:00.000   30.531690825  114.357274679    29.9507   6  25   0.1405   0.1308   0.3074   0.0382   0.0608  -0.1177   0.00    0.0
2026/01/15 00:53:30.000   30.531690804  114.357274570    29.9502   6  25   0.1398   0.1302   0.3060   0.0381   0.0602  -0.1171   0.00    0.0
2026/01/15 00:54:00.000   30.531690848  114.357274547    29.9334   6  25   0.1391   0.1295   0.3046   0.0379   0.0597  -0.1165   0.00    0.0
2026/01/15 00:54:30.000   30.531690829  114.357274517    29.9225   6  25   0.1384   0.1289   0.3032   0.0378   0.0591  -0.1160   0.00    0.0
2026/01/15 00:55:00.000   30.531690868  114.357274502    29.9250   6  25   0.1377   0.1284   0.3019   0.0377   0.0586  -0.1154   0.00    0.0
2026/01/15 00:55:30.000   30.531690970  114.357274380    29.9162   6  25   0.1370   0.1278   0.3005   0.0375   0.0581  -0.1149   0.00    0.0
2026/01/15 00:56:00.000   30.531691037  114.357274393    29.9020   6  25   0.1363   0.1272   0.2992   0.0374   0.0576  -0.1143   0.00    0.0
2026/01/15 00:56:30.000   30.531691087  114.357274355    29.8771   6  25   0.1357   0.1266   0.2979   0.0372   0.0571  -0.1138   0.00    0.0
2026/01/15 00:57:00.000   30.531691152  114.357274277    29.8717   6  25   0.1350   0.1261   0.2966   0.0371   0.0566  -0.1133   0.00    0.0
2026/01/15 00:57:30.000   30.531691213  114.357274258    29.8767   6  25   0.1344   0.1255   0.2954   0.0369   0.0562  -0.1128   0.00    0.0
2026/01/15 00:58:00.000   30.531691304  114.357274235    29.8778   6  25   0.1337   0.1250   0.2941   0.0368   0.0557  -0.1123   0.00    0.0
2026/01/15 00:58:30.000   30.531691370  114.357274193    29.8752   6  25   0.1331   0.1244   0.2929   0.0366   0.0553  -0.1118   0.00    0.0
2026/01/15 00:59:00.000   30.531691455  114.357274179    29.8721   6  25   0.1325   0.1239   0.2917   0.0365   0.0549  -0.1113   0.00    0.0
2026/01/15 00:59:30.000   30.531691474  114.357274156    29.8748   6  25   0.1319   0.1234   0.2905   0.0363   0.0545  -0.1108   0.00    0.0
2026/01/15 01:00:00.000   30.531691552  114.357274193    29.8656   6  25   0.1312   0.1228   0.2893   0.0361   0.0541  -0.1103   0.00    0.0
2026/01/15 01:00:30.000   30.531691567  114.357274158    29.8698   6  25   0.1306   0.1223   0.2881   0.0360   0.0537  -0.1098   0.00    0.0
2026/01/15 01:01:00.000   30.531691521  114.357274048    29.8616   6  25   0.1300   0.1218   0.2870   0.0358   0.0533  -0.1093   0.00    0.0
2026/01/15 01:01:30.000   30.531691505  114.357274008    29.8508   6  25   0.1295   0.1213   0.2858   0.0357   0.0530  -0.1089   0.00    0.0
2026/01/15 01:02:00.000   30.531691517  114.357273930    29.8227   6  25   0.1289   0.1208   0.2847   0.0355   0.0526  -0.1084   0.00    0.0
2026/01/15 01:02:30.000   30.531691445  114.357273962    29.8156   6  25   0.1283   0.1203   0.2836   0.0353   0.0523  -0.1080   0.00    0.0
2026/01/15 01:03:00.000   30.531691387  114.357273941    29.8119   6  25   0.1277   0.1198   0.2825   0.0352   0.0520  -0.1075   0.00    0.0
2026/01/15 01:03:30.000   30.531691368  114.357273936    29.8015   6  25   0.1272   0.1194   0.2814   0.0350   0.0516  -0.1071   0.00    0.0
2026/01/15 01:04:00.000   30.531691335  114.357273885    29.7894   6  25   0.1266   0.1189   0.2803   0.0349   0.0513  -0.1066   0.00    0.0
2026/01/15 01:04:30.000   30.531691344  114.357273817    29.7922   6  24   0.1261   0.1184   0.2793   0.0347   0.0511  -0.1061   0.00    0.0
2026/01/15 01:05:00.000   30.531691326  114.357273779    29.7887   6  25   0.1255   0.1180   0.2782   0.0345   0.0508  -0.1057   0.00    0.0
2026/01/15 01:05:30.000   30.531691349  114.357273747    29.7781   6  25   0.1250   0.1175   0.2772   0.0344   0.0505  -0.1053   0.00    0.0
2026/01/15 01:06:00.000   30.531691334  114.357273708    29.7763   6  25   0.1244   0.1171   0.2761   0.0342   0.0502  -0.1049   0.00    0.0
2026/01/15 01:06:30.000   30.531691347  114.357273709    29.7662   6  25   0.1239   0.1166   0.2751   0.0340   0.0500  -0.1045   0.00    0.0
2026/01/15 01:07:00.000   30.531691328  114.357273668    29.7687   6  25   0.1234   0.1162   0.2741   0.0339   0.0497  -0.1041   0.00    0.0
2026/01/15 01:07:30.000   30.531691339  114.357273653    29.7529   6  25   0.1229   0.1157   0.2731   0.0337   0.0495  -0.1037   0.00    0.0
2026/01/15 01:08:00.000   30.531691325  114.357273544    29.7299   6  25   0.1224   0.1153   0.2721   0.0335   0.0492  -0.1033   0.00    0.0
2026/01/15 01:08:30.000   30.531691277  114.357273472    29.7125   6  25   0.1219   0.1149   0.2711   0.0334   0.0490  -0.1029   0.00    0.0
2026/01/15 01:09:00.000   30.531691205  114.357273430    29.6976   6  25   0.1214   0.1145   0.2701   0.0332   0.0488  -0.1025   0.00    0.0
2026/01/15 01:09:30.000   30.531691216  114.357273467    29.6875   6  25   0.1209   0.1140   0.2691   0.0330   0.0485  -0.1021   0.00    0.0
2026/01/15 01:10:00.000   30.531691175  114.357273454    29.6710   6  25   0.1204   0.1136   0.2682   0.0328   0.0483  -0.1017   0.00    0.0
2026/01/15 01:10:30.000   30.531691109  114.357273406    29.6728   6  25   0.1199   0.1132   0.2672   0.0327   0.0481  -0.1013   0.00    0.0
2026/01/15 01:11:00.000   30.531691082  114.357273364    29.6649   6  25   0.1194   0.1128   0.2663   0.0325   0.0479  -0.1010   0.00    0.0
2026/01/15 01:11:30.000   30.531691098  114.357273334    29.6559   6  25   0.1189   0.1124   0.2654   0.0323   0.0477  -0.1006   0.00    0.0
2026/01/15 01:12:00.000   30.531691067  114.357273280    29.6495   6  25   0.1185   0.1120   0.2644   0.0322   0.0475  -0.1002   0.00    0.0
2026/01/15 01:12:30.000   30.531691085  114.357273298    29.6425   6  25   0.1180   0.1116   0.2635   0.0320   0.0474  -0.0999   0.00    0.0
2026/01/15 01:13:00.000   30.531691044  114.357273330    29.6532   6  25   0.1175   0.1112   0.2626   0.0318   0.0472  -0.0995   0.00    0.0
2026/01/15 01:13:30.000   30.531691003  114.357273332    29.6361   6  25   0.1171   0.1108   0.2617   0.0317   0.0470  -0.0992   0.00    0.0
2026/01/15 01:14:00.000   30.531690978  114.357273375    29.6249   6  25   0.1166   0.1105   0.2608   0.0315   0.0468  -0.0988   0.00    0.0
2026/01/15 01:14:30.000   30.531690973  114.357273400    29.6190   6  25   0.1162   0.1101   0.2599   0.0313   0.0467  -0.0985   0.00    0.0
2026/01/15 01:15:00.000   30.531690954  114.357273408    29.6075   6  25   0.1157   0.1097   0.2590   0.0312   0.0465  -0.0982   0.00    0.0
2026/01/15 01:15:30.000   30.531690916  114.357273373    29.5940   6  25   0.1153   0.1093   0.2582   0.0310   0.0464  -0.0978   0.00    0.0
2026/01/15 01:16:00.000   30.531690913  114.357273417    29.5968   6  25   0.1149   0.1090   0.2573   0.0308   0.0462  -0.0975   0.00    0.0
2026/01/15 01:16:30.000   30.531690922  114.357273436    29.5927   6  25   0.1144   0.1086   0.2564   0.0306   0.0461  -0.0972   0.00    0.0
2026/01/15 01:17:00.000   30.531690954  114.357273417    29.5835   6  25   0.1140   0.1082   0.2556   0.0305   0.0459  -0.0968   0.00    0.0
2026/01/15 01:17:30.000   30.531690956  114.357273488    29.5824   6  25   0.1136   0.1079   0.2547   0.0303   0.0458  -0.0965   0.00    0.0
2026/01/15 01:18:00.000   30.531690962  114.357273585    29.5781   6  25   0.1132   0.1075   0.2539   0.0301   0.0457  -0.0962   0.00    0.0
2026/01/15 01:18:30.000   30.531690918  114.357273569    29.5626   6  25   0.1127   0.1072   0.2531   0.0300   0.0455  -0.0959   0.00    0.0
2026/01/15 01:19:00.000   30.531690926  114.357273622    29.5591   6  25   0.1123   0.1068   0.2522   0.0298   0.0454  -0.0956   0.00    0.0
2026/01/15 01:19:30.000   30.531690942  114.357273658    29.5530   6  25   0.1119   0.1065   0.2514   0.0296   0.0453  -0.0953   0.00    0.0
2026/01/15 01:20:00.000   30.531690910  114.357273671    29.5454   6  25   0.1115   0.1062   0.2506   0.0295   0.0452  -0.0950   0.00    0.0
2026/01/15 01:20:30.000   30.531690901  114.357273671    29.5345   6  25   0.1111   0.1058   0.2498   0.0293   0.0450  -0.0947   0.00    0.0
2026/01/15 01:21:00.000   30.531690915  114.357273765    29.5260   6  25   0.1107   0.1055   0.2490   0.0291   0.0449  -0.0944   0.00    0.0
2026/01/15 01:21:30.000   30.531690907  114.357273814    29.5121   6  25   0.1103   0.1052   0.2482   0.0290   0.0448  -0.0941   0.00    0.0
2026/01/15 01:22:00.000   30.531690916  114.357273874    29.5036   6  25   0.1099   0.1048   0.2474   0.0288   0.0447  -0.0938   0.00    0.0
2026/01/15 01:22:30.000   30.531690899  114.357273846    29.4893   6  26   0.1095   0.1045   0.2466   0.0286   0.0446  -0.0935   0.00    0.0
2026/01/15 01:23:00.000   30.531690930  114.357273879    29.4734   6  25   0.1091   0.1042   0.2458   0.0284   0.0445  -0.0932   0.00    0.0
2026/01/15 01:23:30.000   30.531690884  114.357273933    29.4700   6  25   0.1088   0.1038   0.2450   0.0283   0.0444  -0.0929   0.00    0.0
2026/01/15 01:24:00.000   30.531690885  114.357273912    29.4613   6  25   0.1084   0.1035   0.2442   0.0281   0.0443  -0.0926   0.00    0.0
2026/01/15 01:24:30.000   30.531690889  114.357273912    29.4508   6  25   0.1080   0.1032   0.2435   0.0279   0.0442  -0.0924   0.00    0.0
2026/01/15 01:25:00.000   30.531690901  114.357273944    29.4456   6  25   0.1076   0.1029   0.2427   0.0278   0.0441  -0.0921   0.00    0.0
2026/01/15 01:25:30.000   30.531690893  114.357273946    29.4364   6  25   0.1073   0.1026   0.2419   0.0276   0.0440  -0.0918   0.00    0.0
2026/01/15 01:26:00.000   30.531690863  114.357273970    29.4310   6  25   0.1069   0.1023   0.2412   0.0274   0.0439  -0.0915   0.00    0.0
2026/01/15 01:26:30.000   30.531690849  114.357274009    29.4241   6  25   0.1066   0.1020   0.2404   0.0273   0.0438  -0.0913   0.00    0.0
2026/01/15 01:27:00.000   30.531690771  114.357273958    29.4142   6  26   0.1062   0.1017   0.2397   0.0271   0.0437  -0.0910   0.00    0.0
2026/01/15 01:27:30.000   30.531690724  114.357273902    29.4021   6  26   0.1058   0.1014   0.2389   0.0269   0.0436  -0.0908   0.00    0.0
2026/01/15 01:28:00.000   30.531690653  114.357273843    29.3958   6  26   0.1055   0.1011   0.2382   0.0267   0.0435  -0.0905   0.00    0.0
2026/01/15 01:28:30.000   30.531690617  114.357273888    29.4000   6  25   0.1051   0.1008   0.2375   0.0266   0.0434  -0.0903   0.00    0.0
2026/01/15 01:29:00.000   30.531690601  114.357273919    29.4043   6  25   0.1048   0.1005   0.2367   0.0264   0.0433  -0.0900   0.00    0.0
2026/01/15 01:29:30.000   30.531690580  114.357273898    29.3964   6  25   0.1044   0.1002   0.2360   0.0262   0.0432  -0.0897   0.00    0.0
2026/01/15 01:30:00.000   30.531690555  114.357273955    29.3949   6  25   0.1041   0.0999   0.2353   0.0261   0.0432  -0.0895   0.00    0.0
2026/01/15 01:30:30.000   30.531690561  114.357273995    29.3886   6  25   0.1038   0.0996   0.2345   0.0259   0.0431  -0.0893   0.00    0.0
2026/01/15 01:31:00.000   30.531690513  114.357274010    29.3876   6  25   0.1034   0.0993   0.2338   0.0258   0.0430  -0.0890   0.00    0.0
2026/01/15 01:31:30.000   30.531690493  114.357274028    29.3801   6  25   0.1031   0.0991   0.2331   0.0256   0.0429  -0.0888   0.00    0.0
2026/01/15 01:32:00.000   30.531690420  114.357273963    29.3705   6  26   0.1028   0.0988   0.2324   0.0254   0.0428  -0.0885   0.00    0.0
2026/01/15 01:32:30.000   30.531690376  114.357273920    29.3630   6  25   0.1024   0.0985   0.2317   0.0253   0.0427  -0.0883   0.00    0.0
2026/01/15 01:33:00.000   30.531690364  114.357273937    29.3448   6  25   0.1021   0.0982   0.2310   0.0251   0.0427  -0.0881   0.00    0.0
2026/01/15 01:33:30.000   30.531690352  114.357273968    29.3256   6  25   0.1018   0.0980   0.2303   0.0249   0.0426  -0.0878   0.00    0.0
2026/01/15 01:34:00.000   30.531690292  114.357273947    29.3119   6  26   0.1015   0.0977   0.2296   0.0248   0.0425  -0.0876   0.00    0.0
2026/01/15 01:34:30.000   30.531690285  114.357273971    29.2981   6  25   0.1012   0.0974   0.2289   0.0246   0.0424  -0.0874   0.00    0.0
2026/01/15 01:35:00.000   30.531690269  114.357273953    29.2905   6  25   0.1008   0.0972   0.2282   0.0245   0.0423  -0.0871   0.00    0.0
2026/01/15 01:35:30.000   30.531690238  114.357273930    29.2805   6  25   0.1005   0.0969   0.2275   0.0243   0.0423  -0.0869   0.00    0.0
2026/01/15 01:36:00.000   30.531690203  114.357273943    29.2724   6  26   0.1002   0.0966   0.2268   0.0241   0.0422  -0.0867   0.00    0.0
2026/01/15 01:36:30.000   30.531690166  114.357273927    29.2618   6  26   0.0999   0.0964   0.2261   0.0239   0.0421  -0.0865   0.00    0.0
2026/01/15 01:37:00.000   30.531690106  114.357273921    29.2570   6  26   0.0996   0.0961   0.2254   0.0238   0.0420  -0.0864   0.00    0.0
2026/01/15 01:37:30.000   30.531690088  114.357273910    29.2389   6  26   0.0993   0.0959   0.2247   0.0236   0.0419  -0.0862   0.00    0.0
2026/01/15 01:38:00.000   30.531690051  114.357273910    29.2223   6  26   0.0989   0.0956   0.2240   0.0234   0.0418  -0.0860   0.00    0.0
2026/01/15 01:38:30.000   30.531690005  114.357273897    29.2165   6  27   0.0986   0.0953   0.2233   0.0232   0.0418  -0.0858   0.00    0.0
2026/01/15 01:39:00.000   30.531689974  114.357273906    29.2053   6  27   0.0983   0.0951   0.2226   0.0231   0.0418  -0.0856   0.00    0.0
2026/01/15 01:39:30.000   30.531689901  114.357273936    29.1889   6  28   0.0980   0.0948   0.2218   0.0230   0.0416  -0.0854   0.00    0.0
2026/01/15 01:40:00.000   30.531689889  114.357273932    29.1722   6  28   0.0977   0.0945   0.2210   0.0229   0.0415  -0.0851   0.00    0.0
2026/01/15 01:40:30.000   30.531689867  114.357273923    29.1580   6  28   0.0973   0.0942   0.2203   0.0228   0.0414  -0.0849   0.00    0.0
2026/01/15 01:41:00.000   30.531689861  114.357273934    29.1418   6  28   0.0970   0.0940   0.2195   0.0227   0.0412  -0.0846   0.00    0.0
2026/01/15 01:41:30.000   30.531689848  114.357273876    29.1349   6  28   0.0967   0.0937   0.2187   0.0226   0.0411  -0.0843   0.00    0.0
2026/01/15 01:42:00.000   30.531689824  114.357273858    29.1326   6  28   0.0964   0.0934   0.2180   0.0225   0.0410  -0.0841   0.00    0.0
2026/01/15 01:42:30.000   30.531689791  114.357273858    29.1127   6  28   0.0961   0.0931   0.2172   0.0224   0.0409  -0.0839   0.00    0.0
2026/01/15 01:43:00.000   30.531689778  114.357273801    29.0947   6  28   0.0957   0.0929   0.2164   0.0223   0.0407  -0.0836   0.00    0.0
2026/01/15 01:43:30.000   30.531689788  114.357273763    29.0834   6  28   0.0954   0.0926   0.2157   0.0222   0.0406  -0.0834   0.00    0.0
2026/01/15 01:44:00.000   30.531689760  114.357273786    29.0689   6  28   0.0951   0.0923   0.2150   0.0221   0.0405  -0.0831   0.00    0.0
2026/01/15 01:44:30.000   30.531689730  114.357273803    29.0605   6  29   0.0948   0.0921   0.2142   0.0220   0.0403  -0.0828   0.00    0.0
2026/01/15 01:45:00.000   30.531689708  114.357273769    29.0595   6  29   0.0945   0.0918   0.2134   0.0220   0.0401  -0.0825   0.00    0.0
2026/01/15 01:45:30.000   30.531689687  114.357273786    29.0555   6  29   0.0942   0.0915   0.2126   0.0219   0.0399  -0.0823   0.00    0.0
2026/01/15 01:46:00.000   30.531689662  114.357273761    29.0442   6  29   0.0938   0.0913   0.2118   0.0219   0.0397  -0.0820   0.00    0.0
2026/01/15 01:46:30.000   30.531689645  114.357273688    29.0156   6  30   0.0935   0.0910   0.2110   0.0218   0.0394  -0.0817   0.00    0.0
2026/01/15 01:47:00.000   30.531689664  114.357273652    29.0023   6  29   0.0932   0.0907   0.2103   0.0218   0.0392  -0.0814   0.00    0.0
2026/01/15 01:47:30.000   30.531689660  114.357273607    28.9902   6  29   0.0929   0.0905   0.2095   0.0217   0.0391  -0.0812   0.00    0.0
2026/01/15 01:48:00.000   30.531689673  114.357273580    28.9826   6  29   0.0926   0.0902   0.2088   0.0217   0.0389  -0.0809   0.00    0.0
2026/01/15 01:48:30.000   30.531689704  114.357273604    28.9723   6  28   0.0923   0.0900   0.2081   0.0217   0.0386  -0.0807   0.00    0.0
2026/01/15 01:49:00.000   30.531689712  114.357273616    28.9629   6  28   0.0921   0.0897   0.2074   0.0216   0.0384  -0.0805   0.00    0.0
2026/01/15 01:49:30.000   30.531689735  114.357273639    28.9507   6  28   0.0918   0.0895   0.2067   0.0216   0.0382  -0.0803   0.00    0.0
2026/01/15 01:50:00.000   30.531689729  114.357273623    28.9355   6  28   0.0915   0.0892   0.2061   0.0216   0.0379  -0.0801   0.00    0.0
2026/01/15 01:50:30.000   30.531689730  114.357273626    28.9177   6  28   0.0913   0.0890   0.2054   0.0216   0.0377  -0.0800   0.00    0.0
2026/01/15 01:51:00.000   30.531689713  114.357273558    28.8968   6  29   0.0910   0.0887   0.2048   0.0215   0.0375  -0.0798   0.00    0.0
2026/01/15 01:51:30.000   30.531689703  114.357273490    28.8761   6  29   0.0907   0.0885   0.2041   0.0215   0.0372  -0.0796   0.00    0.0
2026/01/15 01:52:00.000   30.531689705  114.357273459    28.8584   6  28   0.0905   0.0882   0.2035   0.0214   0.0370  -0.0794   0.00    0.0
2026/01/15 01:52:30.000   30.531689700  114.357273439    28.8462   6  28   0.0902   0.0880   0.2029   0.0214   0.0368  -0.0793   0.00    0.0
2026/01/15 01:53:00.000   30.531689701  114.357273408    28.8372   6  28   0.0900   0.0878   0.2022   0.0214   0.0366  -0.0791   0.00    0.0
2026/01/15 01:53:30.000   30.531689699  114.357273396    28.8274   6  28   0.0897   0.0875   0.2016   0.0213   0.0364  -0.0789   0.00    0.0
2026/01/15 01:54:00.000   30.531689705  114.357273432    28.8161   6  28   0.0895   0.0873   0.2010   0.0213   0.0362  -0.0788   0.00    0.0
2026/01/15 01:54:30.000   30.531689705  114.357273400    28.8074   6  28   0.0892   0.0871   0.2004   0.0212   0.0360  -0.0786   0.00    0.0
2026/01/15 01:55:00.000   30.531689681  114.357273337    28.7829   6  29   0.0890   0.0869   0.1998   0.0212   0.0358  -0.0785   0.00    0.0
2026/01/15 01:55:30.000   30.531689656  114.357273342    28.7703   6  28   0.0887   0.0866   0.1992   0.0211   0.0356  -0.0783   0.00    0.0
2026/01/15 01:56:00.000   30.531689652  114.357273302    28.7548   6  28   0.0885   0.0864   0.1986   0.0211   0.0354  -0.0781   0.00    0.0
2026/01/15 01:56:30.000   30.531689632  114.357273254    28.7347   6  29   0.0882   0.0862   0.1980   0.0210   0.0352  -0.0780   0.00    0.0
2026/01/15 01:57:00.000   30.531689614  114.357273211    28.7117   6  29   0.0880   0.0859   0.1974   0.0210   0.0350  -0.0778   0.00    0.0
2026/01/15 01:57:30.000   30.531689639  114.357273197    28.6965   6  28   0.0878   0.0857   0.1968   0.0209   0.0349  -0.0777   0.00    0.0
2026/01/15 01:58:00.000   30.531689631  114.357273160    28.6878   6  28   0.0875   0.0855   0.1962   0.0209   0.0347  -0.0775   0.00    0.0
2026/01/15 01:58:30.000   30.531689593  114.357273077    28.6738   6  29   0.0873   0.0853   0.1956   0.0208   0.0345  -0.0774   0.00    0.0
2026/01/15 01:59:00.000   30.531689587  114.357273080    28.6701   6  28   0.0871   0.0851   0.1951   0.0207   0.0343  -0.0772   0.00    0.0
2026/01/15 01:59:30.000   30.531689600  114.357273082    28.6547   6  28   0.0868   0.0849   0.1945   0.0207   0.0342  -0.0771   0.00    0.0
2026/01/15 02:00:00.000   30.531689621  114.357273061    28.6465   6  28   0.0866   0.0847   0.1940   0.0207   0.0340  -0.0769   0.00    0.0
