% program   : RTKPOST ver.demo5 b34d
% inp file  : E:\Master courses\SNDP-PROJECT\New_Data\obs\RNXDATA\WUH200CHN_R_20260150000_01D_30S_MO.obs
% inp file  : E:\Master courses\SNDP-PROJECT\New_Data\nav\BRDC00IGS_R_20260150000_01D_MN.rnx
% inp file  : E:\Master courses\SNDP-PROJECT\New_Data\DATA_FINAL_ANT_EXTRA\COD0MGXFIN_20260150000_01D_05M_ORB.SP3
% inp file  : E:\Master courses\SNDP\SNDP-PROJECT\1_DATA\HKWS_OP71_data\IGS0OPSFIN_20260150000_01D_30S_CLK.CLK
% obs start : 2026/01/15 00:00:00.0 GPST (week2401 345600.0s)
% obs end   : 2026/01/15 23:59:30.0 GPST (week2401 431970.0s)
% pos mode  : PPP Static
% solution  : Forward
% elev mask : 15.0 deg
% dynamics  : off
% tidecorr  : off
% tropo opt : Saastamoinen
% ephemeris : Broadcast+SBAS
% navi sys  : GPS Galileo
% antenna1  : JAVRINGANT_G5T  NONE  ( 0.0000  0.0000  0.1206)
%
% (lat/lon/height=WGS84/ellipsoidal,Q=1:fix,2:float,3:sbas,4:dgps,5:single,6:ppp,ns=# of satellites)
%  GPST                  latitude(deg) longitude(deg)  height(m)   Q  ns   sdn(m)   sde(m)   sdu(m)  sdne(m)  sdeu(m)  sdun(m) age(s)  ratio
2026/01/15 00:00:00.000   30.531667592  114.357260784    27.6387   6  12   2.0163   2.0949   5.4760  -0.6479   2.0529  -1.5154   0.00    0.0
2026/01/15 00:00:30.000   30.531672757  114.357260215    28.1503   6  12   1.4273   1.4851   3.8793  -0.4590   1.4597  -1.0713   0.00    0.0
2026/01/15 00:01:00.000   30.531674235  114.357261236    28.2770   6  12   1.1658   1.2146   3.1671  -0.3747   1.1960  -0.8726   0.00    0.0
2026/01/15 00:01:30.000   30.531674112  114.357262388    28.4287   6  12   1.0099   1.0534   2.7411  -0.3242   1.0388  -0.7535   0.00    0.0
2026/01/15 00:02:00.000   30.531673932  114.357264530    28.3628   6  12   0.9034   0.9434   2.4497  -0.2896   0.9316  -0.6718   0.00    0.0
2026/01/15 00:02:30.000   30.531673294  114.357265949    28.0831   6  12   0.8248   0.8624   2.2342  -0.2640   0.8525  -0.6113   0.00    0.0
2026/01/15 00:03:00.000   30.531673453  114.357266638    27.8710   6  12   0.7637   0.7994   2.0664  -0.2441   0.7912  -0.5640   0.00    0.0
2026/01/15 00:03:30.000   30.531673596  114.357268472    27.9208   6  12   0.7144   0.7487   1.9308  -0.2280   0.7418  -0.5258   0.00    0.0
2026/01/15 00:04:00.000   30.531673745  114.357268952    28.0113   6  12   0.6737   0.7068   1.8184  -0.2146   0.7010  -0.4940   0.00    0.0
2026/01/15 00:04:30.000   30.531673233  114.357268777    28.1051   6  12   0.6392   0.6714   1.7231  -0.2032   0.6665  -0.4670   0.00    0.0
2026/01/15 00:05:00.000   30.531673790  114.357268989    28.1407   6  12   0.6095   0.6409   1.6410  -0.1934   0.6368  -0.4438   0.00    0.0
2026/01/15 00:05:30.000   30.531673487  114.357269641    28.2469   6  12   0.5836   0.6144   1.5692  -0.1848   0.6110  -0.4234   0.00    0.0
2026/01/15 00:06:00.000   30.531674037  114.357269766    28.3581   6  12   0.5608   0.5911   1.5058  -0.1773   0.5882  -0.4053   0.00    0.0
2026/01/15 00:06:30.000   30.531673750  114.357269231    28.1877   6  12   0.5405   0.5703   1.4492  -0.1705   0.5679  -0.3892   0.00    0.0
2026/01/15 00:07:00.000   30.531673511  114.357268718    28.2163   6  12   0.5222   0.5516   1.3983  -0.1644   0.5498  -0.3746   0.00    0.0
2026/01/15 00:07:30.000   30.531673069  114.357268382    28.3949   6  12   0.5057   0.5348   1.3522  -0.1588   0.5333  -0.3614   0.00    0.0
2026/01/15 00:08:00.000   30.531672989  114.357269164    28.6541   6  13   0.4893   0.5162   1.2985  -0.1605   0.5085  -0.3583   0.00    0.0
2026/01/15 00:08:30.000   30.531672881  114.357269263    28.7081   6  13   0.4745   0.4996   1.2508  -0.1610   0.4870  -0.3542   0.00    0.0
2026/01/15 00:09:00.000   30.531673056  114.357269774    28.6897   6  13   0.4609   0.4846   1.2081  -0.1608   0.4681  -0.3495   0.00    0.0
2026/01/15 00:09:30.000   30.531672985  114.357270525    28.7753   6  14   0.4468   0.4659   1.1543  -0.1514   0.4368  -0.3334   0.00    0.0
2026/01/15 00:10:00.000   30.531673134  114.357270533    28.7891   6  14   0.4338   0.4495   1.1075  -0.1433   0.4102  -0.3195   0.00    0.0
2026/01/15 00:10:30.000   30.531673238  114.357270312    28.6313   6  13   0.4234   0.4387   1.0773  -0.1434   0.3986  -0.3157   0.00    0.0
2026/01/15 00:11:00.000   30.531673335  114.357270320    28.5967   6  13   0.4137   0.4287   1.0495  -0.1432   0.3880  -0.3118   0.00    0.0
2026/01/15 00:11:30.000   30.531673453  114.357270711    28.6632   6  13   0.4046   0.4194   1.0236  -0.1427   0.3783  -0.3077   0.00    0.0
2026/01/15 00:12:00.000   30.531673518  114.357270827    28.5828   6  13   0.3961   0.4107   0.9995  -0.1421   0.3693  -0.3037   0.00    0.0
2026/01/15 00:12:30.000   30.531673583  114.357271152    28.6824   6  13   0.3881   0.4026   0.9769  -0.1413   0.3611  -0.2996   0.00    0.0
2026/01/15 00:13:00.000   30.531673598  114.357270879    28.7278   6  14   0.3803   0.3938   0.9514  -0.1422   0.3496  -0.2981   0.00    0.0
2026/01/15 00:13:30.000   30.531673649  114.357270976    28.6210   6  14   0.3729   0.3856   0.9279  -0.1427   0.3391  -0.2962   0.00    0.0
2026/01/15 00:14:00.000   30.531673641  114.357270891    28.5949   6  14   0.3659   0.3780   0.9061  -0.1429   0.3296  -0.2939   0.00    0.0
2026/01/15 00:14:30.000   30.531673710  114.357270851    28.5959   6  14   0.3594   0.3709   0.8857  -0.1428   0.3209  -0.2915   0.00    0.0
2026/01/15 00:15:00.000   30.531673709  114.357270679    28.5674   6  14   0.3532   0.3642   0.8666  -0.1426   0.3129  -0.2889   0.00    0.0
2026/01/15 00:15:30.000   30.531673852  114.357270936    28.5461   6  15   0.3462   0.3559   0.8435  -0.1386   0.2997  -0.2817   0.00    0.0
2026/01/15 00:16:00.000   30.531673527  114.357271219    28.6261   6  15   0.3396   0.3482   0.8222  -0.1349   0.2878  -0.2750   0.00    0.0
2026/01/15 00:16:30.000   30.531673581  114.357270964    28.5384   6  15   0.3334   0.3411   0.8025  -0.1316   0.2770  -0.2687   0.00    0.0
2026/01/15 00:17:00.000   30.531673566  114.357270721    28.5046   6  15   0.3275   0.3344   0.7842  -0.1285   0.2671  -0.2629   0.00    0.0
2026/01/15 00:17:30.000   30.531673677  114.357270404    28.4788   6  15   0.3219   0.3282   0.7671  -0.1256   0.2580  -0.2574   0.00    0.0
2026/01/15 00:18:00.000   30.531673598  114.357270656    28.4790   6  15   0.3166   0.3223   0.7510  -0.1229   0.2497  -0.2523   0.00    0.0
2026/01/15 00:18:30.000   30.531673666  114.357270988    28.5159   6  15   0.3115   0.3168   0.7360  -0.1205   0.2420  -0.2474   0.00    0.0
2026/01/15 00:19:00.000   30.531673921  114.357270943    28.5308   6  15   0.3067   0.3116   0.7218  -0.1181   0.2349  -0.2428   0.00    0.0
2026/01/15 00:19:30.000   30.531673973  114.357271283    28.5250   6  14   0.3027   0.3077   0.7112  -0.1182   0.2317  -0.2410   0.00    0.0
2026/01/15 00:20:00.000   30.531674101  114.357271832    28.5519   6  15   0.2983   0.3030   0.6983  -0.1160   0.2254  -0.2367   0.00    0.0
2026/01/15 00:20:30.000   30.531674128  114.357272158    28.6608   6  15   0.2940   0.2984   0.6861  -0.1140   0.2195  -0.2326   0.00    0.0
2026/01/15 00:21:00.000   30.531674098  114.357272239    28.7174   6  15   0.2899   0.2941   0.6746  -0.1121   0.2140  -0.2287   0.00    0.0
2026/01/15 00:21:30.000   30.531674133  114.357272267    28.7499   6  15   0.2860   0.2900   0.6636  -0.1103   0.2089  -0.2249   0.00    0.0
2026/01/15 00:22:00.000   30.531674243  114.357272344    28.6798   6  15   0.2822   0.2861   0.6531  -0.1085   0.2041  -0.2214   0.00    0.0
2026/01/15 00:22:30.000   30.531674307  114.357272251    28.6010   6  15   0.2786   0.2824   0.6430  -0.1069   0.1996  -0.2179   0.00    0.0
2026/01/15 00:23:00.000   30.531674506  114.357272211    28.5443   6  15   0.2751   0.2788   0.6335  -0.1054   0.1953  -0.2146   0.00    0.0
2026/01/15 00:23:30.000   30.531674461  114.357272205    28.5394   6  15   0.2718   0.2753   0.6243  -0.1039   0.1913  -0.2115   0.00    0.0
2026/01/15 00:24:00.000   30.531674372  114.357272344    28.5335   6  15   0.2685   0.2720   0.6155  -0.1025   0.1876  -0.2084   0.00    0.0
2026/01/15 00:24:30.000   30.531674254  114.357272239    28.5071   6  15   0.2654   0.2688   0.6071  -0.1012   0.1840  -0.2055   0.00    0.0
2026/01/15 00:25:00.000   30.531674191  114.357272255    28.5278   6  15   0.2624   0.2657   0.5991  -0.0999   0.1807  -0.2027   0.00    0.0
2026/01/15 00:25:30.000   30.531674157  114.357272085    28.5042   6  15   0.2594   0.2628   0.5914  -0.0987   0.1776  -0.2000   0.00    0.0
2026/01/15 00:26:00.000   30.531674256  114.357271744    28.4542   6  16   0.2561   0.2593   0.5825  -0.0959   0.1723  -0.1956   0.00    0.0
2026/01/15 00:26:30.000   30.531674600  114.357271388    28.3369   6  16   0.2528   0.2559   0.5740  -0.0933   0.1675  -0.1914   0.00    0.0
2026/01/15 00:27:00.000   30.531674833  114.357271045    28.2721   6  16   0.2498   0.2527   0.5659  -0.0909   0.1629  -0.1875   0.00    0.0
2026/01/15 00:27:30.000   30.531675246  114.357270744    28.1863   6  16   0.2468   0.2496   0.5582  -0.0885   0.1585  -0.1837   0.00    0.0
2026/01/15 00:28:00.000   30.531675397  114.357270557    28.1622   6  15   0.2442   0.2466   0.5511  -0.0863   0.1545  -0.1795   0.00    0.0
2026/01/15 00:28:30.000   30.531675576  114.357270427    28.1785   6  15   0.2416   0.2438   0.5444  -0.0842   0.1507  -0.1756   0.00    0.0
2026/01/15 00:29:00.000   30.531675613  114.357270219    28.1748   6  15   0.2392   0.2410   0.5379  -0.0822   0.1470  -0.1717   0.00    0.0
2026/01/15 00:29:30.000   30.531675558  114.357270144    28.1976   6  15   0.2368   0.2384   0.5317  -0.0803   0.1436  -0.1681   0.00    0.0
2026/01/15 00:30:00.000   30.531675476  114.357270094    28.2281   6  15   0.2345   0.2358   0.5256  -0.0785   0.1404  -0.1646   0.00    0.0
2026/01/15 00:30:30.000   30.531675494  114.357269850    28.2362   6  15   0.2323   0.2333   0.5199  -0.0768   0.1373  -0.1613   0.00    0.0
2026/01/15 00:31:00.000   30.531675452  114.357269879    28.2728   6  15   0.2302   0.2310   0.5143  -0.0751   0.1344  -0.1581   0.00    0.0
2026/01/15 00:31:30.000   30.531675463  114.357269817    28.2862   6  15   0.2281   0.2286   0.5089  -0.0736   0.1316  -0.1550   0.00    0.0
2026/01/15 00:32:00.000   30.531675558  114.357269967    28.2960   6  15   0.2261   0.2264   0.5036  -0.0721   0.1289  -0.1520   0.00    0.0
2026/01/15 00:32:30.000   30.531675546  114.357269968    28.3089   6  15   0.2241   0.2242   0.4986  -0.0707   0.1264  -0.1492   0.00    0.0
2026/01/15 00:33:00.000   30.531675746  114.357269859    28.2747   6  15   0.2222   0.2221   0.4937  -0.0693   0.1240  -0.1464   0.00    0.0
2026/01/15 00:33:30.000   30.531675850  114.357269724    28.2469   6  15   0.2203   0.2201   0.4889  -0.0680   0.1218  -0.1438   0.00    0.0
2026/01/15 00:34:00.000   30.531675909  114.357269513    28.2209   6  15   0.2185   0.2181   0.4843  -0.0667   0.1196  -0.1413   0.00    0.0
2026/01/15 00:34:30.000   30.531675980  114.357269476    28.2076   6  15   0.2168   0.2162   0.4799  -0.0655   0.1175  -0.1388   0.00    0.0
2026/01/15 00:35:00.000   30.531676044  114.357269362    28.2190   6  15   0.2151   0.2143   0.4755  -0.0644   0.1155  -0.1364   0.00    0.0
2026/01/15 00:35:30.000   30.531676031  114.357269445    28.2087   6  15   0.2134   0.2125   0.4713  -0.0633   0.1136  -0.1342   0.00    0.0
2026/01/15 00:36:00.000   30.531676011  114.357269316    28.1954   6  15   0.2117   0.2107   0.4672  -0.0622   0.1118  -0.1320   0.00    0.0
2026/01/15 00:36:30.000   30.531676169  114.357269235    28.1644   6  15   0.2102   0.2090   0.4632  -0.0612   0.1101  -0.1298   0.00    0.0
2026/01/15 00:37:00.000   30.531676081  114.357269118    28.1838   6  15   0.2086   0.2073   0.4593  -0.0602   0.1084  -0.1278   0.00    0.0
2026/01/15 00:37:30.000   30.531676035  114.357269052    28.1907   6  15   0.2071   0.2057   0.4555  -0.0593   0.1069  -0.1258   0.00    0.0
2026/01/15 00:38:00.000   30.531676030  114.357269004    28.1986   6  15   0.2056   0.2041   0.4518  -0.0584   0.1054  -0.1238   0.00    0.0
2026/01/15 00:38:30.000   30.531676088  114.357268952    28.1992   6  15   0.2041   0.2025   0.4482  -0.0575   0.1039  -0.1220   0.00    0.0
2026/01/15 00:39:00.000   30.531676080  114.357269073    28.1981   6  15   0.2027   0.2010   0.4448  -0.0566   0.1025  -0.1202   0.00    0.0
2026/01/15 00:39:30.000   30.531676115  114.357269135    28.2108   6  15   0.2013   0.1995   0.4415  -0.0558   0.1012  -0.1185   0.00    0.0
2026/01/15 00:40:00.000   30.531676079  114.357269215    28.2314   6  15   0.2000   0.1980   0.4383  -0.0550   0.1000  -0.1168   0.00    0.0
2026/01/15 00:40:30.000   30.531676033  114.357269302    28.2507   6  15   0.1987   0.1966   0.4352  -0.0543   0.0988  -0.1152   0.00    0.0
2026/01/15 00:41:00.000   30.531675952  114.357269390    28.2428   6  15   0.1974   0.1952   0.4321  -0.0535   0.0976  -0.1136   0.00    0.0
2026/01/15 00:41:30.000   30.531675969  114.357269323    28.2345   6  14   0.1962   0.1939   0.4295  -0.0526   0.0961  -0.1126   0.00    0.0
2026/01/15 00:42:00.000   30.531676073  114.357269269    28.2428   6  14   0.1950   0.1926   0.4270  -0.0517   0.0947  -0.1116   0.00    0.0
2026/01/15 00:42:30.000   30.531676190  114.357269324    28.2165   6  14   0.1939   0.1913   0.4245  -0.0508   0.0933  -0.1107   0.00    0.0
2026/01/15 00:43:00.000   30.531676243  114.357269312    28.2090   6  14   0.1928   0.1901   0.4220  -0.0499   0.0920  -0.1098   0.00    0.0
2026/01/15 00:43:30.000   30.531676271  114.357269267    28.1813   6  14   0.1917   0.1889   0.4196  -0.0491   0.0907  -0.1089   0.00    0.0
2026/01/15 00:44:00.000   30.531676349  114.357269340    28.1716   6  14   0.1906   0.1877   0.4173  -0.0483   0.0895  -0.1081   0.00    0.0
2026/01/15 00:44:30.000   30.531676446  114.357269342    28.1599   6  14   0.1896   0.1865   0.4150  -0.0475   0.0883  -0.1072   0.00    0.0
2026/01/15 00:45:00.000   30.531676485  114.357269351    28.1591   6  14   0.1885   0.1854   0.4127  -0.0467   0.0872  -0.1064   0.00    0.0
2026/01/15 00:45:30.000   30.531676471  114.357269339    28.1604   6  14   0.1875   0.1843   0.4105  -0.0460   0.0861  -0.1056   0.00    0.0
2026/01/15 00:46:00.000   30.531676429  114.357269287    28.1567   6  14   0.1865   0.1832   0.4083  -0.0453   0.0850  -0.1048   0.00    0.0
2026/01/15 00:46:30.000   30.531676447  114.357269359    28.1629   6  14   0.1855   0.1821   0.4061  -0.0446   0.0840  -0.1041   0.00    0.0
2026/01/15 00:47:00.000   30.531676475  114.357269419    28.1677   6  14   0.1845   0.1810   0.4040  -0.0439   0.0830  -0.1033   0.00    0.0
2026/01/15 00:47:30.000   30.531676489  114.357269334    28.1670   6  14   0.1836   0.1800   0.4019  -0.0432   0.0821  -0.1026   0.00    0.0
2026/01/15 00:48:00.000   30.531676478  114.357269311    28.1719   6  13   0.1827   0.1790   0.4001  -0.0428   0.0808  -0.1017   0.00    0.0
2026/01/15 00:48:30.000   30.531676548  114.357269299    28.1713   6  13   0.1818   0.1781   0.3983  -0.0424   0.0796  -0.1007   0.00    0.0
2026/01/15 00:49:00.000   30.531676491  114.357269416    28.1979   6  13   0.1809   0.1772   0.3966  -0.0419   0.0784  -0.0998   0.00    0.0
2026/01/15 00:49:30.000   30.531676541  114.357269469    28.2115   6  13   0.1800   0.1762   0.3948  -0.0415   0.0772  -0.0989   0.00    0.0
2026/01/15 00:50:00.000   30.531676597  114.357269517    28.2165   6  13   0.1791   0.1753   0.3931  -0.0411   0.0761  -0.0981   0.00    0.0
2026/01/15 00:50:30.000   30.531676626  114.357269570    28.2060   6  13   0.1783   0.1745   0.3914  -0.0408   0.0750  -0.0972   0.00    0.0
2026/01/15 00:51:00.000   30.531676645  114.357269591    28.2117   6  13   0.1774   0.1736   0.3898  -0.0404   0.0740  -0.0964   0.00    0.0
2026/01/15 00:51:30.000   30.531676624  114.357269589    28.2164   6  13   0.1766   0.1727   0.3881  -0.0400   0.0730  -0.0955   0.00    0.0
2026/01/15 00:52:00.000   30.531676651  114.357269613    28.2143   6  13   0.1758   0.1719   0.3865  -0.0397   0.0720  -0.0947   0.00    0.0
2026/01/15 00:52:30.000   30.531676624  114.357269642    28.2082   6  13   0.1750   0.1711   0.3849  -0.0394   0.0711  -0.0939   0.00    0.0
2026/01/15 00:53:00.000   30.531676605  114.357269549    28.2025   6  13   0.1742   0.1702   0.3833  -0.0391   0.0701  -0.0932   0.00    0.0
2026/01/15 00:53:30.000   30.531676594  114.357269433    28.2043   6  13   0.1734   0.1694   0.3818  -0.0387   0.0693  -0.0924   0.00    0.0
2026/01/15 00:54:00.000   30.531676631  114.357269483    28.1906   6  13   0.1726   0.1686   0.3802  -0.0385   0.0684  -0.0917   0.00    0.0
2026/01/15 00:54:30.000   30.531676628  114.357269542    28.1880   6  13   0.1719   0.1678   0.3787  -0.0382   0.0676  -0.0909   0.00    0.0
2026/01/15 00:55:00.000   30.531676621  114.357269538    28.1856   6  13   0.1711   0.1671   0.3772  -0.0379   0.0668  -0.0902   0.00    0.0
2026/01/15 00:55:30.000   30.531676643  114.357269504    28.1943   6  13   0.1704   0.1663   0.3757  -0.0376   0.0660  -0.0895   0.00    0.0
2026/01/15 00:56:00.000   30.531676674  114.357269539    28.1868   6  13   0.1696   0.1655   0.3743  -0.0374   0.0653  -0.0888   0.00    0.0
2026/01/15 00:56:30.000   30.531676761  114.357269584    28.1718   6  13   0.1689   0.1648   0.3728  -0.0371   0.0646  -0.0882   0.00    0.0
2026/01/15 00:57:00.000   30.531676816  114.357269579    28.1600   6  13   0.1682   0.1641   0.3714  -0.0369   0.0639  -0.0875   0.00    0.0
2026/01/15 00:57:30.000   30.531676813  114.357269654    28.1662   6  13   0.1675   0.1633   0.3700  -0.0367   0.0633  -0.0869   0.00    0.0
2026/01/15 00:58:00.000   30.531676891  114.357269755    28.1684   6  13   0.1668   0.1626   0.3685  -0.0364   0.0626  -0.0862   0.00    0.0
2026/01/15 00:58:30.000   30.531676960  114.357269772    28.1677   6  13   0.1661   0.1619   0.3671  -0.0362   0.0620  -0.0856   0.00    0.0
2026/01/15 00:59:00.000   30.531677024  114.357269805    28.1653   6  13   0.1654   0.1612   0.3658  -0.0360   0.0615  -0.0850   0.00    0.0
2026/01/15 00:59:30.000   30.531677025  114.357269866    28.1711   6  13   0.1647   0.1605   0.3644  -0.0358   0.0609  -0.0844   0.00    0.0
2026/01/15 01:00:00.000   30.531677074  114.357269913    28.1581   6  13   0.1640   0.1598   0.3630  -0.0356   0.0604  -0.0838   0.00    0.0
2026/01/15 01:00:30.000   30.531677051  114.357269878    28.1535   6  13   0.1634   0.1592   0.3617  -0.0354   0.0599  -0.0832   0.00    0.0
2026/01/15 01:01:00.000   30.531677048  114.357269838    28.1552   6  13   0.1627   0.1585   0.3604  -0.0353   0.0594  -0.0827   0.00    0.0
2026/01/15 01:01:30.000   30.531677079  114.357269817    28.1499   6  13   0.1621   0.1579   0.3591  -0.0351   0.0589  -0.0821   0.00    0.0
2026/01/15 01:02:00.000   30.531677095  114.357269832    28.1379   6  13   0.1614   0.1572   0.3577  -0.0349   0.0585  -0.0816   0.00    0.0
2026/01/15 01:02:30.000   30.531677062  114.357269912    28.1415   6  13   0.1608   0.1566   0.3565  -0.0348   0.0581  -0.0810   0.00    0.0
2026/01/15 01:03:00.000   30.531677033  114.357269890    28.1487   6  13   0.1602   0.1559   0.3552  -0.0346   0.0577  -0.0805   0.00    0.0
2026/01/15 01:03:30.000   30.531677048  114.357269915    28.1478   6  13   0.1595   0.1553   0.3539  -0.0344   0.0573  -0.0800   0.00    0.0
2026/01/15 01:04:00.000   30.531677049  114.357269884    28.1467   6  13   0.1589   0.1547   0.3526  -0.0343   0.0570  -0.0795   0.00    0.0
2026/01/15 01:04:30.000   30.531677065  114.357269841    28.1543   6  13   0.1583   0.1541   0.3514  -0.0342   0.0567  -0.0790   0.00    0.0
2026/01/15 01:05:00.000   30.531677084  114.357269833    28.1567   6  13   0.1577   0.1535   0.3501  -0.0340   0.0563  -0.0786   0.00    0.0
2026/01/15 01:05:30.000   30.531677083  114.357269847    28.1567   6  13   0.1571   0.1529   0.3489  -0.0339   0.0560  -0.0781   0.00    0.0
2026/01/15 01:06:00.000   30.531677099  114.357269827    28.1529   6  13   0.1565   0.1523   0.3477  -0.0338   0.0558  -0.0776   0.00    0.0
2026/01/15 01:06:30.000   30.531677128  114.357269838    28.1514   6  13   0.1559   0.1517   0.3464  -0.0336   0.0555  -0.0772   0.00    0.0
2026/01/15 01:07:00.000   30.531677113  114.357269806    28.1573   6  13   0.1554   0.1511   0.3452  -0.0335   0.0553  -0.0767   0.00    0.0
2026/01/15 01:07:30.000   30.531677124  114.357269820    28.1435   6  13   0.1548   0.1506   0.3440  -0.0334   0.0550  -0.0763   0.00    0.0
2026/01/15 01:08:00.000   30.531677111  114.357269766    28.1433   6  13   0.1542   0.1500   0.3428  -0.0333   0.0548  -0.0759   0.00    0.0
2026/01/15 01:08:30.000   30.531677104  114.357269698    28.1393   6  13   0.1537   0.1494   0.3416  -0.0332   0.0546  -0.0755   0.00    0.0
2026/01/15 01:09:00.000   30.531677113  114.357269703    28.1473   6  13   0.1531   0.1489   0.3405  -0.0331   0.0544  -0.0751   0.00    0.0
2026/01/15 01:09:30.000   30.531677124  114.357269740    28.1436   6  13   0.1526   0.1483   0.3393  -0.0330   0.0543  -0.0747   0.00    0.0
2026/01/15 01:10:00.000   30.531677103  114.357269696    28.1394   6  13   0.1520   0.1478   0.3381  -0.0329   0.0541  -0.0743   0.00    0.0
2026/01/15 01:10:30.000   30.531677102  114.357269681    28.1552   6  13   0.1515   0.1473   0.3370  -0.0328   0.0540  -0.0739   0.00    0.0
2026/01/15 01:11:00.000   30.531677096  114.357269683    28.1581   6  13   0.1509   0.1467   0.3358  -0.0327   0.0538  -0.0736   0.00    0.0
2026/01/15 01:11:30.000   30.531677103  114.357269691    28.1535   6  13   0.1504   0.1462   0.3347  -0.0326   0.0537  -0.0732   0.00    0.0
2026/01/15 01:12:00.000   30.531677088  114.357269669    28.1512   6  13   0.1499   0.1457   0.3335  -0.0325   0.0536  -0.0729   0.00    0.0
2026/01/15 01:12:30.000   30.531677113  114.357269663    28.1492   6  13   0.1494   0.1452   0.3324  -0.0324   0.0535  -0.0725   0.00    0.0
2026/01/15 01:13:00.000   30.531677093  114.357269731    28.1613   6  13   0.1489   0.1447   0.3313  -0.0324   0.0534  -0.0722   0.00    0.0
2026/01/15 01:13:30.000   30.531677097  114.357269734    28.1613   6  13   0.1483   0.1442   0.3301  -0.0323   0.0533  -0.0719   0.00    0.0
2026/01/15 01:14:00.000   30.531677075  114.357269789    28.1584   6  13   0.1478   0.1437   0.3290  -0.0322   0.0533  -0.0716   0.00    0.0
2026/01/15 01:14:30.000   30.531677108  114.357269798    28.1560   6  13   0.1473   0.1432   0.3279  -0.0321   0.0532  -0.0713   0.00    0.0
2026/01/15 01:15:00.000   30.531677128  114.357269803    28.1534   6  13   0.1468   0.1427   0.3268  -0.0321   0.0532  -0.0710   0.00    0.0
2026/01/15 01:15:30.000   30.531677106  114.357269776    28.1485   6  13   0.1464   0.1422   0.3257  -0.0320   0.0531  -0.0707   0.00    0.0
2026/01/15 01:16:00.000   30.531677134  114.357269783    28.1439   6  13   0.1459   0.1417   0.3246  -0.0319   0.0531  -0.0704   0.00    0.0
2026/01/15 01:16:30.000   30.531677120  114.357269773    28.1410   6  13   0.1454   0.1412   0.3235  -0.0319   0.0531  -0.0701   0.00    0.0
2026/01/15 01:17:00.000   30.531677118  114.357269773    28.1290   6  13   0.1449   0.1408   0.3225  -0.0318   0.0531  -0.0698   0.00    0.0
2026/01/15 01:17:30.000   30.531677103  114.357269792    28.1180   6  13   0.1444   0.1403   0.3214  -0.0318   0.0530  -0.0696   0.00    0.0
2026/01/15 01:18:00.000   30.531677098  114.357269869    28.1117   6  13   0.1440   0.1398   0.3203  -0.0317   0.0530  -0.0693   0.00    0.0
2026/01/15 01:18:30.000   30.531677097  114.357269848    28.1105   6  13   0.1435   0.1394   0.3192  -0.0316   0.0530  -0.0691   0.00    0.0
2026/01/15 01:19:00.000   30.531677109  114.357269864    28.1099   6  13   0.1430   0.1389   0.3182  -0.0316   0.0530  -0.0688   0.00    0.0
2026/01/15 01:19:30.000   30.531677108  114.357269876    28.1007   6  13   0.1426   0.1385   0.3171  -0.0315   0.0531  -0.0686   0.00    0.0
2026/01/15 01:20:00.000   30.531677086  114.357269868    28.1030   6  13   0.1421   0.1380   0.3160  -0.0315   0.0531  -0.0684   0.00    0.0
2026/01/15 01:20:30.000   30.531677082  114.357269883    28.1021   6  13   0.1417   0.1376   0.3150  -0.0314   0.0531  -0.0681   0.00    0.0
2026/01/15 01:21:00.000   30.531677127  114.357269976    28.0908   6  13   0.1412   0.1371   0.3139  -0.0314   0.0531  -0.0679   0.00    0.0
2026/01/15 01:21:30.000   30.531677120  114.357270038    28.0840   6  13   0.1408   0.1367   0.3129  -0.0313   0.0532  -0.0677   0.00    0.0
2026/01/15 01:22:00.000   30.531677124  114.357270054    28.0849   6  13   0.1403   0.1363   0.3119  -0.0313   0.0532  -0.0675   0.00    0.0
2026/01/15 01:22:30.000   30.531677151  114.357270100    28.0758   6  13   0.1399   0.1359   0.3108  -0.0313   0.0532  -0.0673   0.00    0.0
2026/01/15 01:23:00.000   30.531677188  114.357270133    28.0698   6  13   0.1395   0.1354   0.3098  -0.0312   0.0533  -0.0671   0.00    0.0
2026/01/15 01:23:30.000   30.531677154  114.357270126    28.0697   6  13   0.1390   0.1350   0.3088  -0.0312   0.0533  -0.0669   0.00    0.0
2026/01/15 01:24:00.000   30.531677166  114.357270080    28.0588   6  13   0.1386   0.1346   0.3077  -0.0311   0.0533  -0.0668   0.00    0.0
2026/01/15 01:24:30.000   30.531677174  114.357270021    28.0482   6  13   0.1382   0.1342   0.3067  -0.0311   0.0534  -0.0666   0.00    0.0
2026/01/15 01:25:00.000   30.531677179  114.357270035    28.0482   6  13   0.1377   0.1338   0.3057  -0.0311   0.0534  -0.0664   0.00    0.0
2026/01/15 01:25:30.000   30.531677170  114.357270024    28.0405   6  13   0.1373   0.1334   0.3047  -0.0310   0.0535  -0.0663   0.00    0.0
2026/01/15 01:26:00.000   30.531677168  114.357270011    28.0406   6  13   0.1369   0.1330   0.3037  -0.0310   0.0535  -0.0661   0.00    0.0
2026/01/15 01:26:30.000   30.531677172  114.357270016    28.0349   6  13   0.1365   0.1326   0.3027  -0.0310   0.0536  -0.0660   0.00    0.0
2026/01/15 01:27:00.000   30.531677180  114.357269999    28.0351   6  13   0.1361   0.1322   0.3017  -0.0309   0.0537  -0.0658   0.00    0.0
2026/01/15 01:27:30.000   30.531677171  114.357270006    28.0397   6  13   0.1357   0.1318   0.3007  -0.0309   0.0537  -0.0657   0.00    0.0
2026/01/15 01:28:00.000   30.531677146  114.357269958    28.0409   6  13   0.1353   0.1314   0.2997  -0.0309   0.0538  -0.0655   0.00    0.0
2026/01/15 01:28:30.000   30.531677113  114.357269985    28.0428   6  13   0.1349   0.1310   0.2987  -0.0308   0.0538  -0.0654   0.00    0.0
2026/01/15 01:29:00.000   30.531677107  114.357269968    28.0458   6  13   0.1345   0.1307   0.2977  -0.0308   0.0539  -0.0653   0.00    0.0
2026/01/15 01:29:30.000   30.531677109  114.357269954    28.0503   6  13   0.1341   0.1303   0.2967  -0.0308   0.0540  -0.0652   0.00    0.0
2026/01/15 01:30:00.000   30.531677106  114.357269987    28.0494   6  13   0.1337   0.1299   0.2957  -0.0307   0.0540  -0.0650   0.00    0.0
2026/01/15 01:30:30.000   30.531677116  114.357270022    28.0532   6  13   0.1333   0.1295   0.2948  -0.0307   0.0541  -0.0649   0.00    0.0
2026/01/15 01:31:00.000   30.531677121  114.357269994    28.0538   6  13   0.1329   0.1292   0.2938  -0.0307   0.0541  -0.0648   0.00    0.0
2026/01/15 01:31:30.000   30.531677117  114.357269993    28.0539   6  13   0.1326   0.1288   0.2928  -0.0307   0.0542  -0.0647   0.00    0.0
2026/01/15 01:32:00.000   30.531677085  114.357269964    28.0485   6  13   0.1322   0.1284   0.2919  -0.0306   0.0542  -0.0646   0.00    0.0
2026/01/15 01:32:30.000   30.531677070  114.357269985    28.0486   6  13   0.1318   0.1281   0.2909  -0.0306   0.0543  -0.0645   0.00    0.0
2026/01/15 01:33:00.000   30.531677067  114.357269971    28.0316   6  13   0.1314   0.1277   0.2899  -0.0306   0.0544  -0.0644   0.00    0.0
2026/01/15 01:33:30.000   30.531677069  114.357270003    28.0229   6  13   0.1311   0.1274   0.2890  -0.0306   0.0544  -0.0643   0.00    0.0
2026/01/15 01:34:00.000   30.531677075  114.357269995    28.0201   6  13   0.1307   0.1270   0.2880  -0.0305   0.0545  -0.0643   0.00    0.0
2026/01/15 01:34:30.000   30.531677098  114.357270010    28.0119   6  13   0.1303   0.1267   0.2871  -0.0305   0.0545  -0.0642   0.00    0.0
2026/01/15 01:35:00.000   30.531677051  114.357269961    28.0031   6  13   0.1300   0.1263   0.2861  -0.0305   0.0546  -0.0641   0.00    0.0
2026/01/15 01:35:30.000   30.531677033  114.357269959    28.0042   6  13   0.1296   0.1260   0.2852  -0.0305   0.0546  -0.0640   0.00    0.0
2026/01/15 01:36:00.000   30.531677020  114.357269979    28.0024   6  14   0.1292   0.1257   0.2841  -0.0305   0.0547  -0.0642   0.00    0.0
2026/01/15 01:36:30.000   30.531676986  114.357269978    27.9976   6  14   0.1288   0.1253   0.2831  -0.0305   0.0547  -0.0643   0.00    0.0
2026/01/15 01:37:00.000   30.531676945  114.357269966    27.9994   6  14   0.1284   0.1250   0.2821  -0.0305   0.0547  -0.0644   0.00    0.0
2026/01/15 01:37:30.000   30.531676911  114.357269956    27.9835   6  14   0.1280   0.1246   0.2811  -0.0305   0.0547  -0.0646   0.00    0.0
2026/01/15 01:38:00.000   30.531676877  114.357269945    27.9703   6  14   0.1276   0.1243   0.2801  -0.0306   0.0547  -0.0647   0.00    0.0
2026/01/15 01:38:30.000   30.531676843  114.357269949    27.9694   6  14   0.1272   0.1240   0.2791  -0.0306   0.0547  -0.0648   0.00    0.0
2026/01/15 01:39:00.000   30.531676799  114.357269967    27.9621   6  14   0.1268   0.1237   0.2781  -0.0306   0.0547  -0.0649   0.00    0.0
2026/01/15 01:39:30.000   30.531676735  114.357270020    27.9603   6  15   0.1263   0.1233   0.2770  -0.0304   0.0545  -0.0649   0.00    0.0
2026/01/15 01:40:00.000   30.531676767  114.357270007    27.9478   6  15   0.1259   0.1229   0.2759  -0.0302   0.0543  -0.0648   0.00    0.0
2026/01/15 01:40:30.000   30.531676754  114.357269970    27.9367   6  15   0.1255   0.1226   0.2748  -0.0301   0.0541  -0.0647   0.00    0.0
2026/01/15 01:41:00.000   30.531676787  114.357269946    27.9263   6  15   0.1250   0.1222   0.2737  -0.0299   0.0538  -0.0647   0.00    0.0
2026/01/15 01:41:30.000   30.531676788  114.357269873    27.9157   6  15   0.1246   0.1218   0.2726  -0.0298   0.0536  -0.0646   0.00    0.0
2026/01/15 01:42:00.000   30.531676795  114.357269858    27.9179   6  15   0.1242   0.1215   0.2716  -0.0296   0.0534  -0.0645   0.00    0.0
2026/01/15 01:42:30.000   30.531676757  114.357269821    27.9073   6  15   0.1238   0.1211   0.2705  -0.0295   0.0533  -0.0645   0.00    0.0
2026/01/15 01:43:00.000   30.531676751  114.357269733    27.8931   6  15   0.1234   0.1208   0.2695  -0.0293   0.0531  -0.0644   0.00    0.0
2026/01/15 01:43:30.000   30.531676772  114.357269697    27.8806   6  15   0.1229   0.1204   0.2685  -0.0292   0.0529  -0.0643   0.00    0.0
2026/01/15 01:44:00.000   30.531676765  114.357269684    27.8785   6  15   0.1225   0.1201   0.2674  -0.0290   0.0527  -0.0643   0.00    0.0
2026/01/15 01:44:30.000   30.531676755  114.357269668    27.8815   6  16   0.1221   0.1197   0.2663  -0.0288   0.0523  -0.0641   0.00    0.0
2026/01/15 01:45:00.000   30.531676758  114.357269653    27.8823   6  16   0.1217   0.1193   0.2652  -0.0285   0.0520  -0.0639   0.00    0.0
2026/01/15 01:45:30.000   30.531676750  114.357269656    27.8861   6  16   0.1212   0.1190   0.2641  -0.0282   0.0516  -0.0637   0.00    0.0
2026/01/15 01:46:00.000   30.531676725  114.357269592    27.8688   6  16   0.1208   0.1186   0.2630  -0.0280   0.0513  -0.0635   0.00    0.0
2026/01/15 01:46:30.000   30.531676756  114.357269543    27.8466   6  16   0.1204   0.1183   0.2619  -0.0277   0.0509  -0.0633   0.00    0.0
2026/01/15 01:47:00.000   30.531676769  114.357269522    27.8330   6  16   0.1200   0.1179   0.2608  -0.0275   0.0506  -0.0631   0.00    0.0
2026/01/15 01:47:30.000   30.531676747  114.357269486    27.8235   6  16   0.1196   0.1175   0.2598  -0.0272   0.0503  -0.0630   0.00    0.0
2026/01/15 01:48:00.000   30.531676780  114.357269442    27.8163   6  16   0.1192   0.1172   0.2587  -0.0270   0.0499  -0.0628   0.00    0.0
2026/01/15 01:48:30.000   30.531676840  114.357269437    27.8124   6  15   0.1188   0.1169   0.2578  -0.0267   0.0496  -0.0628   0.00    0.0
2026/01/15 01:49:00.000   30.531676856  114.357269444    27.8069   6  15   0.1184   0.1165   0.2568  -0.0265   0.0492  -0.0628   0.00    0.0
2026/01/15 01:49:30.000   30.531676883  114.357269461    27.8042   6  15   0.1181   0.1162   0.2559  -0.0262   0.0488  -0.0628   0.00    0.0
2026/01/15 01:50:00.000   30.531676880  114.357269455    27.7969   6  15   0.1177   0.1159   0.2550  -0.0260   0.0485  -0.0628   0.00    0.0
2026/01/15 01:50:30.000   30.531676924  114.357269429    27.7919   6  15   0.1174   0.1156   0.2541  -0.0258   0.0481  -0.0628   0.00    0.0
2026/01/15 01:51:00.000   30.531676978  114.357269401    27.7885   6  15   0.1170   0.1153   0.2532  -0.0255   0.0478  -0.0628   0.00    0.0
2026/01/15 01:51:30.000   30.531677032  114.357269379    27.7826   6  15   0.1167   0.1149   0.2523  -0.0253   0.0474  -0.0629   0.00    0.0
2026/01/15 01:52:00.000   30.531677047  114.357269356    27.7795   6  15   0.1163   0.1146   0.2514  -0.0251   0.0471  -0.0629   0.00    0.0
2026/01/15 01:52:30.000   30.531677025  114.357269358    27.7792   6  15   0.1160   0.1143   0.2505  -0.0248   0.0468  -0.0629   0.00    0.0
2026/01/15 01:53:00.000   30.531677012  114.357269351    27.7726   6  15   0.1156   0.1140   0.2497  -0.0246   0.0464  -0.0629   0.00    0.0
2026/01/15 01:53:30.000   30.531677043  114.357269334    27.7662   6  15   0.1153   0.1137   0.2488  -0.0244   0.0461  -0.0629   0.00    0.0
2026/01/15 01:54:00.000   30.531677069  114.357269355    27.7597   6  15   0.1149   0.1134   0.2479  -0.0242   0.0458  -0.0630   0.00    0.0
2026/01/15 01:54:30.000   30.531677106  114.357269352    27.7610   6  15   0.1146   0.1131   0.2471  -0.0240   0.0455  -0.0630   0.00    0.0
2026/01/15 01:55:00.000   30.531677126  114.357269342    27.7534   6  15   0.1143   0.1128   0.2463  -0.0238   0.0452  -0.0630   0.00    0.0
2026/01/15 01:55:30.000   30.531677124  114.357269328    27.7474   6  15   0.1139   0.1125   0.2454  -0.0235   0.0450  -0.0630   0.00    0.0
2026/01/15 01:56:00.000   30.531677134  114.357269306    27.7372   6  15   0.1136   0.1122   0.2446  -0.0233   0.0447  -0.0631   0.00    0.0
2026/01/15 01:56:30.000   30.531677168  114.357269286    27.7287   6  15   0.1133   0.1119   0.2438  -0.0231   0.0444  -0.0631   0.00    0.0
2026/01/15 01:57:00.000   30.531677204  114.357269256    27.7170   6  15   0.1130   0.1117   0.2430  -0.0229   0.0441  -0.0631   0.00    0.0
2026/01/15 01:57:30.000   30.531677256  114.357269217    27.7064   6  15   0.1127   0.1114   0.2422  -0.0228   0.0439  -0.0631   0.00    0.0
2026/01/15 01:58:00.000   30.531677252  114.357269212    27.6987   6  15   0.1123   0.1111   0.2414  -0.0226   0.0436  -0.0631   0.00    0.0
2026/01/15 01:58:30.000   30.531677249  114.357269185    27.6887   6  15   0.1120   0.1108   0.2406  -0.0224   0.0434  -0.0632   0.00    0.0
2026/01/15 01:59:00.000   30.531677265  114.357269188    27.6872   6  15   0.1117   0.1105   0.2398  -0.0222   0.0432  -0.0632   0.00    0.0
2026/01/15 01:59:30.000   30.531677307  114.357269147    27.6772   6  15   0.1114   0.1103   0.2390  -0.0220   0.0429  -0.0632   0.00    0.0
2026/01/15 02:00:00.000   30.531677325  114.357269141    27.6678   6  15   0.1111   0.1100   0.2383  -0.0218   0.0426  -0.0632   0.00    0.0
2026/01/15 02:00:30.000   30.531677323  114.357269116    27.6581   6  15   0.1108   0.1097   0.2376  -0.0216   0.0424  -0.0632   0.00    0.0
2026/01/15 02:01:00.000   30.531677325  114.357269089    27.6510   6  15   0.1105   0.1095   0.2370  -0.0214   0.0422  -0.0631   0.00    0.0
2026/01/15 02:01:30.000   30.531677330  114.357269054    27.6408   6  15   0.1102   0.1092   0.2364  -0.0212   0.0419  -0.0631   0.00    0.0
2026/01/15 02:02:00.000   30.531677338  114.357269065    27.6346   6  15   0.1100   0.1089   0.2358  -0.0210   0.0417  -0.0630   0.00    0.0
2026/01/15 02:02:30.000   30.531677351  114.357269060    27.6218   6  15   0.1097   0.1087   0.2352  -0.0208   0.0415  -0.0630   0.00    0.0
2026/01/15 02:03:00.000   30.531677375  114.357269050    27.6152   6  15   0.1094   0.1084   0.2346  -0.0206   0.0414  -0.0629   0.00    0.0
2026/01/15 02:03:30.000   30.531677376  114.357269096    27.6074   6  15   0.1091   0.1082   0.2340  -0.0204   0.0412  -0.0628   0.00    0.0
2026/01/15 02:04:00.000   30.531677389  114.357269094    27.6005   6  15   0.1088   0.1079   0.2334  -0.0202   0.0410  -0.0628   0.00    0.0
2026/01/15 02:04:30.000   30.531677388  114.357269083    27.5904   6  15   0.1086   0.1077   0.2329  -0.0201   0.0408  -0.0627   0.00    0.0
2026/01/15 02:05:00.000   30.531677361  114.357269103    27.5827   6  15   0.1083   0.1074   0.2323  -0.0199   0.0406  -0.0627   0.00    0.0
2026/01/15 02:05:30.000   30.531677347  114.357269153    27.5770   6  15   0.1080   0.1072   0.2317  -0.0197   0.0405  -0.0626   0.00    0.0
2026/01/15 02:06:00.000   30.531677309  114.357269171    27.5580   6  15   0.1078   0.1069   0.2311  -0.0195   0.0403  -0.0626   0.00    0.0
2026/01/15 02:06:30.000   30.531677320  114.357269179    27.5542   6  15   0.1075   0.1067   0.2306  -0.0194   0.0402  -0.0625   0.00    0.0
2026/01/15 02:07:00.000   30.531677314  114.357269193    27.5439   6  15   0.1072   0.1065   0.2300  -0.0192   0.0400  -0.0624   0.00    0.0
2026/01/15 02:07:30.000   30.531677316  114.357269175    27.5336   6  15   0.1070   0.1062   0.2295  -0.0190   0.0399  -0.0624   0.00    0.0
2026/01/15 02:08:00.000   30.531677334  114.357269139    27.5229   6  14   0.1067   0.1060   0.2289  -0.0189   0.0397  -0.0623   0.00    0.0
2026/01/15 02:08:30.000   30.531677363  114.357269155    27.5173   6  14   0.1065   0.1058   0.2284  -0.0188   0.0395  -0.0621   0.00    0.0
2026/01/15 02:09:00.000   30.531677377  114.357269127    27.5078   6  14   0.1062   0.1055   0.2279  -0.0187   0.0393  -0.0620   0.00    0.0
2026/01/15 02:09:30.000   30.531677375  114.357269121    27.5059   6  14   0.1060   0.1053   0.2274  -0.0186   0.0391  -0.0619   0.00    0.0
2026/01/15 02:10:00.000   30.531677397  114.357269127    27.5065   6  14   0.1058   0.1051   0.2269  -0.0185   0.0389  -0.0618   0.00    0.0
2026/01/15 02:10:30.000   30.531677394  114.357269112    27.5043   6  14   0.1055   0.1049   0.2264  -0.0184   0.0388  -0.0617   0.00    0.0
2026/01/15 02:11:00.000   30.531677394  114.357269130    27.5035   6  14   0.1053   0.1046   0.2259  -0.0183   0.0386  -0.0616   0.00    0.0
2026/01/15 02:11:30.000   30.531677393  114.357269148    27.5064   6  14   0.1051   0.1044   0.2254  -0.0182   0.0385  -0.0615   0.00    0.0
2026/01/15 02:12:00.000   30.531677385  114.357269110    27.5036   6  14   0.1048   0.1042   0.2249  -0.0181   0.0383  -0.0614   0.00    0.0
2026/01/15 02:12:30.000   30.531677401  114.357269085    27.5002   6  14   0.1046   0.1040   0.2244  -0.0180   0.0382  -0.0613   0.00    0.0
2026/01/15 02:13:00.000   30.531677404  114.357269066    27.4998   6  14   0.1044   0.1038   0.2239  -0.0180   0.0380  -0.0612   0.00    0.0
2026/01/15 02:13:30.000   30.531677398  114.357269087    27.5012   6  14   0.1041   0.1035   0.2234  -0.0179   0.0379  -0.0611   0.00    0.0
2026/01/15 02:14:00.000   30.531677379  114.357269107    27.5016   6  14   0.1039   0.1033   0.2229  -0.0178   0.0377  -0.0610   0.00    0.0
2026/01/15 02:14:30.000   30.531677381  114.357269106    27.5020   6  14   0.1037   0.1031   0.2224  -0.0177   0.0376  -0.0609   0.00    0.0
2026/01/15 02:15:00.000   30.531677397  114.357269109    27.5039   6  14   0.1034   0.1029   0.2220  -0.0176   0.0375  -0.0608   0.00    0.0
2026/01/15 02:15:30.000   30.531677431  114.357269124    27.5038   6  14   0.1032   0.1027   0.2215  -0.0175   0.0374  -0.0607   0.00    0.0
2026/01/15 02:16:00.000   30.531677428  114.357269124    27.5017   6  14   0.1030   0.1025   0.2210  -0.0175   0.0372  -0.0606   0.00    0.0
2026/01/15 02:16:30.000   30.531677441  114.357269091    27.4942   6  14   0.1028   0.1023   0.2205  -0.0174   0.0371  -0.0605   0.00    0.0
2026/01/15 02:17:00.000   30.531677455  114.357269065    27.4905   6  14   0.1026   0.1021   0.2200  -0.0173   0.0370  -0.0604   0.00    0.0
2026/01/15 02:17:30.000   30.531677454  114.357269084    27.4917   6  14   0.1023   0.1019   0.2196  -0.0172   0.0369  -0.0603   0.00    0.0
2026/01/15 02:18:00.000   30.531677474  114.357269093    27.4894   6  14   0.1021   0.1016   0.2192  -0.0172   0.0368  -0.0603   0.00    0.0
2026/01/15 02:18:30.000   30.531677496  114.357269077    27.4858   6  13   0.1019   0.1015   0.2188  -0.0170   0.0366  -0.0603   0.00    0.0
2026/01/15 02:19:00.000   30.531677523  114.357269072    27.4834   6  13   0.1017   0.1013   0.2185  -0.0169   0.0364  -0.0603   0.00    0.0
2026/01/15 02:19:30.000   30.531677545  114.357269061    27.4816   6  13   0.1015   0.1011   0.2182  -0.0168   0.0362  -0.0604   0.00    0.0
2026/01/15 02:20:00.000   30.531677556  114.357269075    27.4809   6  13   0.1013   0.1009   0.2178  -0.0166   0.0360  -0.0604   0.00    0.0
2026/01/15 02:20:30.000   30.531677571  114.357269067    27.4777   6  13   0.1011   0.1007   0.2175  -0.0165   0.0358  -0.0604   0.00    0.0
2026/01/15 02:21:00.000   30.531677582  114.357269102    27.4778   6  13   0.1009   0.1005   0.2172  -0.0164   0.0356  -0.0604   0.00    0.0
2026/01/15 02:21:30.000   30.531677556  114.357269100    27.4743   6  13   0.1007   0.1003   0.2169  -0.0162   0.0355  -0.0605   0.00    0.0
2026/01/15 02:22:00.000   30.531677550  114.357269133    27.4710   6  13   0.1005   0.1001   0.2165  -0.0161   0.0353  -0.0605   0.00    0.0
2026/01/15 02:22:30.000   30.531677549  114.357269140    27.4660   6  13   0.1003   0.0999   0.2162  -0.0160   0.0351  -0.0605   0.00    0.0
2026/01/15 02:23:00.000   30.531677554  114.357269149    27.4624   6  13   0.1001   0.0998   0.2159  -0.0159   0.0350  -0.0605   0.00    0.0
2026/01/15 02:23:30.000   30.531677540  114.357269123    27.4567   6  13   0.0999   0.0996   0.2156  -0.0158   0.0348  -0.0606   0.00    0.0
2026/01/15 02:24:00.000   30.531677534  114.357269143    27.4549   6  13   0.0997   0.0994   0.2152  -0.0157   0.0346  -0.0606   0.00    0.0
2026/01/15 02:24:30.000   30.531677523  114.357269106    27.4471   6  13   0.0995   0.0992   0.2149  -0.0155   0.0345  -0.0606   0.00    0.0
2026/01/15 02:25:00.000   30.531677499  114.357269086    27.4414   6  13   0.0993   0.0990   0.2146  -0.0154   0.0343  -0.0606   0.00    0.0
2026/01/15 02:25:30.000   30.531677492  114.357269065    27.4331   6  13   0.0992   0.0988   0.2142  -0.0153   0.0342  -0.0607   0.00    0.0
2026/01/15 02:26:00.000   30.531677476  114.357269020    27.4273   6  13   0.0990   0.0987   0.2139  -0.0152   0.0341  -0.0607   0.00    0.0
2026/01/15 02:26:30.000   30.531677487  114.357269007    27.4236   6  13   0.0988   0.0985   0.2136  -0.0151   0.0339  -0.0607   0.00    0.0
2026/01/15 02:27:00.000   30.531677481  114.357268992    27.4200   6  13   0.0986   0.0983   0.2133  -0.0150   0.0338  -0.0607   0.00    0.0
2026/01/15 02:27:30.000   30.531677498  114.357268983    27.4159   6  13   0.0984   0.0981   0.2129  -0.0149   0.0337  -0.0608   0.00    0.0
2026/01/15 02:28:00.000   30.531677509  114.357268999    27.4150   6  13   0.0982   0.0980   0.2126  -0.0148   0.0336  -0.0608   0.00    0.0
2026/01/15 02:28:30.000   30.531677529  114.357268974    27.4117   6  13   0.0980   0.0978   0.2123  -0.0147   0.0334  -0.0608   0.00    0.0
2026/01/15 02:29:00.000   30.531677533  114.357269004    27.4119   6  13   0.0978   0.0976   0.2120  -0.0146   0.0333  -0.0608   0.00    0.0
2026/01/15 02:29:30.000   30.531677527  114.357268995    27.4084   6  13   0.0976   0.0975   0.2116  -0.0145   0.0332  -0.0608   0.00    0.0
2026/01/15 02:30:00.000   30.531677511  114.357268996    27.4038   6  13   0.0975   0.0973   0.2113  -0.0144   0.0331  -0.0608   0.00    0.0
2026/01/15 02:30:30.000   30.531677504  114.357268986    27.4020   6  13   0.0973   0.0971   0.2110  -0.0143   0.0330  -0.0609   0.00    0.0
2026/01/15 02:31:00.000   30.531677511  114.357268986    27.3999   6  13   0.0971   0.0969   0.2107  -0.0143   0.0329  -0.0609   0.00    0.0
2026/01/15 02:31:30.000   30.531677523  114.357268992    27.3995   6  13   0.0969   0.0968   0.2103  -0.0142   0.0328  -0.0609   0.00    0.0
2026/01/15 02:32:00.000   30.531677495  114.357268961    27.3927   6  14   0.0967   0.0966   0.2100  -0.0141   0.0327  -0.0610   0.00    0.0
2026/01/15 02:32:30.000   30.531677490  114.357268945    27.3911   6  14   0.0965   0.0964   0.2096  -0.0141   0.0326  -0.0610   0.00    0.0
2026/01/15 02:33:00.000   30.531677491  114.357268946    27.3886   6  14   0.0963   0.0963   0.2093  -0.0141   0.0324  -0.0611   0.00    0.0
2026/01/15 02:33:30.000   30.531677494  114.357268930    27.3865   6  14   0.0961   0.0961   0.2089  -0.0141   0.0323  -0.0611   0.00    0.0
2026/01/15 02:34:00.000   30.531677482  114.357268930    27.3829   6  14   0.0959   0.0959   0.2085  -0.0141   0.0322  -0.0612   0.00    0.0
2026/01/15 02:34:30.000   30.531677478  114.357268951    27.3820   6  14   0.0957   0.0958   0.2082  -0.0141   0.0320  -0.0612   0.00    0.0
2026/01/15 02:35:00.000   30.531677474  114.357268952    27.3796   6  14   0.0955   0.0956   0.2078  -0.0141   0.0319  -0.0613   0.00    0.0
2026/01/15 02:35:30.000   30.531677467  114.357268954    27.3766   6  14   0.0953   0.0954   0.2075  -0.0141   0.0318  -0.0614   0.00    0.0
2026/01/15 02:36:00.000   30.531677464  114.357268946    27.3742   6  14   0.0951   0.0953   0.2071  -0.0141   0.0317  -0.0614   0.00    0.0
2026/01/15 02:36:30.000   30.531677476  114.357268937    27.3718   6  14   0.0949   0.0951   0.2067  -0.0141   0.0316  -0.0615   0.00    0.0
2026/01/15 02:37:00.000   30.531677478  114.357268920    27.3699   6  14   0.0947   0.0950   0.2064  -0.0141   0.0315  -0.0615   0.00    0.0
2026/01/15 02:37:30.000   30.531677472  114.357268923    27.3692   6  14   0.0946   0.0948   0.2060  -0.0141   0.0314  -0.0615   0.00    0.0
2026/01/15 02:38:00.000   30.531677461  114.357268911    27.3660   6  14   0.0944   0.0946   0.2057  -0.0141   0.0313  -0.0616   0.00    0.0
2026/01/15 02:38:30.000   30.531677459  114.357268905    27.3654   6  14   0.0942   0.0945   0.2053  -0.0141   0.0312  -0.0616   0.00    0.0
2026/01/15 02:39:00.000   30.531677462  114.357268905    27.3644   6  14   0.0940   0.0943   0.2050  -0.0141   0.0311  -0.0617   0.00    0.0
2026/01/15 02:39:30.000   30.531677462  114.357268904    27.3635   6  14   0.0938   0.0942   0.2046  -0.0141   0.0311  -0.0617   0.00    0.0
2026/01/15 02:40:00.000   30.531677453  114.357268892    27.3584   6  14   0.0936   0.0940   0.2042  -0.0141   0.0310  -0.0617   0.00    0.0
2026/01/15 02:40:30.000   30.531677453  114.357268869    27.3545   6  14   0.0934   0.0938   0.2039  -0.0142   0.0309  -0.0618   0.00    0.0
2026/01/15 02:41:00.000   30.531677453  114.357268884    27.3535   6  14   0.0932   0.0937   0.2035  -0.0142   0.0309  -0.0618   0.00    0.0
2026/01/15 02:41:30.000   30.531677460  114.357268897    27.3530   6  14   0.0930   0.0935   0.2032  -0.0142   0.0308  -0.0619   0.00    0.0
2026/01/15 02:42:00.000   30.531677465  114.357268896    27.3518   6  14   0.0929   0.0934   0.2028  -0.0142   0.0307  -0.0619   0.00    0.0
2026/01/15 02:42:30.000   30.531677478  114.357268906    27.3542   6  14   0.0927   0.0932   0.2025  -0.0143   0.0307  -0.0619   0.00    0.0
2026/01/15 02:43:00.000   30.531677476  114.357268894    27.3519   6  14   0.0925   0.0931   0.2021  -0.0143   0.0307  -0.0619   0.00    0.0
2026/01/15 02:43:30.000   30.531677474  114.357268893    27.3497   6  14   0.0923   0.0929   0.2018  -0.0143   0.0306  -0.0620   0.00    0.0
2026/01/15 02:44:00.000   30.531677471  114.357268887    27.3482   6  14   0.0921   0.0928   0.2014  -0.0144   0.0306  -0.0620   0.00    0.0
2026/01/15 02:44:30.000   30.531677480  114.357268895    27.3505   6  14   0.0920   0.0926   0.2011  -0.0144   0.0305  -0.0620   0.00    0.0
2026/01/15 02:45:00.000   30.531677472  114.357268886    27.3488   6  14   0.0918   0.0925   0.2007  -0.0144   0.0305  -0.0620   0.00    0.0
2026/01/15 02:45:30.000   30.531677469  114.357268867    27.3467   6  14   0.0916   0.0923   0.2003  -0.0145   0.0305  -0.0621   0.00    0.0
2026/01/15 02:46:00.000   30.531677458  114.357268868    27.3423   6  14   0.0914   0.0922   0.2000  -0.0145   0.0305  -0.0621   0.00    0.0
2026/01/15 02:46:30.000   30.531677435  114.357268861    27.3363   6  14   0.0912   0.0921   0.1996  -0.0145   0.0304  -0.0621   0.00    0.0
2026/01/15 02:47:00.000   30.531677444  114.357268860    27.3345   6  14   0.0911   0.0919   0.1993  -0.0146   0.0304  -0.0621   0.00    0.0
2026/01/15 02:47:30.000   30.531677450  114.357268847    27.3336   6  14   0.0909   0.0918   0.1989  -0.0146   0.0304  -0.0621   0.00    0.0
2026/01/15 02:48:00.000   30.531677460  114.357268853    27.3351   6  14   0.0907   0.0916   0.1986  -0.0147   0.0304  -0.0621   0.00    0.0
2026/01/15 02:48:30.000   30.531677477  114.357268881    27.3345   6  14   0.0905   0.0915   0.1982  -0.0147   0.0304  -0.0622   0.00    0.0
2026/01/15 02:49:00.000   30.531677483  114.357268881    27.3352   6  14   0.0904   0.0914   0.1979  -0.0148   0.0304  -0.0622   0.00    0.0
2026/01/15 02:49:30.000   30.531677476  114.357268874    27.3318   6  14   0.0902   0.0912   0.1975  -0.0148   0.0304  -0.0622   0.00    0.0
2026/01/15 02:50:00.000   30.531677460  114.357268877    27.3306   6  14   0.0900   0.0911   0.1972  -0.0149   0.0304  -0.0622   0.00    0.0
2026/01/15 02:50:30.000   30.531677467  114.357268869    27.3320   6  14   0.0898   0.0909   0.1968  -0.0149   0.0304  -0.0622   0.00    0.0
2026/01/15 02:51:00.000   30.531677466  114.357268841    27.3286   6  14   0.0897   0.0908   0.1964  -0.0150   0.0305  -0.0622   0.00    0.0
2026/01/15 02:51:30.000   30.531677473  114.357268850    27.3309   6  14   0.0895   0.0907   0.1961  -0.0150   0.0305  -0.0622   0.00    0.0
2026/01/15 02:52:00.000   30.531677480  114.357268841    27.3314   6  14   0.0893   0.0905   0.1957  -0.0151   0.0305  -0.0622   0.00    0.0
2026/01/15 02:52:30.000   30.531677496  114.357268854    27.3306   6  14   0.0891   0.0904   0.1954  -0.0151   0.0305  -0.0622   0.00    0.0
2026/01/15 02:53:00.000   30.531677522  114.357268858    27.3294   6  14   0.0890   0.0903   0.1950  -0.0152   0.0306  -0.0622   0.00    0.0
2026/01/15 02:53:30.000   30.531677520  114.357268871    27.3299   6  15   0.0888   0.0901   0.1946  -0.0151   0.0305  -0.0621   0.00    0.0
2026/01/15 02:54:00.000   30.531677514  114.357268857    27.3275   6  15   0.0886   0.0900   0.1942  -0.0150   0.0304  -0.0620   0.00    0.0
2026/01/15 02:54:30.000   30.531677525  114.357268859    27.3267   6  15   0.0884   0.0898   0.1938  -0.0150   0.0303  -0.0619   0.00    0.0
2026/01/15 02:55:00.000   30.531677513  114.357268888    27.3300   6  15   0.0882   0.0897   0.1934  -0.0149   0.0302  -0.0619   0.00    0.0
2026/01/15 02:55:30.000   30.531677505  114.357268914    27.3324   6  14   0.0880   0.0895   0.1931  -0.0148   0.0302  -0.0618   0.00    0.0
2026/01/15 02:56:00.000   30.531677502  114.357268928    27.3344   6  14   0.0879   0.0894   0.1927  -0.0147   0.0303  -0.0617   0.00    0.0
2026/01/15 02:56:30.000   30.531677502  114.357268922    27.3336   6  14   0.0877   0.0893   0.1923  -0.0146   0.0303  -0.0616   0.00    0.0
2026/01/15 02:57:00.000   30.531677508  114.357268923    27.3330   6  14   0.0875   0.0892   0.1920  -0.0145   0.0304  -0.0614   0.00    0.0
2026/01/15 02:57:30.000   30.531677499  114.357268954    27.3391   6  14   0.0873   0.0890   0.1916  -0.0144   0.0305  -0.0613   0.00    0.0
2026/01/15 02:58:00.000   30.531677514  114.357268956    27.3385   6  14   0.0872   0.0889   0.1913  -0.0142   0.0305  -0.0612   0.00    0.0
2026/01/15 02:58:30.000   30.531677507  114.357268980    27.3383   6  14   0.0870   0.0888   0.1909  -0.0141   0.0306  -0.0611   0.00    0.0
2026/01/15 02:59:00.000   30.531677501  114.357269009    27.3374   6  14   0.0868   0.0887   0.1905  -0.0140   0.0306  -0.0610   0.00    0.0
2026/01/15 02:59:30.000   30.531677507  114.357269022    27.3354   6  14   0.0867   0.0885   0.1902  -0.0139   0.0307  -0.0609   0.00    0.0
2026/01/15 03:00:00.000   30.531677526  114.357269034    27.3361   6  14   0.0865   0.0884   0.1898  -0.0138   0.0308  -0.0608   0.00    0.0
2026/01/15 03:00:30.000   30.531677519  114.357269075    27.3394   6  14   0.0863   0.0883   0.1894  -0.0138   0.0309  -0.0607   0.00    0.0
2026/01/15 03:01:00.000   30.531677517  114.357269100    27.3424   6  14   0.0861   0.0882   0.1891  -0.0137   0.0310  -0.0607   0.00    0.0
2026/01/15 03:01:30.000   30.531677497  114.357269109    27.3442   6  14   0.0859   0.0881   0.1887  -0.0136   0.0310  -0.0606   0.00    0.0
2026/01/15 03:02:00.000   30.531677495  114.357269134    27.3457   6  14   0.0858   0.0879   0.1883  -0.0135   0.0311  -0.0605   0.00    0.0
2026/01/15 03:02:30.000   30.531677483  114.357269140    27.3481   6  14   0.0856   0.0878   0.1879  -0.0134   0.0312  -0.0604   0.00    0.0
2026/01/15 03:03:00.000   30.531677468  114.357269156    27.3513   6  14   0.0854   0.0877   0.1876  -0.0133   0.0313  -0.0603   0.00    0.0
2026/01/15 03:03:30.000   30.531677476  114.357269145    27.3491   6  14   0.0852   0.0876   0.1872  -0.0133   0.0314  -0.0602   0.00    0.0
2026/01/15 03:04:00.000   30.531677488  114.357269152    27.3463   6  14   0.0850   0.0874   0.1868  -0.0132   0.0315  -0.0601   0.00    0.0
2026/01/15 03:04:30.000   30.531677489  114.357269154    27.3443   6  14   0.0849   0.0873   0.1865  -0.0131   0.0316  -0.0600   0.00    0.0
2026/01/15 03:05:00.000   30.531677502  114.357269162    27.3430   6  14   0.0847   0.0872   0.1861  -0.0130   0.0317  -0.0599   0.00    0.0
2026/01/15 03:05:30.000   30.531677503  114.357269148    27.3405   6  14   0.0845   0.0871   0.1857  -0.0130   0.0318  -0.0598   0.00    0.0
2026/01/15 03:06:00.000   30.531677507  114.357269164    27.3387   6  14   0.0844   0.0870   0.1854  -0.0129   0.0319  -0.0597   0.00    0.0
2026/01/15 03:06:30.000   30.531677503  114.357269169    27.3379   6  14   0.0842   0.0868   0.1850  -0.0129   0.0320  -0.0597   0.00    0.0
2026/01/15 03:07:00.000   30.531677494  114.357269195    27.3406   6  14   0.0840   0.0867   0.1846  -0.0128   0.0321  -0.0596   0.00    0.0
2026/01/15 03:07:30.000   30.531677486  114.357269224    27.3435   6  14   0.0838   0.0866   0.1843  -0.0127   0.0322  -0.0595   0.00    0.0
2026/01/15 03:08:00.000   30.531677480  114.357269255    27.3449   6  14   0.0837   0.0865   0.1839  -0.0127   0.0323  -0.0594   0.00    0.0
2026/01/15 03:08:30.000   30.531677473  114.357269279    27.3449   6  14   0.0835   0.0864   0.1835  -0.0126   0.0324  -0.0593   0.00    0.0
2026/01/15 03:09:00.000   30.531677474  114.357269278    27.3415   6  14   0.0833   0.0863   0.1832  -0.0126   0.0325  -0.0592   0.00    0.0
2026/01/15 03:09:30.000   30.531677470  114.357269293    27.3411   6  13   0.0832   0.0861   0.1830  -0.0126   0.0326  -0.0590   0.00    0.0
2026/01/15 03:10:00.000   30.531677473  114.357269306    27.3427   6  13   0.0830   0.0860   0.1827  -0.0126   0.0327  -0.0589   0.00    0.0
2026/01/15 03:10:30.000   30.531677467  114.357269314    27.3458   6  13   0.0829   0.0859   0.1824  -0.0125   0.0327  -0.0587   0.00    0.0
2026/01/15 03:11:00.000   30.531677473  114.357269340    27.3459   6  13   0.0827   0.0858   0.1821  -0.0125   0.0328  -0.0586   0.00    0.0
2026/01/15 03:11:30.000   30.531677474  114.357269365    27.3490   6  13   0.0825   0.0857   0.1819  -0.0125   0.0329  -0.0584   0.00    0.0
2026/01/15 03:12:00.000   30.531677481  114.357269381    27.3527   6  13   0.0824   0.0856   0.1816  -0.0125   0.0330  -0.0583   0.00    0.0
2026/01/15 03:12:30.000   30.531677479  114.357269389    27.3503   6  13   0.0822   0.0855   0.1813  -0.0125   0.0331  -0.0582   0.00    0.0
2026/01/15 03:13:00.000   30.531677491  114.357269375    27.3493   6  13   0.0821   0.0854   0.1810  -0.0125   0.0332  -0.0580   0.00    0.0
2026/01/15 03:13:30.000   30.531677504  114.357269366    27.3431   6  13   0.0819   0.0852   0.1807  -0.0125   0.0333  -0.0579   0.00    0.0
2026/01/15 03:14:00.000   30.531677506  114.357269358    27.3439   6  13   0.0818   0.0851   0.1805  -0.0125   0.0334  -0.0577   0.00    0.0
2026/01/15 03:14:30.000   30.531677510  114.357269345    27.3427   6  13   0.0816   0.0850   0.1802  -0.0125   0.0335  -0.0576   0.00    0.0
2026/01/15 03:15:00.000   30.531677509  114.357269345    27.3424   6  13   0.0815   0.0849   0.1799  -0.0125   0.0336  -0.0574   0.00    0.0
2026/01/15 03:15:30.000   30.531677516  114.357269354    27.3453   6  13   0.0813   0.0848   0.1796  -0.0125   0.0337  -0.0573   0.00    0.0
2026/01/15 03:16:00.000   30.531677518  114.357269353    27.3470   6  13   0.0811   0.0847   0.1794  -0.0125   0.0338  -0.0572   0.00    0.0
2026/01/15 03:16:30.000   30.531677524  114.357269356    27.3456   6  13   0.0810   0.0846   0.1791  -0.0125   0.0339  -0.0570   0.00    0.0
2026/01/15 03:17:00.000   30.531677521  114.357269335    27.3456   6  13   0.0808   0.0845   0.1788  -0.0125   0.0340  -0.0569   0.00    0.0
2026/01/15 03:17:30.000   30.531677524  114.357269317    27.3465   6  13   0.0807   0.0844   0.1785  -0.0125   0.0342  -0.0567   0.00    0.0
2026/01/15 03:18:00.000   30.531677522  114.357269330    27.3448   6  13   0.0805   0.0843   0.1783  -0.0126   0.0343  -0.0566   0.00    0.0
2026/01/15 03:18:30.000   30.531677528  114.357269322    27.3448   6  13   0.0804   0.0842   0.1780  -0.0126   0.0344  -0.0565   0.00    0.0
2026/01/15 03:19:00.000   30.531677539  114.357269338    27.3436   6  13   0.0802   0.0841   0.1778  -0.0126   0.0345  -0.0563   0.00    0.0
2026/01/15 03:19:30.000   30.531677550  114.357269336    27.3415   6  13   0.0801   0.0839   0.1775  -0.0126   0.0346  -0.0561   0.00    0.0
2026/01/15 03:20:00.000   30.531677546  114.357269321    27.3411   6  13   0.0800   0.0838   0.1773  -0.0127   0.0347  -0.0559   0.00    0.0
2026/01/15 03:20:30.000   30.531677551  114.357269301    27.3418   6  13   0.0798   0.0837   0.1771  -0.0127   0.0348  -0.0558   0.00    0.0
2026/01/15 03:21:00.000   30.531677541  114.357269289    27.3439   6  13   0.0797   0.0836   0.1768  -0.0127   0.0349  -0.0556   0.00    0.0
2026/01/15 03:21:30.000   30.531677530  114.357269295    27.3433   6  13   0.0795   0.0835   0.1766  -0.0128   0.0350  -0.0554   0.00    0.0
2026/01/15 03:22:00.000   30.531677541  114.357269271    27.3431   6  13   0.0794   0.0834   0.1764  -0.0128   0.0351  -0.0552   0.00    0.0
2026/01/15 03:22:30.000   30.531677547  114.357269268    27.3413   6  13   0.0793   0.0833   0.1762  -0.0128   0.0352  -0.0551   0.00    0.0
2026/01/15 03:23:00.000   30.531677558  114.357269268    27.3404   6  13   0.0791   0.0832   0.1759  -0.0129   0.0353  -0.0549   0.00    0.0
2026/01/15 03:23:30.000   30.531677557  114.357269278    27.3395   6  13   0.0790   0.0831   0.1757  -0.0129   0.0354  -0.0547   0.00    0.0
2026/01/15 03:24:00.000   30.531677575  114.357269270    27.3384   6  13   0.0788   0.0830   0.1755  -0.0130   0.0355  -0.0545   0.00    0.0
2026/01/15 03:24:30.000   30.531677578  114.357269279    27.3372   6  13   0.0787   0.0829   0.1752  -0.0130   0.0356  -0.0544   0.00    0.0
2026/01/15 03:25:00.000   30.531677582  114.357269297    27.3352   6  13   0.0786   0.0828   0.1750  -0.0130   0.0357  -0.0542   0.00    0.0
2026/01/15 03:25:30.000   30.531677572  114.357269321    27.3365   6  13   0.0784   0.0827   0.1748  -0.0131   0.0359  -0.0540   0.00    0.0
2026/01/15 03:26:00.000   30.531677574  114.357269334    27.3352   6  13   0.0783   0.0826   0.1746  -0.0131   0.0360  -0.0539   0.00    0.0
2026/01/15 03:26:30.000   30.531677578  114.357269352    27.3339   6  13   0.0782   0.0825   0.1743  -0.0132   0.0361  -0.0537   0.00    0.0
2026/01/15 03:27:00.000   30.531677567  114.357269338    27.3326   6  13   0.0780   0.0824   0.1741  -0.0132   0.0362  -0.0535   0.00    0.0
2026/01/15 03:27:30.000   30.531677569  114.357269348    27.3313   6  13   0.0779   0.0823   0.1739  -0.0133   0.0363  -0.0534   0.00    0.0
2026/01/15 03:28:00.000   30.531677573  114.357269351    27.3299   6  13   0.0778   0.0822   0.1737  -0.0133   0.0364  -0.0532   0.00    0.0
