% program   : RTKPOST ver.demo5 b34d
% inp file  : E:\Master courses\SNDP-PROJECT\New_Data\obs\RNXDATA\WUH200CHN_R_20260150000_01D_30S_MO.obs
% inp file  : E:\Master courses\SNDP-PROJECT\New_Data\nav\BRDC00IGS_R_20260150000_01D_MN.rnx
% obs start : 2026/01/15 00:00:00.0 GPST (week2401 345600.0s)
% obs end   : 2026/01/15 23:59:30.0 GPST (week2401 431970.0s)
% pos mode  : PPP Static
% solution  : Forward
% elev mask : 15.0 deg
% dynamics  : off
% tidecorr  : off
% tropo opt : Saastamoinen
% ephemeris : Broadcast
% navi sys  : GPS
% antenna1  :                       ( 0.0000  0.0000  0.1206)
%
% (lat/lon/height=WGS84/ellipsoidal,Q=1:fix,2:float,3:sbas,4:dgps,5:single,6:ppp,ns=# of satellites)
%  GPST                  latitude(deg) longitude(deg)  height(m)   Q  ns   sdn(m)   sde(m)   sdu(m)  sdne(m)  sdeu(m)  sdun(m) age(s)  ratio
2026/01/15 00:00:00.000   30.531721140  114.357247452    15.1730   6   6   2.4873   2.4969   7.4070  -1.0908   1.9590  -2.1788   0.00    0.0
2026/01/15 00:00:30.000   30.531722794  114.357246468    14.7275   6   7   1.7629   1.7701   5.2621  -0.7705   1.3966  -1.5365   0.00    0.0
2026/01/15 00:01:00.000   30.531723513  114.357245991    14.9036   6   7   1.4409   1.4478   4.3039  -0.6275   1.1449  -1.2470   0.00    0.0
2026/01/15 00:01:30.000   30.531723571  114.357245937    14.8392   6   7   1.2487   1.2557   3.7301  -0.5418   0.9953  -1.0725   0.00    0.0
2026/01/15 00:02:00.000   30.531723340  114.357246262    14.7706   6   7   1.1176   1.1247   3.3375  -0.4831   0.8935  -0.9523   0.00    0.0
2026/01/15 00:02:30.000   30.531723209  114.357246296    14.6615   6   7   1.0208   1.0280   3.0473  -0.4395   0.8187  -0.8628   0.00    0.0
2026/01/15 00:03:00.000   30.531723282  114.357246690    14.5647   6   7   0.9456   0.9530   2.8216  -0.4055   0.7607  -0.7926   0.00    0.0
2026/01/15 00:03:30.000   30.531723439  114.357247156    14.5207   6   7   0.8850   0.8926   2.6395  -0.3780   0.7142  -0.7355   0.00    0.0
2026/01/15 00:04:00.000   30.531723539  114.357247494    14.5007   6   7   0.8348   0.8426   2.4886  -0.3551   0.6759  -0.6879   0.00    0.0
2026/01/15 00:04:30.000   30.531723712  114.357247424    14.3905   6   7   0.7924   0.8004   2.3610  -0.3357   0.6436  -0.6472   0.00    0.0
2026/01/15 00:05:00.000   30.531723989  114.357247539    14.3414   6   7   0.7560   0.7641   2.2511  -0.3188   0.6159  -0.6120   0.00    0.0
2026/01/15 00:05:30.000   30.531724005  114.357247592    14.3006   6   7   0.7242   0.7325   2.1554  -0.3041   0.5919  -0.5810   0.00    0.0
2026/01/15 00:06:00.000   30.531724077  114.357247732    14.3258   6   7   0.6962   0.7046   2.0709  -0.2910   0.5708  -0.5534   0.00    0.0
2026/01/15 00:06:30.000   30.531724173  114.357247813    14.2805   6   7   0.6713   0.6799   1.9957  -0.2793   0.5522  -0.5287   0.00    0.0
2026/01/15 00:07:00.000   30.531724244  114.357247855    14.2475   6   7   0.6490   0.6577   1.9281  -0.2688   0.5355  -0.5063   0.00    0.0
2026/01/15 00:07:30.000   30.531724206  114.357248116    14.2413   6   7   0.6287   0.6376   1.8671  -0.2592   0.5205  -0.4858   0.00    0.0
2026/01/15 00:08:00.000   30.531723867  114.357247904    13.9449   6   8   0.6095   0.6182   1.7972  -0.2528   0.4985  -0.4750   0.00    0.0
2026/01/15 00:08:30.000   30.531723582  114.357247833    13.6873   6   8   0.5920   0.6006   1.7350  -0.2467   0.4793  -0.4642   0.00    0.0
2026/01/15 00:09:00.000   30.531723396  114.357247699    13.3755   6   8   0.5759   0.5845   1.6789  -0.2410   0.4622  -0.4536   0.00    0.0
2026/01/15 00:09:30.000   30.531723248  114.357247692    13.1600   6   8   0.5611   0.5697   1.6280  -0.2356   0.4470  -0.4434   0.00    0.0
2026/01/15 00:10:00.000   30.531723117  114.357247555    12.9951   6   8   0.5474   0.5561   1.5814  -0.2304   0.4332  -0.4336   0.00    0.0
2026/01/15 00:10:30.000   30.531723011  114.357247373    12.7655   6   8   0.5347   0.5434   1.5386  -0.2256   0.4208  -0.4242   0.00    0.0
2026/01/15 00:11:00.000   30.531722894  114.357247221    12.5711   6   8   0.5228   0.5316   1.4992  -0.2209   0.4095  -0.4152   0.00    0.0
2026/01/15 00:11:30.000   30.531722717  114.357247303    12.4425   6   8   0.5117   0.5206   1.4626  -0.2166   0.3991  -0.4065   0.00    0.0
2026/01/15 00:12:00.000   30.531722657  114.357247311    12.2818   6   8   0.5013   0.5103   1.4286  -0.2124   0.3896  -0.3982   0.00    0.0
2026/01/15 00:12:30.000   30.531722627  114.357247273    12.1547   6   8   0.4916   0.5007   1.3969  -0.2085   0.3809  -0.3903   0.00    0.0
2026/01/15 00:13:00.000   30.531722611  114.357247164    12.0527   6   8   0.4824   0.4916   1.3672  -0.2047   0.3727  -0.3827   0.00    0.0
2026/01/15 00:13:30.000   30.531722605  114.357247132    11.9153   6   8   0.4737   0.4830   1.3393  -0.2011   0.3652  -0.3754   0.00    0.0
2026/01/15 00:14:00.000   30.531722583  114.357247163    11.8160   6   8   0.4654   0.4749   1.3130  -0.1977   0.3582  -0.3684   0.00    0.0
2026/01/15 00:14:30.000   30.531722576  114.357247195    11.7257   6   8   0.4576   0.4672   1.2883  -0.1944   0.3516  -0.3617   0.00    0.0
2026/01/15 00:15:00.000   30.531722627  114.357247154    11.6048   6   8   0.4502   0.4599   1.2649  -0.1913   0.3455  -0.3553   0.00    0.0
2026/01/15 00:15:30.000   30.531722657  114.357247224    11.5111   6   8   0.4432   0.4530   1.2428  -0.1883   0.3398  -0.3492   0.00    0.0
2026/01/15 00:16:00.000   30.531722625  114.357247230    11.4132   6   8   0.4365   0.4464   1.2218  -0.1855   0.3344  -0.3432   0.00    0.0
2026/01/15 00:16:30.000   30.531722600  114.357247236    11.3358   6   8   0.4301   0.4401   1.2018  -0.1827   0.3293  -0.3375   0.00    0.0
2026/01/15 00:17:00.000   30.531722659  114.357247265    11.2649   6   8   0.4239   0.4341   1.1828  -0.1801   0.3245  -0.3321   0.00    0.0
2026/01/15 00:17:30.000   30.531722652  114.357247308    11.2011   6   8   0.4181   0.4283   1.1647  -0.1776   0.3200  -0.3268   0.00    0.0
2026/01/15 00:18:00.000   30.531722597  114.357247386    11.1446   6   8   0.4125   0.4228   1.1474  -0.1751   0.3157  -0.3217   0.00    0.0
2026/01/15 00:18:30.000   30.531722649  114.357247458    11.0737   6   8   0.4071   0.4176   1.1308  -0.1728   0.3116  -0.3168   0.00    0.0
2026/01/15 00:19:00.000   30.531722691  114.357247501    11.0136   6   8   0.4019   0.4125   1.1150  -0.1705   0.3078  -0.3121   0.00    0.0
2026/01/15 00:19:30.000   30.531722669  114.357247555    10.9388   6   8   0.3969   0.4077   1.0998  -0.1684   0.3041  -0.3076   0.00    0.0
2026/01/15 00:20:00.000   30.531722723  114.357247668    10.8612   6   8   0.3922   0.4030   1.0853  -0.1663   0.3007  -0.3032   0.00    0.0
2026/01/15 00:20:30.000   30.531722784  114.357247682    10.7951   6   8   0.3876   0.3986   1.0713  -0.1642   0.2974  -0.2990   0.00    0.0
2026/01/15 00:21:00.000   30.531722836  114.357247706    10.7436   6   8   0.3831   0.3942   1.0579  -0.1623   0.2942  -0.2949   0.00    0.0
2026/01/15 00:21:30.000   30.531722872  114.357247748    10.6810   6   8   0.3788   0.3901   1.0450  -0.1604   0.2912  -0.2910   0.00    0.0
2026/01/15 00:22:00.000   30.531722906  114.357247852    10.6172   6   8   0.3747   0.3861   1.0325  -0.1586   0.2884  -0.2872   0.00    0.0
2026/01/15 00:22:30.000   30.531722934  114.357247935    10.5412   6   8   0.3707   0.3822   1.0205  -0.1569   0.2856  -0.2835   0.00    0.0
2026/01/15 00:23:00.000   30.531722983  114.357247984    10.4690   6   8   0.3669   0.3785   1.0090  -0.1552   0.2830  -0.2799   0.00    0.0
2026/01/15 00:23:30.000   30.531723029  114.357247957    10.4108   6   8   0.3631   0.3748   0.9978  -0.1535   0.2805  -0.2765   0.00    0.0
2026/01/15 00:24:00.000   30.531723081  114.357247974    10.3637   6   8   0.3595   0.3713   0.9870  -0.1519   0.2782  -0.2732   0.00    0.0
2026/01/15 00:24:30.000   30.531723124  114.357247983    10.2984   6   8   0.3560   0.3680   0.9766  -0.1504   0.2759  -0.2700   0.00    0.0
2026/01/15 00:25:00.000   30.531723147  114.357248020    10.2415   6   8   0.3526   0.3647   0.9666  -0.1489   0.2737  -0.2669   0.00    0.0
2026/01/15 00:25:30.000   30.531723157  114.357248084    10.1984   6   8   0.3493   0.3615   0.9569  -0.1475   0.2717  -0.2639   0.00    0.0
2026/01/15 00:26:00.000   30.531722872  114.357248545    10.2937   6   9   0.3453   0.3574   0.9426  -0.1438   0.2647  -0.2567   0.00    0.0
2026/01/15 00:26:30.000   30.531722678  114.357248919    10.3482   6   9   0.3415   0.3534   0.9291  -0.1404   0.2581  -0.2499   0.00    0.0
2026/01/15 00:27:00.000   30.531722482  114.357249278    10.4098   6   9   0.3378   0.3496   0.9162  -0.1372   0.2520  -0.2435   0.00    0.0
2026/01/15 00:27:30.000   30.531722311  114.357249670    10.4583   6   9   0.3343   0.3459   0.9039  -0.1341   0.2462  -0.2374   0.00    0.0
2026/01/15 00:28:00.000   30.531722174  114.357250035    10.5433   6   8   0.3310   0.3424   0.8930  -0.1312   0.2408  -0.2307   0.00    0.0
2026/01/15 00:28:30.000   30.531722093  114.357250433    10.6238   6   8   0.3279   0.3390   0.8826  -0.1283   0.2357  -0.2243   0.00    0.0
2026/01/15 00:29:00.000   30.531721994  114.357250833    10.7008   6   8   0.3249   0.3357   0.8727  -0.1257   0.2308  -0.2182   0.00    0.0
2026/01/15 00:29:30.000   30.531721859  114.357251258    10.7811   6   8   0.3220   0.3325   0.8631  -0.1231   0.2262  -0.2123   0.00    0.0
2026/01/15 00:30:00.000   30.531721753  114.357251648    10.8600   6   8   0.3191   0.3294   0.8538  -0.1207   0.2218  -0.2068   0.00    0.0
2026/01/15 00:30:30.000   30.531721694  114.357251966    10.9191   6   8   0.3164   0.3264   0.8449  -0.1183   0.2176  -0.2014   0.00    0.0
2026/01/15 00:31:00.000   30.531721615  114.357252305    10.9837   6   8   0.3137   0.3235   0.8364  -0.1161   0.2137  -0.1963   0.00    0.0
2026/01/15 00:31:30.000   30.531721530  114.357252604    11.0402   6   8   0.3112   0.3207   0.8281  -0.1139   0.2099  -0.1914   0.00    0.0
2026/01/15 00:32:00.000   30.531721486  114.357252929    11.1002   6   8   0.3087   0.3180   0.8201  -0.1119   0.2063  -0.1868   0.00    0.0
2026/01/15 00:32:30.000   30.531721426  114.357253245    11.1577   6   8   0.3062   0.3154   0.8123  -0.1099   0.2029  -0.1823   0.00    0.0
2026/01/15 00:33:00.000   30.531721429  114.357253515    11.1878   6   8   0.3039   0.3128   0.8048  -0.1080   0.1997  -0.1780   0.00    0.0
2026/01/15 00:33:30.000   30.531721399  114.357253762    11.2292   6   8   0.3016   0.3103   0.7975  -0.1062   0.1965  -0.1739   0.00    0.0
2026/01/15 00:34:00.000   30.531721386  114.357254004    11.2691   6   8   0.2993   0.3079   0.7905  -0.1044   0.1936  -0.1699   0.00    0.0
2026/01/15 00:34:30.000   30.531721350  114.357254279    11.3082   6   8   0.2971   0.3055   0.7836  -0.1027   0.1907  -0.1661   0.00    0.0
2026/01/15 00:35:00.000   30.531721327  114.357254518    11.3517   6   8   0.2950   0.3032   0.7770  -0.1011   0.1880  -0.1625   0.00    0.0
2026/01/15 00:35:30.000   30.531721283  114.357254823    11.3929   6   8   0.2929   0.3010   0.7705  -0.0996   0.1854  -0.1590   0.00    0.0
2026/01/15 00:36:00.000   30.531721257  114.357255079    11.4344   6   8   0.2909   0.2988   0.7643  -0.0980   0.1829  -0.1557   0.00    0.0
2026/01/15 00:36:30.000   30.531721285  114.357255294    11.4565   6   8   0.2889   0.2967   0.7581  -0.0966   0.1806  -0.1525   0.00    0.0
2026/01/15 00:37:00.000   30.531721234  114.357255564    11.5025   6   8   0.2870   0.2946   0.7522  -0.0952   0.1783  -0.1494   0.00    0.0
2026/01/15 00:37:30.000   30.531721200  114.357255766    11.5428   6   8   0.2851   0.2926   0.7464  -0.0938   0.1761  -0.1464   0.00    0.0
2026/01/15 00:38:00.000   30.531721203  114.357255956    11.5721   6   8   0.2832   0.2906   0.7407  -0.0925   0.1740  -0.1436   0.00    0.0
2026/01/15 00:38:30.000   30.531721169  114.357256171    11.6049   6   8   0.2814   0.2887   0.7352  -0.0913   0.1720  -0.1409   0.00    0.0
2026/01/15 00:39:00.000   30.531721152  114.357256400    11.6186   6   7   0.2796   0.2868   0.7299  -0.0901   0.1701  -0.1383   0.00    0.0
2026/01/15 00:39:30.000   30.531721165  114.357256592    11.6239   6   7   0.2779   0.2849   0.7248  -0.0889   0.1683  -0.1359   0.00    0.0
2026/01/15 00:40:00.000   30.531721180  114.357256772    11.6395   6   8   0.2762   0.2831   0.7197  -0.0878   0.1665  -0.1335   0.00    0.0
2026/01/15 00:40:30.000   30.531721198  114.357256949    11.6437   6   7   0.2745   0.2814   0.7148  -0.0867   0.1649  -0.1312   0.00    0.0
2026/01/15 00:41:00.000   30.531721210  114.357257157    11.6556   6   8   0.2729   0.2796   0.7099  -0.0857   0.1632  -0.1290   0.00    0.0
2026/01/15 00:41:30.000   30.531721249  114.357257366    11.6589   6   7   0.2714   0.2780   0.7059  -0.0845   0.1613  -0.1277   0.00    0.0
2026/01/15 00:42:00.000   30.531721267  114.357257565    11.6692   6   7   0.2698   0.2763   0.7020  -0.0834   0.1594  -0.1265   0.00    0.0
2026/01/15 00:42:30.000   30.531721294  114.357257753    11.6658   6   7   0.2684   0.2747   0.6981  -0.0823   0.1576  -0.1253   0.00    0.0
2026/01/15 00:43:00.000   30.531721320  114.357257918    11.6668   6   7   0.2669   0.2732   0.6943  -0.0813   0.1559  -0.1242   0.00    0.0
2026/01/15 00:43:30.000   30.531721322  114.357258090    11.6706   6   7   0.2655   0.2716   0.6906  -0.0803   0.1542  -0.1232   0.00    0.0
2026/01/15 00:44:00.000   30.531721323  114.357258285    11.6767   6   7   0.2641   0.2701   0.6869  -0.0793   0.1526  -0.1222   0.00    0.0
2026/01/15 00:44:30.000   30.531721344  114.357258455    11.6838   6   7   0.2627   0.2686   0.6833  -0.0784   0.1511  -0.1212   0.00    0.0
2026/01/15 00:45:00.000   30.531721369  114.357258592    11.6904   6   7   0.2613   0.2672   0.6797  -0.0775   0.1496  -0.1203   0.00    0.0
2026/01/15 00:45:30.000   30.531721369  114.357258734    11.6927   6   7   0.2600   0.2658   0.6762  -0.0766   0.1481  -0.1195   0.00    0.0
2026/01/15 00:46:00.000   30.531721375  114.357258865    11.7033   6   7   0.2587   0.2644   0.6727  -0.0758   0.1468  -0.1187   0.00    0.0
2026/01/15 00:46:30.000   30.531721400  114.357259030    11.7164   6   7   0.2574   0.2630   0.6693  -0.0750   0.1454  -0.1179   0.00    0.0
2026/01/15 00:47:00.000   30.531721422  114.357259180    11.7307   6   7   0.2561   0.2616   0.6660  -0.0742   0.1441  -0.1172   0.00    0.0
2026/01/15 00:47:30.000   30.531721455  114.357259294    11.7327   6   7   0.2549   0.2603   0.6627  -0.0734   0.1429  -0.1166   0.00    0.0
2026/01/15 00:48:00.000   30.531721491  114.357259422    11.7358   6   7   0.2536   0.2590   0.6594  -0.0727   0.1417  -0.1160   0.00    0.0
2026/01/15 00:48:30.000   30.531721525  114.357259551    11.7427   6   7   0.2524   0.2577   0.6562  -0.0720   0.1406  -0.1154   0.00    0.0
2026/01/15 00:49:00.000   30.531721539  114.357259708    11.7548   6   7   0.2512   0.2565   0.6530  -0.0714   0.1395  -0.1148   0.00    0.0
2026/01/15 00:49:30.000   30.531721569  114.357259853    11.7633   6   7   0.2501   0.2552   0.6499  -0.0707   0.1384  -0.1143   0.00    0.0
2026/01/15 00:50:00.000   30.531721594  114.357259982    11.7721   6   7   0.2489   0.2540   0.6468  -0.0701   0.1374  -0.1139   0.00    0.0
2026/01/15 00:50:30.000   30.531721613  114.357260116    11.7732   6   7   0.2478   0.2528   0.6438  -0.0695   0.1364  -0.1135   0.00    0.0
2026/01/15 00:51:00.000   30.531721644  114.357260234    11.7794   6   7   0.2466   0.2516   0.6408  -0.0690   0.1354  -0.1131   0.00    0.0
2026/01/15 00:51:30.000   30.531721666  114.357260381    11.7901   6   7   0.2455   0.2505   0.6378  -0.0684   0.1345  -0.1127   0.00    0.0
2026/01/15 00:52:00.000   30.531721682  114.357260519    11.7961   6   7   0.2444   0.2493   0.6349  -0.0679   0.1336  -0.1124   0.00    0.0
2026/01/15 00:52:30.000   30.531721707  114.357260657    11.7992   6   7   0.2434   0.2482   0.6320  -0.0674   0.1328  -0.1121   0.00    0.0
2026/01/15 00:53:00.000   30.531721730  114.357260767    11.8033   6   7   0.2423   0.2471   0.6292  -0.0670   0.1319  -0.1118   0.00    0.0
2026/01/15 00:53:30.000   30.531721742  114.357260854    11.8111   6   7   0.2413   0.2460   0.6264  -0.0665   0.1311  -0.1115   0.00    0.0
2026/01/15 00:54:00.000   30.531721763  114.357260979    11.8156   6   7   0.2402   0.2449   0.6236  -0.0661   0.1304  -0.1113   0.00    0.0
2026/01/15 00:54:30.000   30.531721767  114.357261114    11.8228   6   7   0.2392   0.2439   0.6209  -0.0657   0.1296  -0.1111   0.00    0.0
2026/01/15 00:55:00.000   30.531721792  114.357261211    11.8300   6   7   0.2382   0.2428   0.6181  -0.0653   0.1289  -0.1109   0.00    0.0
2026/01/15 00:55:30.000   30.531721815  114.357261313    11.8433   6   7   0.2373   0.2418   0.6155  -0.0649   0.1282  -0.1108   0.00    0.0
2026/01/15 00:56:00.000   30.531721832  114.357261413    11.8497   6   7   0.2363   0.2408   0.6128  -0.0646   0.1276  -0.1107   0.00    0.0
2026/01/15 00:56:30.000   30.531721868  114.357261528    11.8613   6   7   0.2353   0.2398   0.6102  -0.0643   0.1269  -0.1105   0.00    0.0
2026/01/15 00:57:00.000   30.531721897  114.357261618    11.8716   6   7   0.2344   0.2388   0.6076  -0.0639   0.1263  -0.1104   0.00    0.0
2026/01/15 00:57:30.000   30.531721896  114.357261707    11.8839   6   7   0.2335   0.2378   0.6051  -0.0636   0.1257  -0.1104   0.00    0.0
2026/01/15 00:58:00.000   30.531721919  114.357261809    11.8952   6   7   0.2326   0.2369   0.6026  -0.0634   0.1252  -0.1103   0.00    0.0
2026/01/15 00:58:30.000   30.531721958  114.357261902    11.9052   6   7   0.2317   0.2359   0.6001  -0.0631   0.1246  -0.1103   0.00    0.0
2026/01/15 00:59:00.000   30.531722002  114.357261989    11.9178   6   7   0.2308   0.2350   0.5976  -0.0629   0.1241  -0.1103   0.00    0.0
2026/01/15 00:59:30.000   30.531722022  114.357262085    11.9265   6   7   0.2299   0.2341   0.5952  -0.0626   0.1236  -0.1103   0.00    0.0
2026/01/15 01:00:00.000   30.531722046  114.357262160    11.9320   6   7   0.2290   0.2332   0.5928  -0.0624   0.1231  -0.1103   0.00    0.0
2026/01/15 01:00:30.000   30.531722058  114.357262223    11.9373   6   7   0.2282   0.2323   0.5904  -0.0622   0.1226  -0.1103   0.00    0.0
2026/01/15 01:01:00.000   30.531722065  114.357262264    11.9470   6   7   0.2273   0.2314   0.5880  -0.0620   0.1222  -0.1103   0.00    0.0
2026/01/15 01:01:30.000   30.531722084  114.357262324    11.9537   6   7   0.2265   0.2305   0.5857  -0.0619   0.1217  -0.1104   0.00    0.0
2026/01/15 01:02:00.000   30.531722111  114.357262401    11.9623   6   7   0.2257   0.2296   0.5834  -0.0617   0.1213  -0.1104   0.00    0.0
2026/01/15 01:02:30.000   30.531722122  114.357262477    11.9740   6   7   0.2249   0.2288   0.5811  -0.0616   0.1209  -0.1105   0.00    0.0
2026/01/15 01:03:00.000   30.531722134  114.357262540    11.9880   6   7   0.2241   0.2279   0.5788  -0.0614   0.1205  -0.1105   0.00    0.0
2026/01/15 01:03:30.000   30.531722145  114.357262613    12.0000   6   7   0.2233   0.2271   0.5766  -0.0613   0.1201  -0.1106   0.00    0.0
2026/01/15 01:04:00.000   30.531722147  114.357262673    12.0124   6   7   0.2225   0.2263   0.5744  -0.0612   0.1197  -0.1107   0.00    0.0
2026/01/15 01:04:30.000   30.531722153  114.357262726    12.0267   6   7   0.2218   0.2255   0.5722  -0.0611   0.1194  -0.1108   0.00    0.0
2026/01/15 01:05:00.000   30.531722159  114.357262780    12.0418   6   7   0.2210   0.2247   0.5700  -0.0610   0.1190  -0.1109   0.00    0.0
2026/01/15 01:05:30.000   30.531722172  114.357262848    12.0586   6   7   0.2203   0.2239   0.5679  -0.0609   0.1187  -0.1111   0.00    0.0
2026/01/15 01:06:00.000   30.531722188  114.357262905    12.0706   6   7   0.2195   0.2231   0.5658  -0.0609   0.1184  -0.1112   0.00    0.0
2026/01/15 01:06:30.000   30.531722210  114.357262971    12.0826   6   7   0.2188   0.2224   0.5637  -0.0608   0.1180  -0.1113   0.00    0.0
2026/01/15 01:07:00.000   30.531722231  114.357263021    12.0948   6   7   0.2181   0.2216   0.5616  -0.0608   0.1177  -0.1114   0.00    0.0
2026/01/15 01:07:30.000   30.531722249  114.357263083    12.1078   6   7   0.2174   0.2208   0.5596  -0.0607   0.1175  -0.1116   0.00    0.0
2026/01/15 01:08:00.000   30.531722261  114.357263124    12.1222   6   7   0.2167   0.2201   0.5575  -0.0607   0.1172  -0.1117   0.00    0.0
2026/01/15 01:08:30.000   30.531722269  114.357263168    12.1321   6   7   0.2160   0.2194   0.5555  -0.0607   0.1169  -0.1119   0.00    0.0
2026/01/15 01:09:00.000   30.531722281  114.357263215    12.1441   6   7   0.2154   0.2186   0.5535  -0.0607   0.1166  -0.1120   0.00    0.0
2026/01/15 01:09:30.000   30.531722282  114.357263270    12.1583   6   7   0.2147   0.2179   0.5515  -0.0607   0.1164  -0.1122   0.00    0.0
2026/01/15 01:10:00.000   30.531722282  114.357263316    12.1724   6   7   0.2140   0.2172   0.5496  -0.0607   0.1161  -0.1123   0.00    0.0
2026/01/15 01:10:30.000   30.531722291  114.357263363    12.1923   6   7   0.2134   0.2165   0.5477  -0.0607   0.1159  -0.1125   0.00    0.0
2026/01/15 01:11:00.000   30.531722298  114.357263408    12.2064   6   7   0.2128   0.2158   0.5457  -0.0607   0.1157  -0.1127   0.00    0.0
2026/01/15 01:11:30.000   30.531722311  114.357263456    12.2223   6   7   0.2121   0.2151   0.5438  -0.0607   0.1154  -0.1128   0.00    0.0
2026/01/15 01:12:00.000   30.531722314  114.357263492    12.2379   6   7   0.2115   0.2144   0.5420  -0.0608   0.1152  -0.1130   0.00    0.0
2026/01/15 01:12:30.000   30.531722321  114.357263531    12.2541   6   7   0.2109   0.2138   0.5401  -0.0608   0.1150  -0.1132   0.00    0.0
2026/01/15 01:13:00.000   30.531722319  114.357263590    12.2734   6   7   0.2103   0.2131   0.5383  -0.0608   0.1148  -0.1134   0.00    0.0
2026/01/15 01:13:30.000   30.531722327  114.357263628    12.2879   6   7   0.2097   0.2125   0.5364  -0.0609   0.1146  -0.1135   0.00    0.0
2026/01/15 01:14:00.000   30.531722326  114.357263685    12.3029   6   7   0.2091   0.2118   0.5346  -0.0609   0.1144  -0.1137   0.00    0.0
2026/01/15 01:14:30.000   30.531722329  114.357263726    12.3158   6   7   0.2085   0.2112   0.5329  -0.0610   0.1142  -0.1139   0.00    0.0
2026/01/15 01:15:00.000   30.531722335  114.357263745    12.3281   6   7   0.2080   0.2105   0.5311  -0.0611   0.1141  -0.1141   0.00    0.0
2026/01/15 01:15:30.000   30.531722330  114.357263768    12.3411   6   7   0.2074   0.2099   0.5293  -0.0611   0.1139  -0.1143   0.00    0.0
2026/01/15 01:16:00.000   30.531722345  114.357263803    12.3558   6   7   0.2068   0.2093   0.5276  -0.0612   0.1137  -0.1144   0.00    0.0
2026/01/15 01:16:30.000   30.531722351  114.357263837    12.3716   6   7   0.2063   0.2087   0.5259  -0.0613   0.1135  -0.1146   0.00    0.0
2026/01/15 01:17:00.000   30.531722355  114.357263864    12.3824   6   7   0.2058   0.2081   0.5242  -0.0614   0.1134  -0.1148   0.00    0.0
2026/01/15 01:17:30.000   30.531722356  114.357263902    12.3959   6   7   0.2052   0.2074   0.5225  -0.0615   0.1132  -0.1150   0.00    0.0
2026/01/15 01:18:00.000   30.531722358  114.357263960    12.4126   6   7   0.2047   0.2069   0.5208  -0.0615   0.1131  -0.1152   0.00    0.0
2026/01/15 01:18:30.000   30.531722358  114.357263987    12.4288   6   7   0.2042   0.2063   0.5192  -0.0616   0.1129  -0.1153   0.00    0.0
2026/01/15 01:19:00.000   30.531722369  114.357264026    12.4458   6   7   0.2037   0.2057   0.5175  -0.0617   0.1128  -0.1155   0.00    0.0
2026/01/15 01:19:30.000   30.531722367  114.357264062    12.4603   6   7   0.2032   0.2051   0.5159  -0.0618   0.1126  -0.1157   0.00    0.0
2026/01/15 01:20:00.000   30.531722364  114.357264092    12.4767   6   7   0.2027   0.2045   0.5143  -0.0619   0.1125  -0.1159   0.00    0.0
2026/01/15 01:20:30.000   30.531722363  114.357264115    12.4911   6   7   0.2022   0.2040   0.5127  -0.0620   0.1124  -0.1160   0.00    0.0
2026/01/15 01:21:00.000   30.531722361  114.357264161    12.5056   6   7   0.2017   0.2034   0.5111  -0.0622   0.1122  -0.1162   0.00    0.0
2026/01/15 01:21:30.000   30.531722343  114.357264187    12.5202   6   7   0.2012   0.2028   0.5096  -0.0623   0.1121  -0.1164   0.00    0.0
2026/01/15 01:22:00.000   30.531722334  114.357264217    12.5331   6   7   0.2007   0.2023   0.5080  -0.0624   0.1120  -0.1166   0.00    0.0
2026/01/15 01:22:30.000   30.531722328  114.357264238    12.5469   6   7   0.2003   0.2017   0.5065  -0.0625   0.1119  -0.1167   0.00    0.0
2026/01/15 01:23:00.000   30.531722332  114.357264255    12.5612   6   7   0.1998   0.2012   0.5050  -0.0626   0.1118  -0.1169   0.00    0.0
2026/01/15 01:23:30.000   30.531722314  114.357264269    12.5757   6   7   0.1993   0.2007   0.5035  -0.0627   0.1117  -0.1171   0.00    0.0
2026/01/15 01:24:00.000   30.531722309  114.357264286    12.5892   6   7   0.1989   0.2001   0.5020  -0.0628   0.1115  -0.1172   0.00    0.0
2026/01/15 01:24:30.000   30.531722301  114.357264275    12.6024   6   7   0.1984   0.1996   0.5005  -0.0630   0.1114  -0.1174   0.00    0.0
2026/01/15 01:25:00.000   30.531722297  114.357264288    12.6172   6   7   0.1980   0.1991   0.4990  -0.0631   0.1113  -0.1176   0.00    0.0
2026/01/15 01:25:30.000   30.531722287  114.357264307    12.6292   6   7   0.1976   0.1986   0.4976  -0.0632   0.1112  -0.1177   0.00    0.0
2026/01/15 01:26:00.000   30.531722273  114.357264311    12.6456   6   7   0.1972   0.1981   0.4961  -0.0633   0.1111  -0.1179   0.00    0.0
2026/01/15 01:26:30.000   30.531722262  114.357264311    12.6597   6   7   0.1967   0.1976   0.4947  -0.0635   0.1110  -0.1180   0.00    0.0
2026/01/15 01:27:00.000   30.531722254  114.357264312    12.6745   6   7   0.1963   0.1971   0.4933  -0.0636   0.1109  -0.1182   0.00    0.0
2026/01/15 01:27:30.000   30.531722245  114.357264326    12.6910   6   7   0.1959   0.1966   0.4919  -0.0637   0.1108  -0.1184   0.00    0.0
2026/01/15 01:28:00.000   30.531722233  114.357264319    12.7058   6   7   0.1955   0.1961   0.4905  -0.0638   0.1107  -0.1185   0.00    0.0
2026/01/15 01:28:30.000   30.531722221  114.357264333    12.7202   6   7   0.1951   0.1956   0.4891  -0.0640   0.1107  -0.1187   0.00    0.0
2026/01/15 01:29:00.000   30.531722211  114.357264332    12.7330   6   7   0.1947   0.1951   0.4878  -0.0641   0.1106  -0.1188   0.00    0.0
2026/01/15 01:29:30.000   30.531722203  114.357264340    12.7478   6   7   0.1943   0.1946   0.4864  -0.0642   0.1105  -0.1189   0.00    0.0
2026/01/15 01:30:00.000   30.531722192  114.357264354    12.7626   6   7   0.1939   0.1942   0.4851  -0.0644   0.1104  -0.1191   0.00    0.0
2026/01/15 01:30:30.000   30.531722179  114.357264364    12.7798   6   7   0.1936   0.1937   0.4838  -0.0645   0.1103  -0.1192   0.00    0.0
2026/01/15 01:31:00.000   30.531722164  114.357264361    12.7960   6   7   0.1932   0.1932   0.4825  -0.0646   0.1102  -0.1194   0.00    0.0
2026/01/15 01:31:30.000   30.531722147  114.357264369    12.8116   6   7   0.1928   0.1928   0.4812  -0.0648   0.1102  -0.1195   0.00    0.0
2026/01/15 01:32:00.000   30.531722126  114.357264375    12.8252   6   7   0.1925   0.1923   0.4799  -0.0649   0.1101  -0.1196   0.00    0.0
2026/01/15 01:32:30.000   30.531722108  114.357264386    12.8410   6   7   0.1921   0.1919   0.4786  -0.0650   0.1100  -0.1198   0.00    0.0
2026/01/15 01:33:00.000   30.531722087  114.357264376    12.8504   6   7   0.1917   0.1914   0.4773  -0.0651   0.1099  -0.1199   0.00    0.0
2026/01/15 01:33:30.000   30.531722063  114.357264392    12.8655   6   7   0.1914   0.1910   0.4761  -0.0653   0.1099  -0.1200   0.00    0.0
2026/01/15 01:34:00.000   30.531722043  114.357264397    12.8816   6   7   0.1911   0.1905   0.4749  -0.0654   0.1098  -0.1202   0.00    0.0
2026/01/15 01:34:30.000   30.531722022  114.357264390    12.8955   6   7   0.1907   0.1901   0.4736  -0.0655   0.1097  -0.1203   0.00    0.0
2026/01/15 01:35:00.000   30.531721996  114.357264393    12.9079   6   7   0.1904   0.1897   0.4724  -0.0656   0.1096  -0.1204   0.00    0.0
2026/01/15 01:35:30.000   30.531721971  114.357264394    12.9232   6   7   0.1900   0.1892   0.4712  -0.0658   0.1096  -0.1205   0.00    0.0
2026/01/15 01:36:00.000   30.531721931  114.357264394    12.9331   6   8   0.1897   0.1888   0.4699  -0.0659   0.1095  -0.1208   0.00    0.0
2026/01/15 01:36:30.000   30.531721881  114.357264382    12.9401   6   8   0.1893   0.1884   0.4686  -0.0661   0.1094  -0.1210   0.00    0.0
2026/01/15 01:37:00.000   30.531721823  114.357264354    12.9548   6   7   0.1890   0.1880   0.4674  -0.0662   0.1093  -0.1213   0.00    0.0
2026/01/15 01:37:30.000   30.531721775  114.357264345    12.9599   6   8   0.1886   0.1876   0.4661  -0.0663   0.1092  -0.1216   0.00    0.0
2026/01/15 01:38:00.000   30.531721721  114.357264330    12.9667   6   8   0.1883   0.1872   0.4648  -0.0665   0.1091  -0.1218   0.00    0.0
2026/01/15 01:38:30.000   30.531721662  114.357264309    12.9826   6   7   0.1880   0.1867   0.4636  -0.0666   0.1090  -0.1221   0.00    0.0
2026/01/15 01:39:00.000   30.531721603  114.357264297    12.9979   6   7   0.1876   0.1863   0.4624  -0.0667   0.1089  -0.1223   0.00    0.0
2026/01/15 01:39:30.000   30.531721538  114.357264298    13.0191   6   7   0.1873   0.1859   0.4609  -0.0667   0.1084  -0.1223   0.00    0.0
2026/01/15 01:40:00.000   30.531721485  114.357264292    13.0346   6   8   0.1869   0.1854   0.4595  -0.0666   0.1079  -0.1222   0.00    0.0
2026/01/15 01:40:30.000   30.531721423  114.357264275    13.0515   6   8   0.1865   0.1850   0.4580  -0.0666   0.1074  -0.1222   0.00    0.0
2026/01/15 01:41:00.000   30.531721379  114.357264246    13.0660   6   8   0.1861   0.1845   0.4565  -0.0665   0.1069  -0.1221   0.00    0.0
2026/01/15 01:41:30.000   30.531721329  114.357264204    13.0795   6   8   0.1858   0.1840   0.4551  -0.0665   0.1065  -0.1221   0.00    0.0
2026/01/15 01:42:00.000   30.531721283  114.357264178    13.0959   6   8   0.1854   0.1836   0.4537  -0.0664   0.1060  -0.1220   0.00    0.0
2026/01/15 01:42:30.000   30.531721225  114.357264158    13.1116   6   8   0.1851   0.1832   0.4523  -0.0664   0.1056  -0.1220   0.00    0.0
2026/01/15 01:43:00.000   30.531721189  114.357264122    13.1176   6   8   0.1847   0.1827   0.4509  -0.0664   0.1051  -0.1219   0.00    0.0
2026/01/15 01:43:30.000   30.531721143  114.357264087    13.1314   6   8   0.1844   0.1823   0.4495  -0.0663   0.1047  -0.1219   0.00    0.0
2026/01/15 01:44:00.000   30.531721089  114.357264057    13.1469   6   8   0.1840   0.1819   0.4482  -0.0663   0.1043  -0.1218   0.00    0.0
2026/01/15 01:44:30.000   30.531721037  114.357264026    13.1614   6   8   0.1837   0.1814   0.4469  -0.0663   0.1039  -0.1218   0.00    0.0
2026/01/15 01:45:00.000   30.531720991  114.357263996    13.1738   6   8   0.1833   0.1810   0.4455  -0.0662   0.1035  -0.1217   0.00    0.0
2026/01/15 01:45:30.000   30.531720946  114.357263957    13.1873   6   8   0.1830   0.1806   0.4442  -0.0662   0.1031  -0.1217   0.00    0.0
2026/01/15 01:46:00.000   30.531720890  114.357263932    13.2014   6   8   0.1827   0.1802   0.4430  -0.0662   0.1027  -0.1217   0.00    0.0
2026/01/15 01:46:30.000   30.531720843  114.357263912    13.2147   6   8   0.1823   0.1797   0.4417  -0.0661   0.1023  -0.1216   0.00    0.0
2026/01/15 01:47:00.000   30.531720787  114.357263878    13.2300   6   8   0.1820   0.1793   0.4404  -0.0661   0.1019  -0.1216   0.00    0.0
2026/01/15 01:47:30.000   30.531720739  114.357263847    13.2473   6   8   0.1817   0.1789   0.4392  -0.0661   0.1015  -0.1216   0.00    0.0
2026/01/15 01:48:00.000   30.531720690  114.357263814    13.2641   6   8   0.1813   0.1785   0.4380  -0.0660   0.1011  -0.1215   0.00    0.0
2026/01/15 01:48:30.000   30.531720644  114.357263776    13.2813   6   8   0.1810   0.1781   0.4368  -0.0660   0.1007  -0.1216   0.00    0.0
2026/01/15 01:49:00.000   30.531720585  114.357263739    13.2996   6   8   0.1807   0.1777   0.4357  -0.0659   0.1003  -0.1216   0.00    0.0
2026/01/15 01:49:30.000   30.531720525  114.357263702    13.3193   6   8   0.1804   0.1773   0.4346  -0.0659   0.0999  -0.1216   0.00    0.0
2026/01/15 01:50:00.000   30.531720469  114.357263671    13.3370   6   8   0.1801   0.1769   0.4335  -0.0658   0.0995  -0.1216   0.00    0.0
2026/01/15 01:50:30.000   30.531720420  114.357263624    13.3529   6   8   0.1798   0.1765   0.4325  -0.0657   0.0991  -0.1217   0.00    0.0
2026/01/15 01:51:00.000   30.531720364  114.357263594    13.3743   6   8   0.1795   0.1762   0.4314  -0.0657   0.0987  -0.1217   0.00    0.0
2026/01/15 01:51:30.000   30.531720312  114.357263572    13.3966   6   8   0.1792   0.1758   0.4303  -0.0656   0.0983  -0.1217   0.00    0.0
2026/01/15 01:52:00.000   30.531720254  114.357263539    13.4168   6   8   0.1789   0.1754   0.4293  -0.0656   0.0979  -0.1217   0.00    0.0
2026/01/15 01:52:30.000   30.531720192  114.357263517    13.4365   6   8   0.1786   0.1750   0.4283  -0.0655   0.0976  -0.1218   0.00    0.0
2026/01/15 01:53:00.000   30.531720130  114.357263497    13.4587   6   8   0.1783   0.1746   0.4272  -0.0654   0.0972  -0.1218   0.00    0.0
2026/01/15 01:53:30.000   30.531720071  114.357263467    13.4779   6   8   0.1780   0.1743   0.4262  -0.0654   0.0969  -0.1218   0.00    0.0
2026/01/15 01:54:00.000   30.531720011  114.357263444    13.4978   6   8   0.1777   0.1739   0.4252  -0.0653   0.0965  -0.1218   0.00    0.0
2026/01/15 01:54:30.000   30.531719952  114.357263417    13.5190   6   8   0.1774   0.1735   0.4242  -0.0653   0.0962  -0.1219   0.00    0.0
2026/01/15 01:55:00.000   30.531719888  114.357263391    13.5393   6   8   0.1771   0.1731   0.4232  -0.0652   0.0958  -0.1219   0.00    0.0
2026/01/15 01:55:30.000   30.531719829  114.357263363    13.5571   6   8   0.1769   0.1728   0.4223  -0.0651   0.0955  -0.1219   0.00    0.0
2026/01/15 01:56:00.000   30.531719766  114.357263346    13.5758   6   8   0.1766   0.1724   0.4213  -0.0651   0.0952  -0.1219   0.00    0.0
2026/01/15 01:56:30.000   30.531719703  114.357263320    13.5958   6   8   0.1763   0.1721   0.4204  -0.0650   0.0948  -0.1219   0.00    0.0
2026/01/15 01:57:00.000   30.531719635  114.357263303    13.6178   6   8   0.1760   0.1717   0.4194  -0.0649   0.0945  -0.1220   0.00    0.0
2026/01/15 01:57:30.000   30.531719571  114.357263276    13.6404   6   8   0.1757   0.1714   0.4185  -0.0649   0.0942  -0.1220   0.00    0.0
2026/01/15 01:58:00.000   30.531719506  114.357263248    13.6595   6   8   0.1754   0.1710   0.4176  -0.0648   0.0939  -0.1220   0.00    0.0
2026/01/15 01:58:30.000   30.531719437  114.357263221    13.6805   6   8   0.1752   0.1707   0.4167  -0.0647   0.0936  -0.1220   0.00    0.0
2026/01/15 01:59:00.000   30.531719369  114.357263192    13.7028   6   8   0.1749   0.1703   0.4158  -0.0647   0.0933  -0.1220   0.00    0.0
2026/01/15 01:59:30.000   30.531719306  114.357263162    13.7226   6   8   0.1746   0.1700   0.4149  -0.0646   0.0930  -0.1220   0.00    0.0
2026/01/15 02:00:00.000   30.531719243  114.357263159    13.7355   6   8   0.1744   0.1696   0.4140  -0.0645   0.0927  -0.1221   0.00    0.0
2026/01/15 02:00:30.000   30.531719181  114.357263148    13.7483   6   8   0.1741   0.1693   0.4132  -0.0644   0.0923  -0.1221   0.00    0.0
2026/01/15 02:01:00.000   30.531719098  114.357263127    13.7510   6   8   0.1739   0.1690   0.4125  -0.0643   0.0920  -0.1221   0.00    0.0
2026/01/15 02:01:30.000   30.531719013  114.357263102    13.7515   6   8   0.1736   0.1687   0.4117  -0.0641   0.0917  -0.1221   0.00    0.0
2026/01/15 02:02:00.000   30.531718931  114.357263089    13.7537   6   8   0.1734   0.1684   0.4110  -0.0640   0.0914  -0.1221   0.00    0.0
2026/01/15 02:02:30.000   30.531718851  114.357263073    13.7560   6   8   0.1731   0.1681   0.4103  -0.0639   0.0911  -0.1221   0.00    0.0
2026/01/15 02:03:00.000   30.531718769  114.357263044    13.7582   6   8   0.1729   0.1677   0.4096  -0.0638   0.0908  -0.1221   0.00    0.0
2026/01/15 02:03:30.000   30.531718689  114.357263029    13.7621   6   8   0.1726   0.1674   0.4089  -0.0637   0.0905  -0.1221   0.00    0.0
2026/01/15 02:04:00.000   30.531718600  114.357263017    13.7671   6   8   0.1724   0.1671   0.4082  -0.0636   0.0902  -0.1220   0.00    0.0
2026/01/15 02:04:30.000   30.531718515  114.357262995    13.7702   6   8   0.1721   0.1668   0.4075  -0.0634   0.0899  -0.1220   0.00    0.0
2026/01/15 02:05:00.000   30.531718424  114.357262977    13.7733   6   8   0.1719   0.1665   0.4068  -0.0633   0.0896  -0.1220   0.00    0.0
2026/01/15 02:05:30.000   30.531718341  114.357262954    13.7781   6   8   0.1716   0.1662   0.4061  -0.0632   0.0893  -0.1220   0.00    0.0
2026/01/15 02:06:00.000   30.531718255  114.357262933    13.7813   6   8   0.1714   0.1659   0.4054  -0.0631   0.0891  -0.1220   0.00    0.0
2026/01/15 02:06:30.000   30.531718172  114.357262910    13.7858   6   7   0.1711   0.1656   0.4048  -0.0629   0.0888  -0.1220   0.00    0.0
2026/01/15 02:07:00.000   30.531718086  114.357262890    13.7899   6   7   0.1709   0.1653   0.4041  -0.0628   0.0885  -0.1220   0.00    0.0
2026/01/15 02:07:30.000   30.531718001  114.357262865    13.7960   6   7   0.1707   0.1650   0.4035  -0.0627   0.0883  -0.1220   0.00    0.0
2026/01/15 02:08:00.000   30.531717921  114.357262840    13.8032   6   8   0.1704   0.1647   0.4028  -0.0626   0.0880  -0.1220   0.00    0.0
2026/01/15 02:08:30.000   30.531717847  114.357262823    13.8121   6   8   0.1702   0.1644   0.4022  -0.0625   0.0877  -0.1220   0.00    0.0
2026/01/15 02:09:00.000   30.531717782  114.357262793    13.8227   6   7   0.1699   0.1642   0.4016  -0.0624   0.0875  -0.1219   0.00    0.0
2026/01/15 02:09:30.000   30.531717715  114.357262768    13.8349   6   7   0.1697   0.1639   0.4010  -0.0623   0.0872  -0.1219   0.00    0.0
2026/01/15 02:10:00.000   30.531717652  114.357262744    13.8490   6   7   0.1695   0.1636   0.4004  -0.0622   0.0869  -0.1218   0.00    0.0
2026/01/15 02:10:30.000   30.531717581  114.357262716    13.8608   6   7   0.1693   0.1633   0.3998  -0.0620   0.0866  -0.1218   0.00    0.0
2026/01/15 02:11:00.000   30.531717516  114.357262696    13.8728   6   7   0.1690   0.1630   0.3993  -0.0619   0.0864  -0.1217   0.00    0.0
2026/01/15 02:11:30.000   30.531717446  114.357262674    13.8865   6   7   0.1688   0.1627   0.3987  -0.0618   0.0861  -0.1217   0.00    0.0
2026/01/15 02:12:00.000   30.531717378  114.357262646    13.8998   6   7   0.1686   0.1625   0.3981  -0.0617   0.0859  -0.1217   0.00    0.0
2026/01/15 02:12:30.000   30.531717310  114.357262621    13.9143   6   7   0.1684   0.1622   0.3976  -0.0616   0.0856  -0.1216   0.00    0.0
2026/01/15 02:13:00.000   30.531717241  114.357262593    13.9286   6   7   0.1681   0.1619   0.3970  -0.0615   0.0854  -0.1216   0.00    0.0
2026/01/15 02:13:30.000   30.531717176  114.357262569    13.9432   6   7   0.1679   0.1616   0.3965  -0.0614   0.0851  -0.1215   0.00    0.0
2026/01/15 02:14:00.000   30.531717106  114.357262549    13.9582   6   7   0.1677   0.1614   0.3959  -0.0613   0.0849  -0.1215   0.00    0.0
2026/01/15 02:14:30.000   30.531717040  114.357262525    13.9725   6   7   0.1674   0.1611   0.3954  -0.0612   0.0846  -0.1214   0.00    0.0
2026/01/15 02:15:00.000   30.531716976  114.357262500    13.9879   6   7   0.1672   0.1608   0.3949  -0.0610   0.0844  -0.1214   0.00    0.0
2026/01/15 02:15:30.000   30.531716911  114.357262478    14.0036   6   7   0.1670   0.1606   0.3943  -0.0609   0.0842  -0.1214   0.00    0.0
2026/01/15 02:16:00.000   30.531716840  114.357262449    14.0194   6   7   0.1668   0.1603   0.3938  -0.0608   0.0840  -0.1213   0.00    0.0
2026/01/15 02:16:30.000   30.531716770  114.357262422    14.0365   6   7   0.1665   0.1600   0.3933  -0.0607   0.0838  -0.1213   0.00    0.0
2026/01/15 02:17:00.000   30.531716701  114.357262397    14.0535   6   7   0.1663   0.1598   0.3928  -0.0606   0.0835  -0.1213   0.00    0.0
2026/01/15 02:17:30.000   30.531716631  114.357262381    14.0707   6   7   0.1661   0.1595   0.3923  -0.0605   0.0833  -0.1212   0.00    0.0
2026/01/15 02:18:00.000   30.531716563  114.357262359    14.0887   6   7   0.1658   0.1593   0.3918  -0.0604   0.0831  -0.1212   0.00    0.0
2026/01/15 02:18:30.000   30.531716494  114.357262334    14.1073   6   7   0.1656   0.1590   0.3912  -0.0602   0.0829  -0.1212   0.00    0.0
2026/01/15 02:19:00.000   30.531716428  114.357262306    14.1251   6   7   0.1654   0.1587   0.3907  -0.0601   0.0827  -0.1211   0.00    0.0
2026/01/15 02:19:30.000   30.531716361  114.357262280    14.1444   6   7   0.1652   0.1585   0.3903  -0.0600   0.0825  -0.1211   0.00    0.0
2026/01/15 02:20:00.000   30.531716294  114.357262256    14.1630   6   7   0.1649   0.1582   0.3898  -0.0599   0.0824  -0.1211   0.00    0.0
2026/01/15 02:20:30.000   30.531716225  114.357262234    14.1835   6   7   0.1647   0.1580   0.3893  -0.0598   0.0822  -0.1210   0.00    0.0
2026/01/15 02:21:00.000   30.531716156  114.357262218    14.2037   6   7   0.1645   0.1577   0.3888  -0.0596   0.0820  -0.1210   0.00    0.0
2026/01/15 02:21:30.000   30.531716083  114.357262193    14.2225   6   7   0.1643   0.1575   0.3883  -0.0595   0.0818  -0.1210   0.00    0.0
2026/01/15 02:22:00.000   30.531716014  114.357262172    14.2417   6   7   0.1640   0.1572   0.3878  -0.0594   0.0817  -0.1209   0.00    0.0
2026/01/15 02:22:30.000   30.531715945  114.357262146    14.2615   6   7   0.1638   0.1570   0.3874  -0.0593   0.0815  -0.1209   0.00    0.0
2026/01/15 02:23:00.000   30.531715872  114.357262128    14.2825   6   7   0.1636   0.1567   0.3869  -0.0592   0.0813  -0.1209   0.00    0.0
2026/01/15 02:23:30.000   30.531715798  114.357262103    14.3033   6   7   0.1633   0.1565   0.3864  -0.0590   0.0812  -0.1209   0.00    0.0
2026/01/15 02:24:00.000   30.531715728  114.357262080    14.3246   6   7   0.1631   0.1562   0.3860  -0.0589   0.0810  -0.1208   0.00    0.0
2026/01/15 02:24:30.000   30.531715660  114.357262051    14.3447   6   7   0.1629   0.1560   0.3855  -0.0588   0.0809  -0.1208   0.00    0.0
2026/01/15 02:25:00.000   30.531715587  114.357262023    14.3655   6   7   0.1627   0.1558   0.3851  -0.0587   0.0807  -0.1208   0.00    0.0
2026/01/15 02:25:30.000   30.531715512  114.357262000    14.3860   6   7   0.1624   0.1555   0.3846  -0.0586   0.0806  -0.1207   0.00    0.0
2026/01/15 02:26:00.000   30.531715437  114.357261976    14.4066   6   7   0.1622   0.1553   0.3842  -0.0584   0.0805  -0.1207   0.00    0.0
2026/01/15 02:26:30.000   30.531715367  114.357261956    14.4279   6   7   0.1620   0.1550   0.3837  -0.0583   0.0803  -0.1207   0.00    0.0
2026/01/15 02:27:00.000   30.531715294  114.357261929    14.4502   6   7   0.1617   0.1548   0.3833  -0.0582   0.0802  -0.1206   0.00    0.0
2026/01/15 02:27:30.000   30.531715224  114.357261909    14.4718   6   7   0.1615   0.1546   0.3828  -0.0581   0.0801  -0.1206   0.00    0.0
2026/01/15 02:28:00.000   30.531715150  114.357261887    14.4946   6   7   0.1613   0.1543   0.3824  -0.0580   0.0800  -0.1205   0.00    0.0
2026/01/15 02:28:30.000   30.531715082  114.357261863    14.5185   6   7   0.1611   0.1541   0.3820  -0.0578   0.0799  -0.1205   0.00    0.0
2026/01/15 02:29:00.000   30.531715007  114.357261841    14.5418   6   7   0.1608   0.1539   0.3815  -0.0577   0.0798  -0.1205   0.00    0.0
2026/01/15 02:29:30.000   30.531714931  114.357261817    14.5658   6   7   0.1606   0.1537   0.3811  -0.0576   0.0796  -0.1204   0.00    0.0
2026/01/15 02:30:00.000   30.531714853  114.357261794    14.5908   6   7   0.1604   0.1534   0.3807  -0.0575   0.0795  -0.1204   0.00    0.0
2026/01/15 02:30:30.000   30.531714778  114.357261773    14.6152   6   7   0.1601   0.1532   0.3803  -0.0574   0.0794  -0.1204   0.00    0.0
2026/01/15 02:31:00.000   30.531714707  114.357261753    14.6405   6   7   0.1599   0.1530   0.3798  -0.0572   0.0794  -0.1203   0.00    0.0
2026/01/15 02:31:30.000   30.531714639  114.357261729    14.6654   6   7   0.1597   0.1528   0.3794  -0.0571   0.0793  -0.1203   0.00    0.0
2026/01/15 02:32:00.000   30.531714552  114.357261694    14.6852   6   7   0.1595   0.1525   0.3790  -0.0570   0.0791  -0.1203   0.00    0.0
2026/01/15 02:32:30.000   30.531714466  114.357261663    14.7057   6   7   0.1592   0.1523   0.3785  -0.0569   0.0790  -0.1203   0.00    0.0
2026/01/15 02:33:00.000   30.531714378  114.357261634    14.7262   6   7   0.1590   0.1521   0.3781  -0.0568   0.0789  -0.1203   0.00    0.0
2026/01/15 02:33:30.000   30.531714292  114.357261599    14.7474   6   7   0.1587   0.1519   0.3776  -0.0567   0.0788  -0.1203   0.00    0.0
2026/01/15 02:34:00.000   30.531714206  114.357261565    14.7687   6   7   0.1585   0.1516   0.3772  -0.0566   0.0787  -0.1203   0.00    0.0
2026/01/15 02:34:30.000   30.531714118  114.357261533    14.7911   6   7   0.1583   0.1514   0.3767  -0.0565   0.0786  -0.1202   0.00    0.0
2026/01/15 02:35:00.000   30.531714029  114.357261501    14.8134   6   7   0.1580   0.1512   0.3763  -0.0564   0.0785  -0.1202   0.00    0.0
2026/01/15 02:35:30.000   30.531713940  114.357261472    14.8354   6   7   0.1578   0.1510   0.3759  -0.0563   0.0784  -0.1202   0.00    0.0
2026/01/15 02:36:00.000   30.531713854  114.357261447    14.8583   6   7   0.1576   0.1508   0.3754  -0.0562   0.0783  -0.1202   0.00    0.0
2026/01/15 02:36:30.000   30.531713773  114.357261417    14.8812   6   7   0.1573   0.1506   0.3750  -0.0561   0.0783  -0.1202   0.00    0.0
2026/01/15 02:37:00.000   30.531713690  114.357261379    14.9029   6   7   0.1571   0.1503   0.3746  -0.0560   0.0782  -0.1202   0.00    0.0
2026/01/15 02:37:30.000   30.531713608  114.357261345    14.9269   6   8   0.1569   0.1501   0.3741  -0.0559   0.0781  -0.1202   0.00    0.0
2026/01/15 02:38:00.000   30.531713520  114.357261316    14.9511   6   8   0.1566   0.1499   0.3737  -0.0558   0.0780  -0.1202   0.00    0.0
2026/01/15 02:38:30.000   30.531713436  114.357261287    14.9751   6   8   0.1564   0.1497   0.3733  -0.0557   0.0780  -0.1201   0.00    0.0
2026/01/15 02:39:00.000   30.531713356  114.357261252    14.9996   6   8   0.1561   0.1495   0.3729  -0.0556   0.0779  -0.1201   0.00    0.0
2026/01/15 02:39:30.000   30.531713272  114.357261219    15.0245   6   8   0.1559   0.1493   0.3725  -0.0555   0.0778  -0.1201   0.00    0.0
2026/01/15 02:40:00.000   30.531713188  114.357261185    15.0492   6   8   0.1557   0.1491   0.3720  -0.0554   0.0778  -0.1201   0.00    0.0
2026/01/15 02:40:30.000   30.531713102  114.357261152    15.0740   6   8   0.1554   0.1489   0.3716  -0.0553   0.0777  -0.1200   0.00    0.0
2026/01/15 02:41:00.000   30.531713018  114.357261121    15.0993   6   8   0.1552   0.1487   0.3712  -0.0552   0.0777  -0.1200   0.00    0.0
2026/01/15 02:41:30.000   30.531712932  114.357261097    15.1246   6   8   0.1550   0.1485   0.3708  -0.0551   0.0776  -0.1200   0.00    0.0
2026/01/15 02:42:00.000   30.531712849  114.357261067    15.1503   6   8   0.1547   0.1483   0.3704  -0.0550   0.0776  -0.1199   0.00    0.0
2026/01/15 02:42:30.000   30.531712770  114.357261036    15.1756   6   8   0.1545   0.1481   0.3700  -0.0549   0.0775  -0.1199   0.00    0.0
2026/01/15 02:43:00.000   30.531712684  114.357261004    15.1993   6   8   0.1543   0.1479   0.3696  -0.0549   0.0775  -0.1199   0.00    0.0
2026/01/15 02:43:30.000   30.531712604  114.357260972    15.2258   6   8   0.1540   0.1477   0.3692  -0.0548   0.0775  -0.1198   0.00    0.0
2026/01/15 02:44:00.000   30.531712521  114.357260943    15.2521   6   8   0.1538   0.1475   0.3688  -0.0547   0.0774  -0.1198   0.00    0.0
2026/01/15 02:44:30.000   30.531712437  114.357260916    15.2779   6   8   0.1536   0.1473   0.3683  -0.0546   0.0774  -0.1198   0.00    0.0
2026/01/15 02:45:00.000   30.531712352  114.357260880    15.3029   6   8   0.1533   0.1471   0.3679  -0.0545   0.0774  -0.1197   0.00    0.0
2026/01/15 02:45:30.000   30.531712268  114.357260851    15.3288   6   8   0.1531   0.1469   0.3675  -0.0544   0.0774  -0.1197   0.00    0.0
2026/01/15 02:46:00.000   30.531712183  114.357260818    15.3537   6   8   0.1529   0.1467   0.3671  -0.0543   0.0774  -0.1196   0.00    0.0
2026/01/15 02:46:30.000   30.531712096  114.357260783    15.3791   6   8   0.1526   0.1465   0.3667  -0.0543   0.0773  -0.1196   0.00    0.0
2026/01/15 02:47:00.000   30.531712013  114.357260748    15.4037   6   8   0.1524   0.1463   0.3664  -0.0542   0.0773  -0.1195   0.00    0.0
2026/01/15 02:47:30.000   30.531711932  114.357260714    15.4294   6   8   0.1522   0.1461   0.3660  -0.0541   0.0773  -0.1195   0.00    0.0
2026/01/15 02:48:00.000   30.531711846  114.357260685    15.4559   6   8   0.1519   0.1459   0.3656  -0.0540   0.0773  -0.1194   0.00    0.0
2026/01/15 02:48:30.000   30.531711764  114.357260661    15.4819   6   8   0.1517   0.1457   0.3652  -0.0539   0.0773  -0.1193   0.00    0.0
2026/01/15 02:49:00.000   30.531711681  114.357260631    15.5080   6   8   0.1515   0.1455   0.3648  -0.0539   0.0773  -0.1193   0.00    0.0
2026/01/15 02:49:30.000   30.531711597  114.357260598    15.5338   6   8   0.1513   0.1454   0.3644  -0.0538   0.0773  -0.1192   0.00    0.0
2026/01/15 02:50:00.000   30.531711516  114.357260567    15.5608   6   8   0.1510   0.1452   0.3640  -0.0537   0.0773  -0.1191   0.00    0.0
2026/01/15 02:50:30.000   30.531711439  114.357260535    15.5880   6   8   0.1508   0.1450   0.3636  -0.0536   0.0773  -0.1191   0.00    0.0
2026/01/15 02:51:00.000   30.531711361  114.357260501    15.6141   6   8   0.1506   0.1448   0.3632  -0.0536   0.0774  -0.1190   0.00    0.0
2026/01/15 02:51:30.000   30.531711281  114.357260469    15.6411   6   8   0.1503   0.1446   0.3628  -0.0535   0.0774  -0.1189   0.00    0.0
2026/01/15 02:52:00.000   30.531711199  114.357260438    15.6684   6   8   0.1501   0.1444   0.3624  -0.0534   0.0774  -0.1189   0.00    0.0
2026/01/15 02:52:30.000   30.531711122  114.357260406    15.6952   6   8   0.1499   0.1443   0.3620  -0.0534   0.0774  -0.1188   0.00    0.0
2026/01/15 02:53:00.000   30.531711047  114.357260387    15.7211   6   8   0.1497   0.1441   0.3617  -0.0533   0.0774  -0.1187   0.00    0.0
2026/01/15 02:53:30.000   30.531710974  114.357260356    15.7469   6   8   0.1494   0.1439   0.3612  -0.0532   0.0773  -0.1185   0.00    0.0
2026/01/15 02:54:00.000   30.531710895  114.357260322    15.7738   6   9   0.1492   0.1437   0.3607  -0.0530   0.0772  -0.1184   0.00    0.0
2026/01/15 02:54:30.000   30.531710824  114.357260299    15.8017   6   8   0.1489   0.1435   0.3602  -0.0529   0.0771  -0.1182   0.00    0.0
2026/01/15 02:55:00.000   30.531710754  114.357260271    15.8305   6   8   0.1487   0.1433   0.3597  -0.0528   0.0770  -0.1180   0.00    0.0
2026/01/15 02:55:30.000   30.531710676  114.357260252    15.8598   6   8   0.1484   0.1431   0.3593  -0.0526   0.0770  -0.1178   0.00    0.0
2026/01/15 02:56:00.000   30.531710595  114.357260229    15.8899   6   8   0.1482   0.1429   0.3589  -0.0525   0.0770  -0.1176   0.00    0.0
2026/01/15 02:56:30.000   30.531710515  114.357260204    15.9191   6   8   0.1480   0.1427   0.3585  -0.0524   0.0770  -0.1175   0.00    0.0
2026/01/15 02:57:00.000   30.531710430  114.357260189    15.9499   6   8   0.1477   0.1426   0.3580  -0.0523   0.0769  -0.1173   0.00    0.0
2026/01/15 02:57:30.000   30.531710349  114.357260176    15.9812   6   8   0.1475   0.1424   0.3576  -0.0521   0.0769  -0.1171   0.00    0.0
2026/01/15 02:58:00.000   30.531710276  114.357260155    16.0107   6   8   0.1472   0.1422   0.3572  -0.0520   0.0769  -0.1169   0.00    0.0
2026/01/15 02:58:30.000   30.531710200  114.357260142    16.0409   6   8   0.1470   0.1420   0.3567  -0.0519   0.0769  -0.1167   0.00    0.0
2026/01/15 02:59:00.000   30.531710124  114.357260129    16.0705   6   8   0.1468   0.1418   0.3563  -0.0518   0.0769  -0.1165   0.00    0.0
2026/01/15 02:59:30.000   30.531710052  114.357260113    16.1002   6   8   0.1465   0.1417   0.3559  -0.0516   0.0769  -0.1163   0.00    0.0
2026/01/15 03:00:00.000   30.531709983  114.357260092    16.1305   6   8   0.1463   0.1415   0.3554  -0.0515   0.0769  -0.1161   0.00    0.0
2026/01/15 03:00:30.000   30.531709910  114.357260074    16.1625   6   8   0.1460   0.1413   0.3550  -0.0514   0.0769  -0.1159   0.00    0.0
2026/01/15 03:01:00.000   30.531709840  114.357260054    16.1939   6   8   0.1458   0.1411   0.3546  -0.0513   0.0769  -0.1157   0.00    0.0
2026/01/15 03:01:30.000   30.531709769  114.357260038    16.2254   6   8   0.1455   0.1409   0.3541  -0.0512   0.0769  -0.1155   0.00    0.0
2026/01/15 03:02:00.000   30.531709702  114.357260025    16.2569   6   8   0.1453   0.1408   0.3537  -0.0511   0.0769  -0.1153   0.00    0.0
2026/01/15 03:02:30.000   30.531709628  114.357260010    16.2888   6   8   0.1451   0.1406   0.3532  -0.0510   0.0769  -0.1151   0.00    0.0
2026/01/15 03:03:00.000   30.531709557  114.357259994    16.3206   6   8   0.1448   0.1404   0.3528  -0.0508   0.0769  -0.1150   0.00    0.0
2026/01/15 03:03:30.000   30.531709488  114.357259977    16.3522   6   8   0.1446   0.1402   0.3524  -0.0507   0.0769  -0.1148   0.00    0.0
2026/01/15 03:04:00.000   30.531709417  114.357259960    16.3831   6   8   0.1443   0.1400   0.3519  -0.0506   0.0770  -0.1146   0.00    0.0
2026/01/15 03:04:30.000   30.531709353  114.357259941    16.4137   6   8   0.1441   0.1399   0.3515  -0.0505   0.0770  -0.1144   0.00    0.0
2026/01/15 03:05:00.000   30.531709289  114.357259927    16.4453   6   8   0.1438   0.1397   0.3511  -0.0504   0.0770  -0.1142   0.00    0.0
2026/01/15 03:05:30.000   30.531709222  114.357259912    16.4770   6   8   0.1436   0.1395   0.3506  -0.0503   0.0770  -0.1140   0.00    0.0
2026/01/15 03:06:00.000   30.531709156  114.357259902    16.5086   6   8   0.1434   0.1393   0.3502  -0.0502   0.0770  -0.1138   0.00    0.0
2026/01/15 03:06:30.000   30.531709092  114.357259885    16.5401   6   8   0.1431   0.1392   0.3498  -0.0501   0.0770  -0.1136   0.00    0.0
2026/01/15 03:07:00.000   30.531709026  114.357259870    16.5750   6   7   0.1429   0.1390   0.3494  -0.0500   0.0770  -0.1134   0.00    0.0
2026/01/15 03:07:30.000   30.531708962  114.357259853    16.6104   6   7   0.1427   0.1388   0.3489  -0.0499   0.0770  -0.1132   0.00    0.0
2026/01/15 03:08:00.000   30.531708900  114.357259836    16.6451   6   7   0.1424   0.1387   0.3485  -0.0499   0.0770  -0.1130   0.00    0.0
2026/01/15 03:08:30.000   30.531708839  114.357259820    16.6793   6   7   0.1422   0.1385   0.3481  -0.0498   0.0770  -0.1127   0.00    0.0
2026/01/15 03:09:00.000   30.531708779  114.357259805    16.7098   6   8   0.1419   0.1383   0.3477  -0.0497   0.0770  -0.1125   0.00    0.0
2026/01/15 03:09:30.000   30.531708722  114.357259786    16.7442   6   7   0.1417   0.1382   0.3472  -0.0496   0.0771  -0.1123   0.00    0.0
2026/01/15 03:10:00.000   30.531708664  114.357259768    16.7784   6   7   0.1415   0.1380   0.3468  -0.0495   0.0771  -0.1121   0.00    0.0
2026/01/15 03:10:30.000   30.531708606  114.357259748    16.8128   6   7   0.1412   0.1378   0.3464  -0.0494   0.0771  -0.1119   0.00    0.0
2026/01/15 03:11:00.000   30.531708553  114.357259732    16.8470   6   7   0.1410   0.1377   0.3460  -0.0493   0.0771  -0.1117   0.00    0.0
2026/01/15 03:11:30.000   30.531708499  114.357259715    16.8814   6   7   0.1408   0.1375   0.3456  -0.0493   0.0771  -0.1115   0.00    0.0
2026/01/15 03:12:00.000   30.531708432  114.357259705    16.9092   6   7   0.1406   0.1373   0.3452  -0.0492   0.0771  -0.1112   0.00    0.0
2026/01/15 03:12:30.000   30.531708364  114.357259693    16.9358   6   7   0.1403   0.1372   0.3448  -0.0491   0.0771  -0.1110   0.00    0.0
2026/01/15 03:13:00.000   30.531708298  114.357259682    16.9630   6   7   0.1401   0.1370   0.3444  -0.0490   0.0771  -0.1108   0.00    0.0
2026/01/15 03:13:30.000   30.531708231  114.357259678    16.9861   6   8   0.1399   0.1368   0.3440  -0.0490   0.0771  -0.1105   0.00    0.0
2026/01/15 03:14:00.000   30.531708163  114.357259663    17.0134   6   7   0.1397   0.1367   0.3436  -0.0489   0.0771  -0.1103   0.00    0.0
2026/01/15 03:14:30.000   30.531708096  114.357259651    17.0401   6   7   0.1394   0.1365   0.3432  -0.0488   0.0771  -0.1101   0.00    0.0
2026/01/15 03:15:00.000   30.531708029  114.357259641    17.0681   6   7   0.1392   0.1364   0.3428  -0.0488   0.0771  -0.1098   0.00    0.0
2026/01/15 03:15:30.000   30.531707965  114.357259635    17.0961   6   7   0.1390   0.1362   0.3424  -0.0487   0.0771  -0.1096   0.00    0.0
2026/01/15 03:16:00.000   30.531707900  114.357259630    17.1229   6   7   0.1388   0.1360   0.3420  -0.0487   0.0771  -0.1094   0.00    0.0
2026/01/15 03:16:30.000   30.531707837  114.357259626    17.1503   6   7   0.1386   0.1359   0.3416  -0.0486   0.0771  -0.1091   0.00    0.0
2026/01/15 03:17:00.000   30.531707774  114.357259614    17.1777   6   7   0.1383   0.1357   0.3413  -0.0485   0.0771  -0.1089   0.00    0.0
2026/01/15 03:17:30.000   30.531707718  114.357259603    17.2046   6   7   0.1381   0.1356   0.3409  -0.0485   0.0771  -0.1086   0.00    0.0
2026/01/15 03:18:00.000   30.531707664  114.357259599    17.2311   6   7   0.1379   0.1354   0.3405  -0.0484   0.0771  -0.1084   0.00    0.0
2026/01/15 03:18:30.000   30.531707608  114.357259593    17.2570   6   7   0.1377   0.1352   0.3401  -0.0484   0.0771  -0.1082   0.00    0.0
2026/01/15 03:19:00.000   30.531707554  114.357259586    17.2836   6   7   0.1375   0.1351   0.3397  -0.0483   0.0771  -0.1079   0.00    0.0
2026/01/15 03:19:30.000   30.531707498  114.357259574    17.3107   6   7   0.1373   0.1349   0.3393  -0.0483   0.0771  -0.1077   0.00    0.0
2026/01/15 03:20:00.000   30.531707443  114.357259563    17.3371   6   7   0.1370   0.1348   0.3389  -0.0482   0.0771  -0.1074   0.00    0.0
2026/01/15 03:20:30.000   30.531707392  114.357259553    17.3629   6   7   0.1368   0.1346   0.3385  -0.0482   0.0771  -0.1072   0.00    0.0
2026/01/15 03:21:00.000   30.531707336  114.357259545    17.3900   6   7   0.1366   0.1345   0.3382  -0.0481   0.0771  -0.1070   0.00    0.0
2026/01/15 03:21:30.000   30.531707281  114.357259542    17.4167   6   7   0.1364   0.1343   0.3378  -0.0481   0.0771  -0.1067   0.00    0.0
2026/01/15 03:22:00.000   30.531707233  114.357259531    17.4420   6   7   0.1362   0.1342   0.3374  -0.0480   0.0771  -0.1065   0.00    0.0
2026/01/15 03:22:30.000   30.531707184  114.357259526    17.4676   6   7   0.1360   0.1340   0.3370  -0.0480   0.0772  -0.1062   0.00    0.0
2026/01/15 03:23:00.000   30.531707137  114.357259521    17.4931   6   7   0.1358   0.1339   0.3366  -0.0479   0.0772  -0.1060   0.00    0.0
2026/01/15 03:23:30.000   30.531707088  114.357259516    17.5184   6   7   0.1356   0.1337   0.3362  -0.0479   0.0772  -0.1058   0.00    0.0
2026/01/15 03:24:00.000   30.531707045  114.357259514    17.5435   6   7   0.1354   0.1336   0.3359  -0.0479   0.0772  -0.1055   0.00    0.0
2026/01/15 03:24:30.000   30.531706996  114.357259515    17.5687   6   7   0.1352   0.1334   0.3355  -0.0478   0.0772  -0.1053   0.00    0.0
2026/01/15 03:25:00.000   30.531706947  114.357259514    17.5942   6   7   0.1350   0.1333   0.3351  -0.0478   0.0772  -0.1050   0.00    0.0
2026/01/15 03:25:30.000   30.531706896  114.357259511    17.6205   6   7   0.1348   0.1331   0.3347  -0.0477   0.0772  -0.1048   0.00    0.0
2026/01/15 03:26:00.000   30.531706847  114.357259510    17.6461   6   7   0.1346   0.1330   0.3343  -0.0477   0.0772  -0.1046   0.00    0.0
2026/01/15 03:26:30.000   30.531706800  114.357259511    17.6709   6   7   0.1344   0.1328   0.3340  -0.0477   0.0772  -0.1043   0.00    0.0
2026/01/15 03:27:00.000   30.531706752  114.357259502    17.6956   6   7   0.1341   0.1327   0.3336  -0.0476   0.0773  -0.1041   0.00    0.0
2026/01/15 03:27:30.000   30.531706708  114.357259498    17.7199   6   7   0.1339   0.1325   0.3332  -0.0476   0.0773  -0.1039   0.00    0.0
2026/01/15 03:28:00.000   30.531706664  114.357259494    17.7441   6   7   0.1338   0.1324   0.3328  -0.0476   0.0773  -0.1036   0.00    0.0
2026/01/15 03:28:30.000   30.531706622  114.357259489    17.7675   6   7   0.1336   0.1323   0.3325  -0.0476   0.0773  -0.1034   0.00    0.0
2026/01/15 03:29:00.000   30.531706580  114.357259483    17.7919   6   7   0.1334   0.1321   0.3321  -0.0475   0.0773  -0.1031   0.00    0.0
