% program   : RTKPOST ver.demo5 b34d
% inp file  : E:\Master courses\SNDP-PROJECT\New_Data\obs\RNXDATA\WUH200CHN_R_20260150000_01D_30S_MO.obs
% inp file  : E:\Master courses\SNDP-PROJECT\New_Data\nav\BRDC00IGS_R_20260150000_01D_MN.rnx
% inp file  : E:\Master courses\SNDP-PROJECT\New_Data\DATA_FINAL_ANT_EXTRA\COD0MGXFIN_20260150000_01D_05M_ORB.SP3
% inp file  : E:\Master courses\SNDP\SNDP-PROJECT\1_DATA\HKWS_OP71_data\IGS0OPSFIN_20260150000_01D_30S_CLK.CLK
% obs start : 2026/01/15 00:00:00.0 GPST (week2401 345600.0s)
% obs end   : 2026/01/15 23:59:30.0 GPST (week2401 431970.0s)
% pos mode  : PPP Static
% solution  : Forward
% elev mask : 15.0 deg
% dynamics  : off
% tidecorr  : off
% tropo opt : Saastamoinen
% ephemeris : Broadcast+SBAS
% navi sys  : GPS
% antenna1  : JAVRINGANT_G5T  NONE  ( 0.0000  0.0000  0.1206)
%
% (lat/lon/height=WGS84/ellipsoidal,Q=1:fix,2:float,3:sbas,4:dgps,5:single,6:ppp,ns=# of satellites)
%  GPST                  latitude(deg) longitude(deg)  height(m)   Q  ns   sdn(m)   sde(m)   sdu(m)  sdne(m)  sdeu(m)  sdun(m) age(s)  ratio
2026/01/15 00:00:00.000   30.531661435  114.357270727    29.0455   6   7   2.5103   2.8164   7.2119  -1.5433   3.2696  -2.6412   0.00    0.0
2026/01/15 00:00:30.000   30.531669611  114.357266514    28.7969   6   7   1.7766   1.9972   5.1117  -1.0935   2.3224  -1.8690   0.00    0.0
2026/01/15 00:01:00.000   30.531671962  114.357266514    29.0891   6   7   1.4502   1.6330   4.1711  -0.8924   1.8987  -1.5222   0.00    0.0
2026/01/15 00:01:30.000   30.531672112  114.357266357    29.1677   6   7   1.2553   1.4157   3.6072  -0.7720   1.6451  -1.3139   0.00    0.0
2026/01/15 00:02:00.000   30.531671114  114.357269384    29.4330   6   7   1.1221   1.2673   3.2207  -0.6896   1.4716  -1.1708   0.00    0.0
2026/01/15 00:02:30.000   30.531670862  114.357269698    28.8783   6   7   1.0237   1.1578   2.9345  -0.6286   1.3433  -1.0647   0.00    0.0
2026/01/15 00:03:00.000   30.531671427  114.357269627    28.6314   6   7   0.9471   1.0727   2.7113  -0.5810   1.2434  -0.9818   0.00    0.0
2026/01/15 00:03:30.000   30.531671451  114.357272042    28.8186   6   7   0.8854   1.0042   2.5309  -0.5426   1.1627  -0.9146   0.00    0.0
2026/01/15 00:04:00.000   30.531671541  114.357272732    28.9525   6   7   0.8342   0.9474   2.3810  -0.5107   1.0958  -0.8588   0.00    0.0
2026/01/15 00:04:30.000   30.531671757  114.357271513    28.8030   6   7   0.7909   0.8994   2.2538  -0.4837   1.0392  -0.8113   0.00    0.0
2026/01/15 00:05:00.000   30.531672692  114.357271709    28.9082   6   7   0.7536   0.8581   2.1441  -0.4603   0.9903  -0.7703   0.00    0.0
2026/01/15 00:05:30.000   30.531672357  114.357272396    29.0999   6   7   0.7210   0.8221   2.0482  -0.4399   0.9477  -0.7344   0.00    0.0
2026/01/15 00:06:00.000   30.531672769  114.357272581    29.1978   6   7   0.6923   0.7903   1.9633  -0.4219   0.9100  -0.7025   0.00    0.0
2026/01/15 00:06:30.000   30.531672472  114.357271855    29.0503   6   7   0.6667   0.7620   1.8874  -0.4058   0.8764  -0.6741   0.00    0.0
2026/01/15 00:07:00.000   30.531672154  114.357271203    29.1022   6   7   0.6437   0.7367   1.8192  -0.3913   0.8462  -0.6484   0.00    0.0
2026/01/15 00:07:30.000   30.531671313  114.357271342    29.3202   6   7   0.6229   0.7137   1.7572  -0.3782   0.8188  -0.6251   0.00    0.0
2026/01/15 00:08:00.000   30.531671180  114.357272271    29.7160   6   8   0.6035   0.6859   1.6771  -0.3694   0.7763  -0.6094   0.00    0.0
2026/01/15 00:08:30.000   30.531671124  114.357272324    29.7632   6   8   0.5858   0.6615   1.6073  -0.3610   0.7399  -0.5943   0.00    0.0
2026/01/15 00:09:00.000   30.531671315  114.357272937    29.6929   6   8   0.5695   0.6397   1.5456  -0.3529   0.7081  -0.5798   0.00    0.0
2026/01/15 00:09:30.000   30.531671241  114.357273675    29.7613   6   8   0.5544   0.6201   1.4905  -0.3453   0.6801  -0.5660   0.00    0.0
2026/01/15 00:10:00.000   30.531671340  114.357273762    29.7621   6   8   0.5405   0.6024   1.4409  -0.3380   0.6552  -0.5528   0.00    0.0
2026/01/15 00:10:30.000   30.531671449  114.357273389    29.5647   6   8   0.5275   0.5862   1.3958  -0.3311   0.6328  -0.5404   0.00    0.0
2026/01/15 00:11:00.000   30.531671465  114.357273371    29.5205   6   8   0.5154   0.5713   1.3545  -0.3246   0.6125  -0.5285   0.00    0.0
2026/01/15 00:11:30.000   30.531671284  114.357274054    29.6545   6   8   0.5041   0.5575   1.3166  -0.3184   0.5941  -0.5172   0.00    0.0
2026/01/15 00:12:00.000   30.531671367  114.357273994    29.5674   6   8   0.4935   0.5448   1.2815  -0.3125   0.5772  -0.5064   0.00    0.0
2026/01/15 00:12:30.000   30.531671367  114.357274351    29.6726   6   8   0.4834   0.5329   1.2489  -0.3069   0.5616  -0.4962   0.00    0.0
2026/01/15 00:13:00.000   30.531671556  114.357273808    29.6881   6   8   0.4740   0.5218   1.2186  -0.3016   0.5472  -0.4864   0.00    0.0
2026/01/15 00:13:30.000   30.531671946  114.357273393    29.5396   6   8   0.4651   0.5115   1.1902  -0.2965   0.5339  -0.4771   0.00    0.0
2026/01/15 00:14:00.000   30.531672094  114.357273060    29.4899   6   8   0.4566   0.5017   1.1636  -0.2917   0.5214  -0.4682   0.00    0.0
2026/01/15 00:14:30.000   30.531672220  114.357273093    29.5162   6   8   0.4486   0.4925   1.1386  -0.2871   0.5098  -0.4596   0.00    0.0
2026/01/15 00:15:00.000   30.531672420  114.357272835    29.4733   6   8   0.4409   0.4838   1.1150  -0.2826   0.4989  -0.4515   0.00    0.0
2026/01/15 00:15:30.000   30.531672623  114.357273021    29.4670   6   8   0.4336   0.4756   1.0926  -0.2784   0.4887  -0.4436   0.00    0.0
2026/01/15 00:16:00.000   30.531672443  114.357272951    29.4461   6   8   0.4267   0.4678   1.0715  -0.2744   0.4790  -0.4361   0.00    0.0
2026/01/15 00:16:30.000   30.531672343  114.357272785    29.4100   6   8   0.4201   0.4604   1.0514  -0.2705   0.4699  -0.4288   0.00    0.0
2026/01/15 00:17:00.000   30.531672362  114.357272487    29.3822   6   8   0.4137   0.4534   1.0323  -0.2668   0.4613  -0.4219   0.00    0.0
2026/01/15 00:17:30.000   30.531672256  114.357272438    29.3613   6   8   0.4077   0.4466   1.0140  -0.2632   0.4531  -0.4152   0.00    0.0
2026/01/15 00:18:00.000   30.531672063  114.357272767    29.3938   6   8   0.4018   0.4402   0.9967  -0.2597   0.4453  -0.4087   0.00    0.0
2026/01/15 00:18:30.000   30.531672329  114.357272659    29.3568   6   8   0.3963   0.4341   0.9800  -0.2564   0.4379  -0.4025   0.00    0.0
2026/01/15 00:19:00.000   30.531672535  114.357272773    29.4016   6   8   0.3909   0.4282   0.9641  -0.2532   0.4309  -0.3965   0.00    0.0
2026/01/15 00:19:30.000   30.531672512  114.357273301    29.4379   6   8   0.3857   0.4226   0.9489  -0.2501   0.4241  -0.3907   0.00    0.0
2026/01/15 00:20:00.000   30.531672578  114.357274032    29.5004   6   8   0.3808   0.4172   0.9342  -0.2471   0.4177  -0.3850   0.00    0.0
2026/01/15 00:20:30.000   30.531672616  114.357274353    29.5914   6   8   0.3760   0.4120   0.9202  -0.2443   0.4116  -0.3796   0.00    0.0
2026/01/15 00:21:00.000   30.531672621  114.357274350    29.6314   6   8   0.3714   0.4070   0.9067  -0.2415   0.4057  -0.3743   0.00    0.0
2026/01/15 00:21:30.000   30.531672656  114.357274578    29.6726   6   8   0.3669   0.4022   0.8937  -0.2388   0.4000  -0.3692   0.00    0.0
2026/01/15 00:22:00.000   30.531672753  114.357274837    29.6181   6   8   0.3626   0.3976   0.8811  -0.2362   0.3946  -0.3643   0.00    0.0
2026/01/15 00:22:30.000   30.531672792  114.357274840    29.5248   6   8   0.3584   0.3932   0.8690  -0.2337   0.3893  -0.3595   0.00    0.0
2026/01/15 00:23:00.000   30.531672975  114.357274988    29.4659   6   8   0.3544   0.3889   0.8573  -0.2312   0.3843  -0.3548   0.00    0.0
2026/01/15 00:23:30.000   30.531672999  114.357274931    29.4434   6   8   0.3505   0.3847   0.8461  -0.2289   0.3795  -0.3503   0.00    0.0
2026/01/15 00:24:00.000   30.531673007  114.357275042    29.4232   6   8   0.3468   0.3807   0.8352  -0.2266   0.3748  -0.3459   0.00    0.0
2026/01/15 00:24:30.000   30.531672902  114.357275031    29.4116   6   8   0.3431   0.3768   0.8249  -0.2243   0.3704  -0.3417   0.00    0.0
2026/01/15 00:25:00.000   30.531672823  114.357275055    29.4615   6   8   0.3396   0.3731   0.8150  -0.2222   0.3662  -0.3376   0.00    0.0
2026/01/15 00:25:30.000   30.531672603  114.357275155    29.5140   6   8   0.3362   0.3695   0.8054  -0.2201   0.3621  -0.3336   0.00    0.0
2026/01/15 00:26:00.000   30.531672893  114.357274536    29.4458   6   9   0.3307   0.3629   0.7900  -0.2139   0.3516  -0.3240   0.00    0.0
2026/01/15 00:26:30.000   30.531673570  114.357273849    29.2944   6   9   0.3255   0.3568   0.7755  -0.2082   0.3419  -0.3151   0.00    0.0
2026/01/15 00:27:00.000   30.531673918  114.357273237    29.1769   6   9   0.3206   0.3510   0.7620  -0.2028   0.3328  -0.3067   0.00    0.0
2026/01/15 00:27:30.000   30.531674589  114.357272503    29.0113   6   9   0.3159   0.3455   0.7491  -0.1977   0.3243  -0.2988   0.00    0.0
2026/01/15 00:28:00.000   30.531674918  114.357272051    28.9508   6   8   0.3119   0.3403   0.7376  -0.1930   0.3164  -0.2907   0.00    0.0
2026/01/15 00:28:30.000   30.531675201  114.357271767    28.9504   6   8   0.3080   0.3353   0.7267  -0.1885   0.3089  -0.2829   0.00    0.0
2026/01/15 00:29:00.000   30.531675457  114.357271319    28.9042   6   8   0.3044   0.3306   0.7164  -0.1842   0.3019  -0.2755   0.00    0.0
2026/01/15 00:29:30.000   30.531675356  114.357271371    28.9322   6   8   0.3009   0.3261   0.7065  -0.1802   0.2953  -0.2686   0.00    0.0
2026/01/15 00:30:00.000   30.531675319  114.357271346    28.9783   6   8   0.2975   0.3219   0.6972  -0.1765   0.2890  -0.2619   0.00    0.0
2026/01/15 00:30:30.000   30.531675548  114.357270821    28.9388   6   8   0.2943   0.3178   0.6882  -0.1729   0.2831  -0.2555   0.00    0.0
2026/01/15 00:31:00.000   30.531675537  114.357270960    28.9761   6   8   0.2913   0.3138   0.6796  -0.1695   0.2774  -0.2495   0.00    0.0
2026/01/15 00:31:30.000   30.531675531  114.357270914    28.9878   6   8   0.2883   0.3101   0.6714  -0.1662   0.2721  -0.2437   0.00    0.0
2026/01/15 00:32:00.000   30.531675684  114.357271203    28.9888   6   8   0.2855   0.3064   0.6635  -0.1631   0.2670  -0.2381   0.00    0.0
2026/01/15 00:32:30.000   30.531675629  114.357271340    29.0042   6   8   0.2827   0.3029   0.6559  -0.1602   0.2621  -0.2328   0.00    0.0
2026/01/15 00:33:00.000   30.531675975  114.357271004    28.9264   6   8   0.2801   0.2996   0.6487  -0.1573   0.2575  -0.2277   0.00    0.0
2026/01/15 00:33:30.000   30.531676166  114.357270726    28.8736   6   8   0.2776   0.2963   0.6416  -0.1546   0.2531  -0.2228   0.00    0.0
2026/01/15 00:34:00.000   30.531676345  114.357270379    28.8413   6   8   0.2751   0.2932   0.6349  -0.1521   0.2489  -0.2180   0.00    0.0
2026/01/15 00:34:30.000   30.531676385  114.357270382    28.8471   6   8   0.2728   0.2902   0.6283  -0.1496   0.2449  -0.2135   0.00    0.0
2026/01/15 00:35:00.000   30.531676384  114.357270320    28.8652   6   8   0.2705   0.2873   0.6220  -0.1472   0.2410  -0.2091   0.00    0.0
2026/01/15 00:35:30.000   30.531676302  114.357270542    28.8869   6   8   0.2682   0.2844   0.6160  -0.1449   0.2373  -0.2049   0.00    0.0
2026/01/15 00:36:00.000   30.531676241  114.357270362    28.8826   6   8   0.2661   0.2817   0.6101  -0.1427   0.2338  -0.2008   0.00    0.0
2026/01/15 00:36:30.000   30.531676509  114.357270155    28.8395   6   8   0.2640   0.2790   0.6043  -0.1406   0.2304  -0.1969   0.00    0.0
2026/01/15 00:37:00.000   30.531676334  114.357270035    28.8756   6   8   0.2620   0.2765   0.5988  -0.1386   0.2271  -0.1931   0.00    0.0
2026/01/15 00:37:30.000   30.531676268  114.357269825    28.8914   6   8   0.2600   0.2740   0.5934  -0.1366   0.2240  -0.1895   0.00    0.0
2026/01/15 00:38:00.000   30.531676284  114.357269651    28.9037   6   8   0.2581   0.2715   0.5882  -0.1348   0.2209  -0.1859   0.00    0.0
2026/01/15 00:38:30.000   30.531676330  114.357269657    28.9220   6   8   0.2562   0.2692   0.5832  -0.1329   0.2180  -0.1825   0.00    0.0
2026/01/15 00:39:00.000   30.531676377  114.357269756    28.9115   6   8   0.2544   0.2669   0.5785  -0.1312   0.2153  -0.1792   0.00    0.0
2026/01/15 00:39:30.000   30.531676491  114.357269750    28.9016   6   8   0.2526   0.2647   0.5740  -0.1295   0.2127  -0.1761   0.00    0.0
2026/01/15 00:40:00.000   30.531676484  114.357269794    28.9110   6   8   0.2509   0.2625   0.5697  -0.1279   0.2102  -0.1730   0.00    0.0
2026/01/15 00:40:30.000   30.531676456  114.357269961    28.9172   6   8   0.2492   0.2604   0.5654  -0.1263   0.2077  -0.1701   0.00    0.0
2026/01/15 00:41:00.000   30.531676418  114.357270099    28.9032   6   8   0.2476   0.2583   0.5613  -0.1247   0.2054  -0.1672   0.00    0.0
2026/01/15 00:41:30.000   30.531676495  114.357270034    28.8941   6   7   0.2462   0.2563   0.5580  -0.1231   0.2029  -0.1653   0.00    0.0
2026/01/15 00:42:00.000   30.531676558  114.357270083    28.8959   6   7   0.2448   0.2544   0.5548  -0.1216   0.2006  -0.1634   0.00    0.0
2026/01/15 00:42:30.000   30.531676664  114.357270145    28.8684   6   7   0.2434   0.2525   0.5517  -0.1201   0.1983  -0.1616   0.00    0.0
2026/01/15 00:43:00.000   30.531676734  114.357270141    28.8586   6   7   0.2421   0.2506   0.5486  -0.1186   0.1960  -0.1598   0.00    0.0
2026/01/15 00:43:30.000   30.531676791  114.357269997    28.8298   6   7   0.2407   0.2488   0.5457  -0.1172   0.1939  -0.1580   0.00    0.0
2026/01/15 00:44:00.000   30.531676897  114.357270074    28.8220   6   7   0.2394   0.2470   0.5427  -0.1159   0.1918  -0.1564   0.00    0.0
2026/01/15 00:44:30.000   30.531676982  114.357270084    28.8120   6   7   0.2382   0.2453   0.5399  -0.1145   0.1897  -0.1547   0.00    0.0
2026/01/15 00:45:00.000   30.531677104  114.357270013    28.8048   6   7   0.2369   0.2436   0.5370  -0.1132   0.1877  -0.1531   0.00    0.0
2026/01/15 00:45:30.000   30.531677139  114.357269946    28.7999   6   7   0.2357   0.2420   0.5343  -0.1120   0.1858  -0.1516   0.00    0.0
2026/01/15 00:46:00.000   30.531677151  114.357269833    28.7924   6   7   0.2345   0.2403   0.5316  -0.1107   0.1840  -0.1501   0.00    0.0
2026/01/15 00:46:30.000   30.531677186  114.357269877    28.8001   6   7   0.2333   0.2388   0.5289  -0.1095   0.1822  -0.1486   0.00    0.0
2026/01/15 00:47:00.000   30.531677236  114.357269980    28.8147   6   7   0.2321   0.2372   0.5263  -0.1084   0.1804  -0.1472   0.00    0.0
2026/01/15 00:47:30.000   30.531677305  114.357269829    28.8013   6   7   0.2310   0.2357   0.5237  -0.1072   0.1787  -0.1458   0.00    0.0
2026/01/15 00:48:00.000   30.531677340  114.357269754    28.7958   6   7   0.2298   0.2342   0.5212  -0.1061   0.1771  -0.1445   0.00    0.0
2026/01/15 00:48:30.000   30.531677416  114.357269760    28.7934   6   7   0.2287   0.2327   0.5187  -0.1050   0.1755  -0.1432   0.00    0.0
2026/01/15 00:49:00.000   30.531677381  114.357269928    28.8279   6   7   0.2276   0.2313   0.5163  -0.1040   0.1739  -0.1419   0.00    0.0
2026/01/15 00:49:30.000   30.531677457  114.357269984    28.8427   6   7   0.2265   0.2299   0.5139  -0.1030   0.1724  -0.1407   0.00    0.0
2026/01/15 00:50:00.000   30.531677561  114.357269973    28.8388   6   7   0.2255   0.2285   0.5115  -0.1020   0.1709  -0.1394   0.00    0.0
2026/01/15 00:50:30.000   30.531677560  114.357270046    28.8299   6   7   0.2244   0.2272   0.5092  -0.1010   0.1695  -0.1383   0.00    0.0
2026/01/15 00:51:00.000   30.531677602  114.357270074    28.8391   6   7   0.2234   0.2258   0.5069  -0.1000   0.1681  -0.1371   0.00    0.0
2026/01/15 00:51:30.000   30.531677552  114.357270121    28.8517   6   7   0.2224   0.2245   0.5047  -0.0991   0.1667  -0.1360   0.00    0.0
2026/01/15 00:52:00.000   30.531677570  114.357270171    28.8480   6   7   0.2214   0.2232   0.5024  -0.0982   0.1654  -0.1349   0.00    0.0
2026/01/15 00:52:30.000   30.531677576  114.357270237    28.8409   6   7   0.2204   0.2220   0.5002  -0.0973   0.1641  -0.1339   0.00    0.0
2026/01/15 00:53:00.000   30.531677569  114.357270104    28.8300   6   7   0.2194   0.2207   0.4981  -0.0965   0.1629  -0.1328   0.00    0.0
2026/01/15 00:53:30.000   30.531677588  114.357269936    28.8276   6   7   0.2184   0.2195   0.4959  -0.0956   0.1617  -0.1318   0.00    0.0
2026/01/15 00:54:00.000   30.531677653  114.357269990    28.8018   6   7   0.2175   0.2183   0.4938  -0.0948   0.1605  -0.1308   0.00    0.0
2026/01/15 00:54:30.000   30.531677643  114.357270118    28.7968   6   7   0.2165   0.2172   0.4918  -0.0940   0.1594  -0.1299   0.00    0.0
2026/01/15 00:55:00.000   30.531677643  114.357270114    28.7876   6   7   0.2156   0.2160   0.4897  -0.0932   0.1582  -0.1290   0.00    0.0
2026/01/15 00:55:30.000   30.531677708  114.357270065    28.7982   6   7   0.2147   0.2149   0.4877  -0.0924   0.1571  -0.1281   0.00    0.0
2026/01/15 00:56:00.000   30.531677737  114.357270090    28.7849   6   7   0.2138   0.2137   0.4857  -0.0917   0.1561  -0.1272   0.00    0.0
2026/01/15 00:56:30.000   30.531677848  114.357270117    28.7616   6   7   0.2129   0.2126   0.4837  -0.0910   0.1550  -0.1263   0.00    0.0
2026/01/15 00:57:00.000   30.531677934  114.357270117    28.7478   6   7   0.2120   0.2116   0.4817  -0.0903   0.1540  -0.1255   0.00    0.0
2026/01/15 00:57:30.000   30.531677920  114.357270224    28.7557   6   7   0.2112   0.2105   0.4798  -0.0896   0.1531  -0.1247   0.00    0.0
2026/01/15 00:58:00.000   30.531678004  114.357270340    28.7575   6   7   0.2103   0.2094   0.4779  -0.0889   0.1521  -0.1239   0.00    0.0
2026/01/15 00:58:30.000   30.531678073  114.357270332    28.7492   6   7   0.2094   0.2084   0.4760  -0.0882   0.1512  -0.1231   0.00    0.0
2026/01/15 00:59:00.000   30.531678150  114.357270362    28.7449   6   7   0.2086   0.2074   0.4741  -0.0876   0.1502  -0.1224   0.00    0.0
2026/01/15 00:59:30.000   30.531678115  114.357270421    28.7511   6   7   0.2078   0.2064   0.4723  -0.0869   0.1494  -0.1217   0.00    0.0
2026/01/15 01:00:00.000   30.531678180  114.357270471    28.7289   6   7   0.2070   0.2054   0.4704  -0.0863   0.1485  -0.1210   0.00    0.0
2026/01/15 01:00:30.000   30.531678165  114.357270405    28.7138   6   7   0.2061   0.2044   0.4686  -0.0857   0.1476  -0.1203   0.00    0.0
2026/01/15 01:01:00.000   30.531678191  114.357270316    28.7037   6   7   0.2053   0.2034   0.4668  -0.0851   0.1468  -0.1196   0.00    0.0
2026/01/15 01:01:30.000   30.531678248  114.357270258    28.6898   6   7   0.2045   0.2025   0.4650  -0.0845   0.1460  -0.1190   0.00    0.0
2026/01/15 01:02:00.000   30.531678249  114.357270288    28.6721   6   7   0.2038   0.2016   0.4633  -0.0839   0.1452  -0.1183   0.00    0.0
2026/01/15 01:02:30.000   30.531678188  114.357270444    28.6778   6   7   0.2030   0.2006   0.4615  -0.0834   0.1444  -0.1177   0.00    0.0
2026/01/15 01:03:00.000   30.531678169  114.357270425    28.6820   6   7   0.2022   0.1997   0.4598  -0.0828   0.1437  -0.1171   0.00    0.0
2026/01/15 01:03:30.000   30.531678196  114.357270475    28.6736   6   7   0.2015   0.1988   0.4581  -0.0823   0.1430  -0.1165   0.00    0.0
2026/01/15 01:04:00.000   30.531678203  114.357270447    28.6627   6   7   0.2007   0.1979   0.4564  -0.0818   0.1422  -0.1160   0.00    0.0
2026/01/15 01:04:30.000   30.531678205  114.357270369    28.6609   6   7   0.2000   0.1971   0.4547  -0.0813   0.1415  -0.1154   0.00    0.0
2026/01/15 01:05:00.000   30.531678203  114.357270368    28.6589   6   7   0.1992   0.1962   0.4530  -0.0807   0.1409  -0.1149   0.00    0.0
2026/01/15 01:05:30.000   30.531678198  114.357270418    28.6566   6   7   0.1985   0.1954   0.4513  -0.0803   0.1402  -0.1144   0.00    0.0
2026/01/15 01:06:00.000   30.531678217  114.357270397    28.6418   6   7   0.1978   0.1945   0.4497  -0.0798   0.1395  -0.1139   0.00    0.0
2026/01/15 01:06:30.000   30.531678262  114.357270423    28.6360   6   7   0.1971   0.1937   0.4480  -0.0793   0.1389  -0.1134   0.00    0.0
2026/01/15 01:07:00.000   30.531678262  114.357270381    28.6345   6   7   0.1964   0.1929   0.4464  -0.0788   0.1382  -0.1130   0.00    0.0
2026/01/15 01:07:30.000   30.531678287  114.357270406    28.6147   6   7   0.1957   0.1921   0.4448  -0.0784   0.1376  -0.1125   0.00    0.0
2026/01/15 01:08:00.000   30.531678293  114.357270351    28.6105   6   7   0.1950   0.1913   0.4432  -0.0779   0.1370  -0.1121   0.00    0.0
2026/01/15 01:08:30.000   30.531678294  114.357270271    28.5968   6   7   0.1943   0.1905   0.4416  -0.0775   0.1364  -0.1117   0.00    0.0
2026/01/15 01:09:00.000   30.531678302  114.357270279    28.6014   6   7   0.1936   0.1897   0.4400  -0.0771   0.1358  -0.1112   0.00    0.0
2026/01/15 01:09:30.000   30.531678302  114.357270327    28.5932   6   7   0.1929   0.1889   0.4385  -0.0767   0.1353  -0.1108   0.00    0.0
2026/01/15 01:10:00.000   30.531678300  114.357270229    28.5754   6   7   0.1923   0.1881   0.4369  -0.0763   0.1347  -0.1105   0.00    0.0
2026/01/15 01:10:30.000   30.531678286  114.357270230    28.5930   6   7   0.1916   0.1874   0.4353  -0.0759   0.1342  -0.1101   0.00    0.0
2026/01/15 01:11:00.000   30.531678280  114.357270228    28.5868   6   7   0.1910   0.1866   0.4338  -0.0755   0.1336  -0.1097   0.00    0.0
2026/01/15 01:11:30.000   30.531678296  114.357270230    28.5721   6   7   0.1903   0.1859   0.4323  -0.0751   0.1331  -0.1094   0.00    0.0
2026/01/15 01:12:00.000   30.531678299  114.357270227    28.5652   6   7   0.1897   0.1852   0.4307  -0.0747   0.1326  -0.1091   0.00    0.0
2026/01/15 01:12:30.000   30.531678301  114.357270230    28.5578   6   7   0.1891   0.1845   0.4292  -0.0744   0.1321  -0.1087   0.00    0.0
2026/01/15 01:13:00.000   30.531678249  114.357270339    28.5723   6   7   0.1884   0.1837   0.4277  -0.0740   0.1316  -0.1084   0.00    0.0
2026/01/15 01:13:30.000   30.531678257  114.357270350    28.5687   6   7   0.1878   0.1830   0.4262  -0.0736   0.1311  -0.1081   0.00    0.0
2026/01/15 01:14:00.000   30.531678197  114.357270426    28.5646   6   7   0.1872   0.1823   0.4247  -0.0733   0.1306  -0.1079   0.00    0.0
2026/01/15 01:14:30.000   30.531678206  114.357270439    28.5586   6   7   0.1866   0.1817   0.4233  -0.0730   0.1301  -0.1076   0.00    0.0
2026/01/15 01:15:00.000   30.531678200  114.357270439    28.5538   6   7   0.1860   0.1810   0.4218  -0.0726   0.1296  -0.1073   0.00    0.0
2026/01/15 01:15:30.000   30.531678151  114.357270417    28.5487   6   7   0.1854   0.1803   0.4203  -0.0723   0.1292  -0.1071   0.00    0.0
2026/01/15 01:16:00.000   30.531678160  114.357270435    28.5441   6   7   0.1848   0.1796   0.4189  -0.0720   0.1287  -0.1068   0.00    0.0
2026/01/15 01:16:30.000   30.531678115  114.357270425    28.5390   6   7   0.1842   0.1790   0.4174  -0.0717   0.1283  -0.1066   0.00    0.0
2026/01/15 01:17:00.000   30.531678097  114.357270402    28.5201   6   7   0.1836   0.1783   0.4160  -0.0714   0.1278  -0.1063   0.00    0.0
2026/01/15 01:17:30.000   30.531678067  114.357270426    28.5039   6   7   0.1830   0.1777   0.4145  -0.0711   0.1274  -0.1061   0.00    0.0
2026/01/15 01:18:00.000   30.531678028  114.357270545    28.5023   6   7   0.1824   0.1770   0.4131  -0.0708   0.1269  -0.1059   0.00    0.0
2026/01/15 01:18:30.000   30.531678031  114.357270521    28.5027   6   7   0.1819   0.1764   0.4117  -0.0705   0.1265  -0.1057   0.00    0.0
2026/01/15 01:19:00.000   30.531678024  114.357270569    28.5085   6   7   0.1813   0.1758   0.4102  -0.0702   0.1261  -0.1055   0.00    0.0
2026/01/15 01:19:30.000   30.531678027  114.357270595    28.4987   6   7   0.1807   0.1752   0.4088  -0.0699   0.1257  -0.1054   0.00    0.0
2026/01/15 01:20:00.000   30.531678007  114.357270589    28.5017   6   7   0.1802   0.1745   0.4074  -0.0696   0.1253  -0.1052   0.00    0.0
2026/01/15 01:20:30.000   30.531678013  114.357270633    28.5001   6   7   0.1796   0.1739   0.4060  -0.0694   0.1248  -0.1050   0.00    0.0
2026/01/15 01:21:00.000   30.531678048  114.357270756    28.4871   6   7   0.1791   0.1733   0.4046  -0.0691   0.1244  -0.1049   0.00    0.0
2026/01/15 01:21:30.000   30.531678000  114.357270833    28.4825   6   7   0.1785   0.1727   0.4033  -0.0688   0.1240  -0.1047   0.00    0.0
2026/01/15 01:22:00.000   30.531677976  114.357270862    28.4836   6   7   0.1780   0.1721   0.4019  -0.0686   0.1236  -0.1046   0.00    0.0
2026/01/15 01:22:30.000   30.531678002  114.357270926    28.4706   6   7   0.1775   0.1715   0.4005  -0.0683   0.1233  -0.1044   0.00    0.0
2026/01/15 01:23:00.000   30.531678046  114.357270975    28.4600   6   7   0.1769   0.1710   0.3991  -0.0681   0.1229  -0.1043   0.00    0.0
2026/01/15 01:23:30.000   30.531677984  114.357270981    28.4584   6   7   0.1764   0.1704   0.3978  -0.0679   0.1225  -0.1042   0.00    0.0
2026/01/15 01:24:00.000   30.531677992  114.357270905    28.4400   6   7   0.1759   0.1698   0.3964  -0.0676   0.1221  -0.1041   0.00    0.0
2026/01/15 01:24:30.000   30.531678005  114.357270784    28.4195   6   7   0.1754   0.1693   0.3951  -0.0674   0.1217  -0.1040   0.00    0.0
2026/01/15 01:25:00.000   30.531677997  114.357270811    28.4169   6   7   0.1749   0.1687   0.3937  -0.0672   0.1213  -0.1039   0.00    0.0
2026/01/15 01:25:30.000   30.531677982  114.357270792    28.4013   6   7   0.1744   0.1681   0.3924  -0.0669   0.1210  -0.1038   0.00    0.0
2026/01/15 01:26:00.000   30.531677952  114.357270761    28.3994   6   7   0.1738   0.1676   0.3910  -0.0667   0.1206  -0.1037   0.00    0.0
2026/01/15 01:26:30.000   30.531677945  114.357270763    28.3889   6   7   0.1733   0.1670   0.3897  -0.0665   0.1202  -0.1036   0.00    0.0
2026/01/15 01:27:00.000   30.531677950  114.357270730    28.3866   6   7   0.1728   0.1665   0.3884  -0.0663   0.1199  -0.1035   0.00    0.0
2026/01/15 01:27:30.000   30.531677925  114.357270750    28.3926   6   7   0.1724   0.1660   0.3870  -0.0661   0.1195  -0.1034   0.00    0.0
2026/01/15 01:28:00.000   30.531677893  114.357270672    28.3874   6   7   0.1719   0.1654   0.3857  -0.0659   0.1191  -0.1034   0.00    0.0
2026/01/15 01:28:30.000   30.531677848  114.357270735    28.3881   6   7   0.1714   0.1649   0.3844  -0.0657   0.1188  -0.1033   0.00    0.0
2026/01/15 01:29:00.000   30.531677835  114.357270726    28.3892   6   7   0.1709   0.1644   0.3831  -0.0655   0.1184  -0.1032   0.00    0.0
2026/01/15 01:29:30.000   30.531677845  114.357270714    28.3911   6   7   0.1704   0.1639   0.3818  -0.0653   0.1181  -0.1032   0.00    0.0
2026/01/15 01:30:00.000   30.531677834  114.357270743    28.3856   6   7   0.1699   0.1633   0.3805  -0.0651   0.1177  -0.1031   0.00    0.0
2026/01/15 01:30:30.000   30.531677851  114.357270783    28.3872   6   7   0.1695   0.1628   0.3792  -0.0649   0.1174  -0.1031   0.00    0.0
2026/01/15 01:31:00.000   30.531677866  114.357270758    28.3836   6   7   0.1690   0.1623   0.3779  -0.0647   0.1170  -0.1030   0.00    0.0
2026/01/15 01:31:30.000   30.531677881  114.357270757    28.3770   6   7   0.1685   0.1618   0.3766  -0.0646   0.1167  -0.1030   0.00    0.0
2026/01/15 01:32:00.000   30.531677837  114.357270703    28.3616   6   7   0.1681   0.1613   0.3754  -0.0644   0.1163  -0.1029   0.00    0.0
2026/01/15 01:32:30.000   30.531677817  114.357270740    28.3615   6   7   0.1676   0.1608   0.3741  -0.0642   0.1160  -0.1029   0.00    0.0
2026/01/15 01:33:00.000   30.531677817  114.357270689    28.3325   6   7   0.1672   0.1603   0.3728  -0.0640   0.1156  -0.1029   0.00    0.0
2026/01/15 01:33:30.000   30.531677801  114.357270724    28.3186   6   7   0.1667   0.1599   0.3716  -0.0639   0.1153  -0.1029   0.00    0.0
2026/01/15 01:34:00.000   30.531677789  114.357270712    28.3156   6   7   0.1663   0.1594   0.3703  -0.0637   0.1149  -0.1028   0.00    0.0
2026/01/15 01:34:30.000   30.531677803  114.357270716    28.3020   6   7   0.1658   0.1589   0.3691  -0.0635   0.1146  -0.1028   0.00    0.0
2026/01/15 01:35:00.000   30.531677743  114.357270631    28.2839   6   7   0.1654   0.1584   0.3678  -0.0634   0.1142  -0.1028   0.00    0.0
2026/01/15 01:35:30.000   30.531677732  114.357270614    28.2813   6   7   0.1649   0.1579   0.3666  -0.0632   0.1139  -0.1028   0.00    0.0
2026/01/15 01:36:00.000   30.531677713  114.357270624    28.2779   6   8   0.1644   0.1575   0.3652  -0.0631   0.1135  -0.1031   0.00    0.0
2026/01/15 01:36:30.000   30.531677655  114.357270594    28.2687   6   8   0.1639   0.1570   0.3638  -0.0630   0.1131  -0.1034   0.00    0.0
2026/01/15 01:37:00.000   30.531677604  114.357270565    28.2675   6   8   0.1634   0.1565   0.3624  -0.0629   0.1127  -0.1036   0.00    0.0
2026/01/15 01:37:30.000   30.531677546  114.357270506    28.2417   6   8   0.1629   0.1561   0.3610  -0.0628   0.1123  -0.1039   0.00    0.0
2026/01/15 01:38:00.000   30.531677479  114.357270446    28.2210   6   8   0.1623   0.1556   0.3596  -0.0627   0.1119  -0.1042   0.00    0.0
2026/01/15 01:38:30.000   30.531677427  114.357270421    28.2187   6   8   0.1618   0.1552   0.3583  -0.0626   0.1115  -0.1044   0.00    0.0
2026/01/15 01:39:00.000   30.531677353  114.357270429    28.2054   6   8   0.1613   0.1547   0.3569  -0.0625   0.1111  -0.1046   0.00    0.0
2026/01/15 01:39:30.000   30.531677225  114.357270499    28.2050   6   9   0.1607   0.1541   0.3553  -0.0621   0.1103  -0.1045   0.00    0.0
2026/01/15 01:40:00.000   30.531677262  114.357270440    28.1828   6   9   0.1601   0.1535   0.3537  -0.0617   0.1095  -0.1043   0.00    0.0
2026/01/15 01:40:30.000   30.531677239  114.357270374    28.1608   6   9   0.1595   0.1530   0.3521  -0.0613   0.1088  -0.1041   0.00    0.0
2026/01/15 01:41:00.000   30.531677291  114.357270319    28.1435   6   9   0.1589   0.1524   0.3505  -0.0609   0.1080  -0.1039   0.00    0.0
2026/01/15 01:41:30.000   30.531677314  114.357270202    28.1208   6   9   0.1583   0.1519   0.3490  -0.0605   0.1072  -0.1038   0.00    0.0
2026/01/15 01:42:00.000   30.531677333  114.357270186    28.1240   6   9   0.1577   0.1513   0.3474  -0.0601   0.1065  -0.1036   0.00    0.0
2026/01/15 01:42:30.000   30.531677316  114.357270125    28.1008   6   9   0.1571   0.1508   0.3459  -0.0597   0.1057  -0.1035   0.00    0.0
2026/01/15 01:43:00.000   30.531677331  114.357269979    28.0718   6   9   0.1565   0.1502   0.3444  -0.0593   0.1050  -0.1033   0.00    0.0
2026/01/15 01:43:30.000   30.531677383  114.357269888    28.0469   6   9   0.1560   0.1497   0.3429  -0.0589   0.1043  -0.1032   0.00    0.0
2026/01/15 01:44:00.000   30.531677393  114.357269872    28.0379   6   9   0.1554   0.1491   0.3415  -0.0586   0.1036  -0.1030   0.00    0.0
2026/01/15 01:44:30.000   30.531677412  114.357269845    28.0339   6   9   0.1548   0.1486   0.3400  -0.0582   0.1029  -0.1029   0.00    0.0
2026/01/15 01:45:00.000   30.531677437  114.357269804    28.0270   6   9   0.1543   0.1481   0.3386  -0.0579   0.1022  -0.1028   0.00    0.0
2026/01/15 01:45:30.000   30.531677447  114.357269783    28.0270   6   9   0.1537   0.1476   0.3372  -0.0575   0.1015  -0.1027   0.00    0.0
2026/01/15 01:46:00.000   30.531677396  114.357269703    28.0059   6   9   0.1532   0.1471   0.3358  -0.0572   0.1009  -0.1025   0.00    0.0
2026/01/15 01:46:30.000   30.531677428  114.357269651    27.9766   6   9   0.1526   0.1466   0.3344  -0.0568   0.1002  -0.1024   0.00    0.0
2026/01/15 01:47:00.000   30.531677443  114.357269601    27.9557   6   9   0.1521   0.1461   0.3331  -0.0565   0.0995  -0.1023   0.00    0.0
2026/01/15 01:47:30.000   30.531677432  114.357269495    27.9359   6   9   0.1515   0.1456   0.3317  -0.0561   0.0989  -0.1022   0.00    0.0
2026/01/15 01:48:00.000   30.531677451  114.357269430    27.9341   6   9   0.1510   0.1451   0.3304  -0.0558   0.0983  -0.1021   0.00    0.0
2026/01/15 01:48:30.000   30.531677534  114.357269398    27.9327   6   8   0.1506   0.1446   0.3293  -0.0555   0.0976  -0.1023   0.00    0.0
2026/01/15 01:49:00.000   30.531677533  114.357269384    27.9323   6   8   0.1501   0.1442   0.3282  -0.0552   0.0970  -0.1025   0.00    0.0
2026/01/15 01:49:30.000   30.531677547  114.357269418    27.9376   6   8   0.1497   0.1437   0.3271  -0.0549   0.0964  -0.1026   0.00    0.0
2026/01/15 01:50:00.000   30.531677549  114.357269385    27.9243   6   8   0.1493   0.1433   0.3261  -0.0547   0.0958  -0.1028   0.00    0.0
2026/01/15 01:50:30.000   30.531677594  114.357269339    27.9182   6   8   0.1489   0.1429   0.3250  -0.0544   0.0951  -0.1030   0.00    0.0
2026/01/15 01:51:00.000   30.531677641  114.357269318    27.9198   6   8   0.1484   0.1424   0.3239  -0.0541   0.0945  -0.1031   0.00    0.0
2026/01/15 01:51:30.000   30.531677703  114.357269290    27.9144   6   8   0.1480   0.1420   0.3229  -0.0538   0.0940  -0.1033   0.00    0.0
2026/01/15 01:52:00.000   30.531677703  114.357269259    27.9078   6   8   0.1476   0.1416   0.3219  -0.0536   0.0934  -0.1035   0.00    0.0
2026/01/15 01:52:30.000   30.531677700  114.357269242    27.8991   6   8   0.1472   0.1411   0.3209  -0.0533   0.0928  -0.1036   0.00    0.0
2026/01/15 01:53:00.000   30.531677694  114.357269227    27.8868   6   8   0.1468   0.1407   0.3199  -0.0531   0.0922  -0.1038   0.00    0.0
2026/01/15 01:53:30.000   30.531677729  114.357269212    27.8760   6   8   0.1464   0.1403   0.3189  -0.0528   0.0917  -0.1040   0.00    0.0
2026/01/15 01:54:00.000   30.531677742  114.357269255    27.8709   6   8   0.1460   0.1399   0.3179  -0.0526   0.0911  -0.1041   0.00    0.0
2026/01/15 01:54:30.000   30.531677787  114.357269275    27.8711   6   8   0.1456   0.1395   0.3169  -0.0523   0.0906  -0.1043   0.00    0.0
2026/01/15 01:55:00.000   30.531677809  114.357269260    27.8582   6   8   0.1452   0.1391   0.3160  -0.0521   0.0901  -0.1044   0.00    0.0
2026/01/15 01:55:30.000   30.531677808  114.357269249    27.8452   6   8   0.1448   0.1387   0.3150  -0.0518   0.0895  -0.1046   0.00    0.0
2026/01/15 01:56:00.000   30.531677828  114.357269207    27.8241   6   8   0.1445   0.1383   0.3141  -0.0516   0.0890  -0.1047   0.00    0.0
2026/01/15 01:56:30.000   30.531677859  114.357269178    27.8138   6   8   0.1441   0.1379   0.3131  -0.0514   0.0885  -0.1048   0.00    0.0
2026/01/15 01:57:00.000   30.531677890  114.357269158    27.8011   6   8   0.1437   0.1375   0.3122  -0.0511   0.0880  -0.1050   0.00    0.0
2026/01/15 01:57:30.000   30.531677938  114.357269135    27.7896   6   8   0.1433   0.1371   0.3113  -0.0509   0.0875  -0.1051   0.00    0.0
2026/01/15 01:58:00.000   30.531677934  114.357269124    27.7758   6   8   0.1430   0.1367   0.3104  -0.0507   0.0870  -0.1053   0.00    0.0
2026/01/15 01:58:30.000   30.531677921  114.357269096    27.7618   6   8   0.1426   0.1363   0.3095  -0.0505   0.0865  -0.1054   0.00    0.0
2026/01/15 01:59:00.000   30.531677939  114.357269108    27.7579   6   8   0.1422   0.1359   0.3086  -0.0503   0.0860  -0.1055   0.00    0.0
2026/01/15 01:59:30.000   30.531677983  114.357269067    27.7429   6   8   0.1419   0.1355   0.3077  -0.0501   0.0856  -0.1056   0.00    0.0
2026/01/15 02:00:00.000   30.531677972  114.357269105    27.7337   6   8   0.1416   0.1352   0.3070  -0.0498   0.0851  -0.1058   0.00    0.0
2026/01/15 02:00:30.000   30.531677953  114.357269102    27.7201   6   8   0.1412   0.1348   0.3062  -0.0496   0.0846  -0.1059   0.00    0.0
2026/01/15 02:01:00.000   30.531677935  114.357269121    27.7130   6   8   0.1409   0.1345   0.3057  -0.0494   0.0841  -0.1059   0.00    0.0
2026/01/15 02:01:30.000   30.531677924  114.357269087    27.7013   6   8   0.1406   0.1341   0.3051  -0.0491   0.0837  -0.1059   0.00    0.0
2026/01/15 02:02:00.000   30.531677934  114.357269097    27.6925   6   8   0.1402   0.1338   0.3046  -0.0489   0.0833  -0.1060   0.00    0.0
2026/01/15 02:02:30.000   30.531677932  114.357269108    27.6799   6   8   0.1399   0.1334   0.3040  -0.0487   0.0829  -0.1060   0.00    0.0
2026/01/15 02:03:00.000   30.531677951  114.357269096    27.6729   6   8   0.1396   0.1331   0.3035  -0.0485   0.0825  -0.1060   0.00    0.0
2026/01/15 02:03:30.000   30.531677920  114.357269156    27.6690   6   8   0.1393   0.1327   0.3030  -0.0483   0.0822  -0.1060   0.00    0.0
2026/01/15 02:04:00.000   30.531677906  114.357269164    27.6647   6   8   0.1390   0.1324   0.3025  -0.0480   0.0818  -0.1061   0.00    0.0
2026/01/15 02:04:30.000   30.531677880  114.357269144    27.6546   6   8   0.1387   0.1321   0.3019  -0.0478   0.0814  -0.1061   0.00    0.0
2026/01/15 02:05:00.000   30.531677816  114.357269166    27.6454   6   8   0.1384   0.1317   0.3014  -0.0476   0.0810  -0.1061   0.00    0.0
2026/01/15 02:05:30.000   30.531677772  114.357269242    27.6393   6   8   0.1380   0.1314   0.3009  -0.0474   0.0807  -0.1062   0.00    0.0
2026/01/15 02:06:00.000   30.531677704  114.357269244    27.6151   6   8   0.1377   0.1311   0.3004  -0.0472   0.0803  -0.1062   0.00    0.0
2026/01/15 02:06:30.000   30.531677706  114.357269235    27.6101   6   8   0.1374   0.1308   0.2999  -0.0470   0.0799  -0.1062   0.00    0.0
2026/01/15 02:07:00.000   30.531677686  114.357269242    27.5977   6   8   0.1371   0.1304   0.2994  -0.0468   0.0796  -0.1063   0.00    0.0
2026/01/15 02:07:30.000   30.531677665  114.357269218    27.5879   6   8   0.1368   0.1301   0.2989  -0.0467   0.0793  -0.1063   0.00    0.0
2026/01/15 02:08:00.000   30.531677668  114.357269169    27.5745   6   7   0.1366   0.1298   0.2985  -0.0465   0.0789  -0.1062   0.00    0.0
2026/01/15 02:08:30.000   30.531677678  114.357269191    27.5704   6   7   0.1363   0.1295   0.2981  -0.0464   0.0785  -0.1062   0.00    0.0
2026/01/15 02:09:00.000   30.531677693  114.357269151    27.5561   6   7   0.1361   0.1292   0.2976  -0.0462   0.0781  -0.1061   0.00    0.0
2026/01/15 02:09:30.000   30.531677685  114.357269158    27.5482   6   7   0.1358   0.1289   0.2972  -0.0461   0.0777  -0.1061   0.00    0.0
2026/01/15 02:10:00.000   30.531677711  114.357269164    27.5457   6   7   0.1356   0.1286   0.2968  -0.0460   0.0773  -0.1060   0.00    0.0
2026/01/15 02:10:30.000   30.531677716  114.357269125    27.5358   6   7   0.1353   0.1283   0.2964  -0.0459   0.0770  -0.1060   0.00    0.0
2026/01/15 02:11:00.000   30.531677716  114.357269143    27.5312   6   7   0.1351   0.1280   0.2960  -0.0457   0.0766  -0.1060   0.00    0.0
2026/01/15 02:11:30.000   30.531677725  114.357269163    27.5289   6   7   0.1348   0.1277   0.2956  -0.0456   0.0762  -0.1059   0.00    0.0
2026/01/15 02:12:00.000   30.531677725  114.357269107    27.5170   6   7   0.1345   0.1274   0.2951  -0.0455   0.0759  -0.1059   0.00    0.0
2026/01/15 02:12:30.000   30.531677734  114.357269075    27.5118   6   7   0.1343   0.1271   0.2947  -0.0454   0.0756  -0.1058   0.00    0.0
2026/01/15 02:13:00.000   30.531677744  114.357269058    27.5050   6   7   0.1340   0.1268   0.2943  -0.0452   0.0752  -0.1058   0.00    0.0
2026/01/15 02:13:30.000   30.531677738  114.357269086    27.5040   6   7   0.1338   0.1265   0.2939  -0.0451   0.0749  -0.1057   0.00    0.0
2026/01/15 02:14:00.000   30.531677717  114.357269118    27.5021   6   7   0.1335   0.1263   0.2935  -0.0450   0.0745  -0.1057   0.00    0.0
2026/01/15 02:14:30.000   30.531677733  114.357269125    27.4972   6   7   0.1333   0.1260   0.2931  -0.0449   0.0742  -0.1056   0.00    0.0
2026/01/15 02:15:00.000   30.531677757  114.357269136    27.4949   6   7   0.1331   0.1257   0.2928  -0.0448   0.0739  -0.1056   0.00    0.0
2026/01/15 02:15:30.000   30.531677801  114.357269170    27.4922   6   7   0.1328   0.1254   0.2924  -0.0447   0.0736  -0.1056   0.00    0.0
2026/01/15 02:16:00.000   30.531677803  114.357269155    27.4869   6   7   0.1326   0.1251   0.2920  -0.0446   0.0733  -0.1055   0.00    0.0
2026/01/15 02:16:30.000   30.531677816  114.357269113    27.4769   6   7   0.1323   0.1249   0.2916  -0.0445   0.0730  -0.1055   0.00    0.0
2026/01/15 02:17:00.000   30.531677838  114.357269090    27.4657   6   7   0.1321   0.1246   0.2912  -0.0443   0.0726  -0.1054   0.00    0.0
2026/01/15 02:17:30.000   30.531677845  114.357269121    27.4646   6   7   0.1318   0.1243   0.2908  -0.0442   0.0724  -0.1054   0.00    0.0
2026/01/15 02:18:00.000   30.531677859  114.357269143    27.4622   6   7   0.1316   0.1240   0.2904  -0.0441   0.0721  -0.1053   0.00    0.0
2026/01/15 02:18:30.000   30.531677885  114.357269127    27.4579   6   7   0.1314   0.1238   0.2900  -0.0440   0.0718  -0.1053   0.00    0.0
2026/01/15 02:19:00.000   30.531677927  114.357269122    27.4543   6   7   0.1311   0.1235   0.2897  -0.0439   0.0715  -0.1053   0.00    0.0
2026/01/15 02:19:30.000   30.531677963  114.357269105    27.4488   6   7   0.1309   0.1232   0.2893  -0.0438   0.0712  -0.1052   0.00    0.0
2026/01/15 02:20:00.000   30.531677983  114.357269111    27.4447   6   7   0.1306   0.1230   0.2889  -0.0437   0.0709  -0.1052   0.00    0.0
2026/01/15 02:20:30.000   30.531678004  114.357269097    27.4367   6   7   0.1304   0.1227   0.2885  -0.0436   0.0707  -0.1051   0.00    0.0
2026/01/15 02:21:00.000   30.531678022  114.357269141    27.4350   6   7   0.1302   0.1225   0.2882  -0.0435   0.0704  -0.1051   0.00    0.0
2026/01/15 02:21:30.000   30.531678002  114.357269116    27.4265   6   7   0.1299   0.1222   0.2878  -0.0434   0.0701  -0.1050   0.00    0.0
2026/01/15 02:22:00.000   30.531678003  114.357269150    27.4212   6   7   0.1297   0.1219   0.2874  -0.0433   0.0699  -0.1050   0.00    0.0
2026/01/15 02:22:30.000   30.531678008  114.357269150    27.4129   6   7   0.1295   0.1217   0.2870  -0.0433   0.0696  -0.1050   0.00    0.0
2026/01/15 02:23:00.000   30.531678010  114.357269158    27.4071   6   7   0.1292   0.1214   0.2867  -0.0432   0.0694  -0.1049   0.00    0.0
2026/01/15 02:23:30.000   30.531677981  114.357269129    27.3976   6   7   0.1290   0.1212   0.2863  -0.0431   0.0691  -0.1049   0.00    0.0
2026/01/15 02:24:00.000   30.531677975  114.357269148    27.3940   6   7   0.1288   0.1209   0.2859  -0.0430   0.0689  -0.1048   0.00    0.0
2026/01/15 02:24:30.000   30.531677970  114.357269088    27.3798   6   7   0.1286   0.1207   0.2855  -0.0429   0.0686  -0.1048   0.00    0.0
2026/01/15 02:25:00.000   30.531677947  114.357269053    27.3710   6   7   0.1283   0.1204   0.2852  -0.0428   0.0684  -0.1047   0.00    0.0
2026/01/15 02:25:30.000   30.531677945  114.357269017    27.3569   6   7   0.1281   0.1202   0.2848  -0.0427   0.0682  -0.1047   0.00    0.0
2026/01/15 02:26:00.000   30.531677932  114.357268952    27.3465   6   7   0.1279   0.1199   0.2844  -0.0426   0.0680  -0.1047   0.00    0.0
2026/01/15 02:26:30.000   30.531677952  114.357268937    27.3396   6   7   0.1276   0.1197   0.2841  -0.0426   0.0677  -0.1046   0.00    0.0
2026/01/15 02:27:00.000   30.531677938  114.357268930    27.3341   6   7   0.1274   0.1195   0.2837  -0.0425   0.0675  -0.1046   0.00    0.0
2026/01/15 02:27:30.000   30.531677943  114.357268933    27.3276   6   7   0.1272   0.1192   0.2833  -0.0424   0.0673  -0.1045   0.00    0.0
2026/01/15 02:28:00.000   30.531677950  114.357268963    27.3278   6   7   0.1270   0.1190   0.2829  -0.0423   0.0671  -0.1045   0.00    0.0
2026/01/15 02:28:30.000   30.531677967  114.357268947    27.3212   6   7   0.1268   0.1188   0.2826  -0.0422   0.0669  -0.1044   0.00    0.0
2026/01/15 02:29:00.000   30.531677955  114.357269005    27.3209   6   7   0.1265   0.1185   0.2822  -0.0422   0.0667  -0.1044   0.00    0.0
2026/01/15 02:29:30.000   30.531677935  114.357269001    27.3142   6   7   0.1263   0.1183   0.2818  -0.0421   0.0665  -0.1043   0.00    0.0
2026/01/15 02:30:00.000   30.531677912  114.357269003    27.3090   6   7   0.1261   0.1181   0.2814  -0.0420   0.0663  -0.1043   0.00    0.0
2026/01/15 02:30:30.000   30.531677901  114.357268995    27.3055   6   7   0.1259   0.1178   0.2811  -0.0419   0.0661  -0.1042   0.00    0.0
2026/01/15 02:31:00.000   30.531677904  114.357269002    27.3022   6   7   0.1257   0.1176   0.2807  -0.0419   0.0660  -0.1042   0.00    0.0
2026/01/15 02:31:30.000   30.531677916  114.357269012    27.3000   6   7   0.1254   0.1174   0.2803  -0.0418   0.0658  -0.1041   0.00    0.0
2026/01/15 02:32:00.000   30.531677886  114.357268964    27.2868   6   8   0.1252   0.1171   0.2799  -0.0418   0.0655  -0.1041   0.00    0.0
2026/01/15 02:32:30.000   30.531677876  114.357268945    27.2816   6   8   0.1250   0.1169   0.2795  -0.0417   0.0653  -0.1042   0.00    0.0
2026/01/15 02:33:00.000   30.531677871  114.357268955    27.2754   6   8   0.1247   0.1167   0.2790  -0.0417   0.0651  -0.1042   0.00    0.0
2026/01/15 02:33:30.000   30.531677870  114.357268938    27.2703   6   8   0.1245   0.1164   0.2786  -0.0417   0.0649  -0.1042   0.00    0.0
2026/01/15 02:34:00.000   30.531677857  114.357268929    27.2624   6   8   0.1243   0.1162   0.2782  -0.0417   0.0646  -0.1042   0.00    0.0
2026/01/15 02:34:30.000   30.531677853  114.357268958    27.2609   6   8   0.1240   0.1160   0.2777  -0.0416   0.0644  -0.1042   0.00    0.0
2026/01/15 02:35:00.000   30.531677852  114.357268958    27.2554   6   8   0.1238   0.1158   0.2773  -0.0416   0.0642  -0.1042   0.00    0.0
2026/01/15 02:35:30.000   30.531677852  114.357268953    27.2478   6   8   0.1236   0.1155   0.2769  -0.0416   0.0640  -0.1042   0.00    0.0
2026/01/15 02:36:00.000   30.531677850  114.357268940    27.2418   6   8   0.1233   0.1153   0.2764  -0.0416   0.0638  -0.1042   0.00    0.0
2026/01/15 02:36:30.000   30.531677865  114.357268935    27.2345   6   8   0.1231   0.1151   0.2760  -0.0416   0.0636  -0.1042   0.00    0.0
2026/01/15 02:37:00.000   30.531677873  114.357268909    27.2284   6   8   0.1229   0.1149   0.2756  -0.0415   0.0634  -0.1042   0.00    0.0
2026/01/15 02:37:30.000   30.531677873  114.357268899    27.2272   6   8   0.1226   0.1147   0.2751  -0.0415   0.0632  -0.1041   0.00    0.0
2026/01/15 02:38:00.000   30.531677856  114.357268877    27.2206   6   8   0.1224   0.1145   0.2747  -0.0415   0.0630  -0.1041   0.00    0.0
2026/01/15 02:38:30.000   30.531677848  114.357268874    27.2187   6   8   0.1222   0.1142   0.2743  -0.0415   0.0628  -0.1041   0.00    0.0
2026/01/15 02:39:00.000   30.531677858  114.357268870    27.2157   6   8   0.1220   0.1140   0.2739  -0.0415   0.0627  -0.1041   0.00    0.0
2026/01/15 02:39:30.000   30.531677863  114.357268863    27.2116   6   8   0.1217   0.1138   0.2734  -0.0415   0.0625  -0.1041   0.00    0.0
2026/01/15 02:40:00.000   30.531677858  114.357268843    27.2012   6   8   0.1215   0.1136   0.2730  -0.0414   0.0623  -0.1041   0.00    0.0
2026/01/15 02:40:30.000   30.531677859  114.357268813    27.1920   6   8   0.1213   0.1134   0.2726  -0.0414   0.0622  -0.1041   0.00    0.0
2026/01/15 02:41:00.000   30.531677856  114.357268835    27.1894   6   8   0.1211   0.1132   0.2721  -0.0414   0.0620  -0.1040   0.00    0.0
2026/01/15 02:41:30.000   30.531677864  114.357268856    27.1871   6   8   0.1208   0.1130   0.2717  -0.0414   0.0619  -0.1040   0.00    0.0
2026/01/15 02:42:00.000   30.531677880  114.357268854    27.1831   6   8   0.1206   0.1128   0.2713  -0.0414   0.0617  -0.1040   0.00    0.0
2026/01/15 02:42:30.000   30.531677905  114.357268865    27.1836   6   8   0.1204   0.1126   0.2708  -0.0414   0.0616  -0.1040   0.00    0.0
2026/01/15 02:43:00.000   30.531677917  114.357268839    27.1774   6   8   0.1202   0.1124   0.2704  -0.0414   0.0614  -0.1039   0.00    0.0
2026/01/15 02:43:30.000   30.531677933  114.357268822    27.1736   6   8   0.1200   0.1122   0.2700  -0.0414   0.0613  -0.1039   0.00    0.0
2026/01/15 02:44:00.000   30.531677950  114.357268793    27.1714   6   8   0.1197   0.1120   0.2695  -0.0414   0.0611  -0.1039   0.00    0.0
2026/01/15 02:44:30.000   30.531677961  114.357268804    27.1729   6   8   0.1195   0.1118   0.2691  -0.0414   0.0610  -0.1038   0.00    0.0
2026/01/15 02:45:00.000   30.531677962  114.357268779    27.1683   6   8   0.1193   0.1116   0.2687  -0.0414   0.0609  -0.1038   0.00    0.0
2026/01/15 02:45:30.000   30.531677965  114.357268744    27.1654   6   8   0.1191   0.1114   0.2683  -0.0413   0.0608  -0.1037   0.00    0.0
2026/01/15 02:46:00.000   30.531677953  114.357268741    27.1614   6   8   0.1189   0.1112   0.2678  -0.0413   0.0607  -0.1037   0.00    0.0
2026/01/15 02:46:30.000   30.531677928  114.357268725    27.1541   6   8   0.1186   0.1110   0.2674  -0.0413   0.0605  -0.1037   0.00    0.0
2026/01/15 02:47:00.000   30.531677938  114.357268722    27.1510   6   8   0.1184   0.1108   0.2669  -0.0413   0.0604  -0.1036   0.00    0.0
2026/01/15 02:47:30.000   30.531677951  114.357268699    27.1467   6   8   0.1182   0.1106   0.2665  -0.0413   0.0603  -0.1036   0.00    0.0
2026/01/15 02:48:00.000   30.531677966  114.357268708    27.1488   6   8   0.1180   0.1105   0.2661  -0.0413   0.0602  -0.1035   0.00    0.0
2026/01/15 02:48:30.000   30.531677999  114.357268744    27.1496   6   8   0.1178   0.1103   0.2656  -0.0413   0.0601  -0.1035   0.00    0.0
2026/01/15 02:49:00.000   30.531678014  114.357268736    27.1496   6   8   0.1176   0.1101   0.2652  -0.0413   0.0601  -0.1034   0.00    0.0
2026/01/15 02:49:30.000   30.531678009  114.357268720    27.1438   6   8   0.1174   0.1099   0.2648  -0.0413   0.0600  -0.1033   0.00    0.0
2026/01/15 02:50:00.000   30.531677990  114.357268721    27.1440   6   8   0.1171   0.1097   0.2643  -0.0413   0.0599  -0.1033   0.00    0.0
2026/01/15 02:50:30.000   30.531678004  114.357268708    27.1444   6   8   0.1169   0.1095   0.2639  -0.0413   0.0598  -0.1032   0.00    0.0
2026/01/15 02:51:00.000   30.531678008  114.357268668    27.1374   6   8   0.1167   0.1094   0.2635  -0.0413   0.0597  -0.1032   0.00    0.0
2026/01/15 02:51:30.000   30.531678012  114.357268677    27.1429   6   8   0.1165   0.1092   0.2630  -0.0413   0.0597  -0.1031   0.00    0.0
2026/01/15 02:52:00.000   30.531678019  114.357268665    27.1430   6   8   0.1163   0.1090   0.2626  -0.0413   0.0596  -0.1030   0.00    0.0
2026/01/15 02:52:30.000   30.531678037  114.357268680    27.1432   6   8   0.1161   0.1088   0.2621  -0.0414   0.0595  -0.1030   0.00    0.0
2026/01/15 02:53:00.000   30.531678068  114.357268680    27.1412   6   8   0.1159   0.1087   0.2617  -0.0414   0.0595  -0.1029   0.00    0.0
2026/01/15 02:53:30.000   30.531678051  114.357268703    27.1418   6   9   0.1156   0.1084   0.2611  -0.0412   0.0592  -0.1027   0.00    0.0
2026/01/15 02:54:00.000   30.531678051  114.357268676    27.1369   6   9   0.1154   0.1082   0.2605  -0.0411   0.0589  -0.1024   0.00    0.0
2026/01/15 02:54:30.000   30.531678070  114.357268674    27.1351   6   9   0.1151   0.1080   0.2599  -0.0409   0.0586  -0.1022   0.00    0.0
2026/01/15 02:55:00.000   30.531678044  114.357268715    27.1427   6   9   0.1148   0.1078   0.2594  -0.0408   0.0583  -0.1020   0.00    0.0
2026/01/15 02:55:30.000   30.531678027  114.357268749    27.1485   6   8   0.1146   0.1076   0.2589  -0.0406   0.0582  -0.1017   0.00    0.0
2026/01/15 02:56:00.000   30.531678014  114.357268769    27.1529   6   8   0.1143   0.1074   0.2584  -0.0404   0.0581  -0.1014   0.00    0.0
2026/01/15 02:56:30.000   30.531678019  114.357268758    27.1509   6   8   0.1141   0.1073   0.2579  -0.0403   0.0581  -0.1012   0.00    0.0
2026/01/15 02:57:00.000   30.531678020  114.357268758    27.1510   6   8   0.1138   0.1071   0.2574  -0.0401   0.0580  -0.1009   0.00    0.0
2026/01/15 02:57:30.000   30.531677993  114.357268806    27.1630   6   8   0.1136   0.1069   0.2569  -0.0400   0.0579  -0.1007   0.00    0.0
2026/01/15 02:58:00.000   30.531678009  114.357268804    27.1623   6   8   0.1133   0.1068   0.2564  -0.0398   0.0578  -0.1004   0.00    0.0
2026/01/15 02:58:30.000   30.531677989  114.357268836    27.1634   6   8   0.1131   0.1066   0.2559  -0.0397   0.0577  -0.1002   0.00    0.0
2026/01/15 02:59:00.000   30.531677969  114.357268873    27.1602   6   8   0.1128   0.1064   0.2554  -0.0395   0.0576  -0.0999   0.00    0.0
2026/01/15 02:59:30.000   30.531677978  114.357268882    27.1540   6   8   0.1126   0.1063   0.2549  -0.0394   0.0576  -0.0997   0.00    0.0
2026/01/15 03:00:00.000   30.531677998  114.357268896    27.1521   6   8   0.1123   0.1061   0.2544  -0.0392   0.0575  -0.0994   0.00    0.0
2026/01/15 03:00:30.000   30.531677970  114.357268951    27.1602   6   8   0.1121   0.1059   0.2539  -0.0391   0.0575  -0.0992   0.00    0.0
2026/01/15 03:01:00.000   30.531677954  114.357268990    27.1655   6   8   0.1118   0.1058   0.2534  -0.0389   0.0574  -0.0990   0.00    0.0
2026/01/15 03:01:30.000   30.531677920  114.357269003    27.1708   6   8   0.1116   0.1056   0.2529  -0.0388   0.0574  -0.0988   0.00    0.0
2026/01/15 03:02:00.000   30.531677913  114.357269037    27.1750   6   8   0.1113   0.1054   0.2524  -0.0386   0.0574  -0.0985   0.00    0.0
2026/01/15 03:02:30.000   30.531677885  114.357269052    27.1814   6   8   0.1111   0.1052   0.2519  -0.0385   0.0573  -0.0983   0.00    0.0
2026/01/15 03:03:00.000   30.531677845  114.357269084    27.1900   6   8   0.1108   0.1051   0.2514  -0.0384   0.0573  -0.0981   0.00    0.0
2026/01/15 03:03:30.000   30.531677849  114.357269063    27.1901   6   8   0.1106   0.1049   0.2509  -0.0382   0.0573  -0.0979   0.00    0.0
2026/01/15 03:04:00.000   30.531677854  114.357269064    27.1886   6   8   0.1103   0.1048   0.2503  -0.0381   0.0572  -0.0976   0.00    0.0
2026/01/15 03:04:30.000   30.531677848  114.357269062    27.1891   6   8   0.1101   0.1046   0.2498  -0.0380   0.0572  -0.0974   0.00    0.0
2026/01/15 03:05:00.000   30.531677863  114.357269066    27.1898   6   8   0.1098   0.1044   0.2493  -0.0378   0.0572  -0.0972   0.00    0.0
2026/01/15 03:05:30.000   30.531677858  114.357269042    27.1883   6   8   0.1096   0.1043   0.2488  -0.0377   0.0572  -0.0970   0.00    0.0
2026/01/15 03:06:00.000   30.531677857  114.357269058    27.1866   6   8   0.1093   0.1041   0.2483  -0.0376   0.0572  -0.0967   0.00    0.0
2026/01/15 03:06:30.000   30.531677847  114.357269059    27.1881   6   8   0.1091   0.1039   0.2478  -0.0375   0.0571  -0.0965   0.00    0.0
2026/01/15 03:07:00.000   30.531677825  114.357269094    27.1945   6   8   0.1088   0.1038   0.2473  -0.0374   0.0571  -0.0963   0.00    0.0
2026/01/15 03:07:30.000   30.531677800  114.357269126    27.2022   6   8   0.1086   0.1036   0.2468  -0.0372   0.0571  -0.0961   0.00    0.0
2026/01/15 03:08:00.000   30.531677776  114.357269171    27.2054   6   8   0.1084   0.1035   0.2464  -0.0371   0.0571  -0.0959   0.00    0.0
2026/01/15 03:08:30.000   30.531677765  114.357269205    27.2079   6   8   0.1081   0.1033   0.2459  -0.0370   0.0571  -0.0956   0.00    0.0
2026/01/15 03:09:00.000   30.531677769  114.357269203    27.2023   6   8   0.1079   0.1031   0.2454  -0.0369   0.0571  -0.0954   0.00    0.0
2026/01/15 03:09:30.000   30.531677763  114.357269222    27.2022   6   8   0.1076   0.1030   0.2449  -0.0368   0.0571  -0.0952   0.00    0.0
2026/01/15 03:10:00.000   30.531677761  114.357269245    27.2058   6   8   0.1074   0.1028   0.2444  -0.0367   0.0571  -0.0950   0.00    0.0
2026/01/15 03:10:30.000   30.531677750  114.357269255    27.2112   6   8   0.1072   0.1027   0.2439  -0.0366   0.0571  -0.0947   0.00    0.0
2026/01/15 03:11:00.000   30.531677759  114.357269285    27.2114   6   8   0.1069   0.1025   0.2434  -0.0365   0.0571  -0.0945   0.00    0.0
2026/01/15 03:11:30.000   30.531677757  114.357269314    27.2172   6   8   0.1067   0.1023   0.2429  -0.0364   0.0571  -0.0943   0.00    0.0
2026/01/15 03:12:00.000   30.531677763  114.357269329    27.2242   6   8   0.1065   0.1022   0.2424  -0.0362   0.0572  -0.0941   0.00    0.0
2026/01/15 03:12:30.000   30.531677758  114.357269334    27.2209   6   8   0.1063   0.1020   0.2419  -0.0361   0.0572  -0.0939   0.00    0.0
2026/01/15 03:13:00.000   30.531677780  114.357269312    27.2187   6   8   0.1060   0.1019   0.2415  -0.0361   0.0572  -0.0936   0.00    0.0
2026/01/15 03:13:30.000   30.531677807  114.357269293    27.2074   6   8   0.1058   0.1017   0.2410  -0.0360   0.0572  -0.0934   0.00    0.0
2026/01/15 03:14:00.000   30.531677808  114.357269275    27.2091   6   8   0.1056   0.1016   0.2405  -0.0359   0.0572  -0.0932   0.00    0.0
2026/01/15 03:14:30.000   30.531677813  114.357269254    27.2075   6   8   0.1054   0.1014   0.2400  -0.0358   0.0572  -0.0930   0.00    0.0
2026/01/15 03:15:00.000   30.531677808  114.357269255    27.2079   6   8   0.1051   0.1013   0.2395  -0.0357   0.0573  -0.0928   0.00    0.0
2026/01/15 03:15:30.000   30.531677812  114.357269265    27.2136   6   8   0.1049   0.1011   0.2390  -0.0356   0.0573  -0.0926   0.00    0.0
2026/01/15 03:16:00.000   30.531677809  114.357269256    27.2171   6   8   0.1047   0.1010   0.2386  -0.0355   0.0573  -0.0923   0.00    0.0
2026/01/15 03:16:30.000   30.531677811  114.357269260    27.2162   6   8   0.1045   0.1008   0.2381  -0.0354   0.0573  -0.0921   0.00    0.0
2026/01/15 03:17:00.000   30.531677803  114.357269229    27.2172   6   8   0.1043   0.1007   0.2376  -0.0353   0.0574  -0.0919   0.00    0.0
2026/01/15 03:17:30.000   30.531677814  114.357269201    27.2174   6   8   0.1040   0.1005   0.2371  -0.0352   0.0574  -0.0917   0.00    0.0
2026/01/15 03:18:00.000   30.531677816  114.357269214    27.2139   6   8   0.1038   0.1004   0.2367  -0.0352   0.0574  -0.0915   0.00    0.0
2026/01/15 03:18:30.000   30.531677829  114.357269199    27.2131   6   8   0.1036   0.1002   0.2362  -0.0351   0.0575  -0.0913   0.00    0.0
2026/01/15 03:19:00.000   30.531677844  114.357269216    27.2115   6   8   0.1034   0.1001   0.2358  -0.0350   0.0575  -0.0910   0.00    0.0
2026/01/15 03:19:30.000   30.531677862  114.357269209    27.2079   6   8   0.1032   0.1000   0.2354  -0.0350   0.0575  -0.0907   0.00    0.0
2026/01/15 03:20:00.000   30.531677862  114.357269192    27.2064   6   8   0.1030   0.0998   0.2350  -0.0349   0.0575  -0.0905   0.00    0.0
2026/01/15 03:20:30.000   30.531677871  114.357269164    27.2067   6   8   0.1028   0.0997   0.2346  -0.0348   0.0576  -0.0902   0.00    0.0
2026/01/15 03:21:00.000   30.531677859  114.357269155    27.2090   6   8   0.1026   0.0995   0.2342  -0.0348   0.0576  -0.0900   0.00    0.0
2026/01/15 03:21:30.000   30.531677843  114.357269168    27.2077   6   8   0.1024   0.0994   0.2338  -0.0347   0.0576  -0.0897   0.00    0.0
2026/01/15 03:22:00.000   30.531677861  114.357269134    27.2066   6   8   0.1022   0.0992   0.2335  -0.0346   0.0577  -0.0895   0.00    0.0
2026/01/15 03:22:30.000   30.531677864  114.357269134    27.2041   6   8   0.1020   0.0991   0.2331  -0.0346   0.0577  -0.0892   0.00    0.0
2026/01/15 03:23:00.000   30.531677877  114.357269135    27.2022   6   8   0.1018   0.0990   0.2327  -0.0345   0.0577  -0.0890   0.00    0.0
2026/01/15 03:23:30.000   30.531677870  114.357269152    27.2015   6   8   0.1016   0.0988   0.2323  -0.0345   0.0578  -0.0887   0.00    0.0
2026/01/15 03:24:00.000   30.531677893  114.357269142    27.1990   6   8   0.1014   0.0987   0.2319  -0.0344   0.0578  -0.0884   0.00    0.0
2026/01/15 03:24:30.000   30.531677889  114.357269156    27.1980   6   8   0.1012   0.0985   0.2315  -0.0343   0.0578  -0.0882   0.00    0.0
2026/01/15 03:25:00.000   30.531677893  114.357269175    27.1945   6   8   0.1010   0.0984   0.2311  -0.0343   0.0579  -0.0879   0.00    0.0
2026/01/15 03:25:30.000   30.531677873  114.357269206    27.1969   6   8   0.1008   0.0983   0.2308  -0.0342   0.0579  -0.0877   0.00    0.0
2026/01/15 03:26:00.000   30.531677869  114.357269223    27.1953   6   8   0.1006   0.0981   0.2304  -0.0342   0.0580  -0.0874   0.00    0.0
2026/01/15 03:26:30.000   30.531677873  114.357269250    27.1926   6   8   0.1005   0.0980   0.2300  -0.0341   0.0580  -0.0872   0.00    0.0
2026/01/15 03:27:00.000   30.531677858  114.357269234    27.1903   6   8   0.1003   0.0979   0.2296  -0.0341   0.0581  -0.0869   0.00    0.0
2026/01/15 03:27:30.000   30.531677859  114.357269246    27.1880   6   8   0.1001   0.0977   0.2292  -0.0341   0.0581  -0.0867   0.00    0.0
2026/01/15 03:28:00.000   30.531677860  114.357269250    27.1860   6   8   0.0999   0.0976   0.2289  -0.0340   0.0582  -0.0865   0.00    0.0
