% program   : RTKPOST ver.demo5 b34d
% inp file  : E:\Master courses\SNDP-PROJECT\New_Data\obs\RNXDATA\WUH200CHN_R_20260150000_01D_30S_MO.obs
% inp file  : E:\Master courses\SNDP-PROJECT\New_Data\nav\BRDC00IGS_R_20260150000_01D_MN.rnx
% inp file  : E:\Master courses\SNDP-PROJECT\New_Data\DATA_FINAL_ANT_EXTRA\COD0MGXFIN_20260150000_01D_05M_ORB.SP3
% inp file  : E:\Master courses\SNDP\SNDP-PROJECT\1_DATA\HKWS_OP71_data\IGS0OPSFIN_20260150000_01D_30S_CLK.CLK
% obs start : 2026/01/15 00:00:00.0 GPST (week2401 345600.0s)
% obs end   : 2026/01/15 23:59:30.0 GPST (week2401 431970.0s)
% pos mode  : PPP Static
% solution  : Forward
% elev mask : 15.0 deg
% dynamics  : off
% tidecorr  : off
% tropo opt : Saastamoinen
% ephemeris : Broadcast+SBAS
% navi sys  : GPS GLONASS Galileo QZSS BDS
% antenna1  : JAVRINGANT_G5T  NONE  ( 0.0000  0.0000  0.1206)
%
% (lat/lon/height=WGS84/ellipsoidal,Q=1:fix,2:float,3:sbas,4:dgps,5:single,6:ppp,ns=# of satellites)
%  GPST                  latitude(deg) longitude(deg)  height(m)   Q  ns   sdn(m)   sde(m)   sdu(m)  sdne(m)  sdeu(m)  sdun(m) age(s)  ratio
2026/01/15 00:00:00.000   30.531679920  114.357277544    31.6925   6  28   1.5757   1.4292   3.6625   0.4403   1.1084  -1.4204   0.00    0.0
2026/01/15 00:00:30.000   30.531685175  114.357271576    30.5910   6  28   1.1148   1.0122   2.5920   0.3116   0.7866  -1.0043   0.00    0.0
2026/01/15 00:01:00.000   30.531686841  114.357273666    31.2473   6  28   0.9101   0.8273   2.1156   0.2547   0.6438  -0.8190   0.00    0.0
2026/01/15 00:01:30.000   30.531687637  114.357276183    31.7857   6  28   0.7880   0.7170   1.8310   0.2207   0.5588  -0.7081   0.00    0.0
2026/01/15 00:02:00.000   30.531687928  114.357277524    31.8712   6  28   0.7046   0.6418   1.6364   0.1976   0.5007  -0.6323   0.00    0.0
2026/01/15 00:02:30.000   30.531687562  114.357278841    32.0546   6  28   0.6430   0.5863   1.4926   0.1806   0.4580  -0.5762   0.00    0.0
2026/01/15 00:03:00.000   30.531687987  114.357278801    31.7432   6  28   0.5950   0.5432   1.3806   0.1674   0.4247  -0.5324   0.00    0.0
2026/01/15 00:03:30.000   30.531688183  114.357280134    32.0447   6  28   0.5564   0.5085   1.2902   0.1567   0.3980  -0.4971   0.00    0.0
2026/01/15 00:04:00.000   30.531688486  114.357280089    32.0037   6  28   0.5244   0.4797   1.2153   0.1479   0.3759  -0.4678   0.00    0.0
2026/01/15 00:04:30.000   30.531687883  114.357279640    31.9786   6  28   0.4972   0.4554   1.1518   0.1405   0.3572  -0.4429   0.00    0.0
2026/01/15 00:05:00.000   30.531688802  114.357279873    31.7901   6  28   0.4739   0.4345   1.0971   0.1341   0.3411  -0.4215   0.00    0.0
2026/01/15 00:05:30.000   30.531688976  114.357280065    31.5925   6  28   0.4536   0.4163   1.0494   0.1286   0.3271  -0.4028   0.00    0.0
2026/01/15 00:06:00.000   30.531689103  114.357279812    31.4226   6  29   0.4356   0.3994   1.0045   0.1233   0.3118  -0.3865   0.00    0.0
2026/01/15 00:06:30.000   30.531688622  114.357279027    31.1731   6  29   0.4195   0.3845   0.9648   0.1187   0.2985  -0.3720   0.00    0.0
2026/01/15 00:07:00.000   30.531688225  114.357278618    31.1350   6  29   0.4051   0.3712   0.9293   0.1146   0.2868  -0.3589   0.00    0.0
2026/01/15 00:07:30.000   30.531687655  114.357278774    31.2387   6  29   0.3921   0.3592   0.8974   0.1110   0.2765  -0.3470   0.00    0.0
2026/01/15 00:08:00.000   30.531687283  114.357278584    31.2851   6  30   0.3798   0.3472   0.8662   0.1051   0.2639  -0.3379   0.00    0.0
2026/01/15 00:08:30.000   30.531687042  114.357277598    31.0902   6  30   0.3685   0.3364   0.8379   0.1000   0.2528  -0.3294   0.00    0.0
2026/01/15 00:09:00.000   30.531687179  114.357277629    30.8911   6  30   0.3581   0.3265   0.8123   0.0954   0.2430  -0.3213   0.00    0.0
2026/01/15 00:09:30.000   30.531686924  114.357277505    30.7489   6  30   0.3481   0.3165   0.7859   0.0944   0.2298  -0.3100   0.00    0.0
2026/01/15 00:10:00.000   30.531686939  114.357277126    30.6936   6  31   0.3387   0.3074   0.7606   0.0932   0.2181  -0.3005   0.00    0.0
2026/01/15 00:10:30.000   30.531686837  114.357277025    30.6027   6  30   0.3305   0.2999   0.7411   0.0895   0.2115  -0.2942   0.00    0.0
2026/01/15 00:11:00.000   30.531686753  114.357277030    30.5884   6  30   0.3229   0.2929   0.7230   0.0862   0.2055  -0.2883   0.00    0.0
2026/01/15 00:11:30.000   30.531686762  114.357277051    30.5418   6  30   0.3158   0.2864   0.7062   0.0831   0.2000  -0.2826   0.00    0.0
2026/01/15 00:12:00.000   30.531686748  114.357277031    30.4015   6  30   0.3091   0.2803   0.6904   0.0803   0.1950  -0.2772   0.00    0.0
2026/01/15 00:12:30.000   30.531686799  114.357277200    30.4429   6  30   0.3029   0.2746   0.6756   0.0777   0.1903  -0.2720   0.00    0.0
2026/01/15 00:13:00.000   30.531686748  114.357277071    30.4592   6  30   0.2968   0.2696   0.6628   0.0736   0.1874  -0.2683   0.00    0.0
2026/01/15 00:13:30.000   30.531686915  114.357277031    30.3775   6  31   0.2910   0.2642   0.6487   0.0704   0.1820  -0.2641   0.00    0.0
2026/01/15 00:14:00.000   30.531687025  114.357276789    30.3246   6  31   0.2855   0.2591   0.6355   0.0675   0.1771  -0.2601   0.00    0.0
2026/01/15 00:14:30.000   30.531687002  114.357276724    30.2797   6  31   0.2804   0.2543   0.6231   0.0648   0.1726  -0.2562   0.00    0.0
2026/01/15 00:15:00.000   30.531687024  114.357276455    30.2062   6  31   0.2755   0.2497   0.6113   0.0622   0.1683  -0.2525   0.00    0.0
2026/01/15 00:15:30.000   30.531687028  114.357276704    30.1890   6  32   0.2704   0.2450   0.5984   0.0616   0.1624  -0.2475   0.00    0.0
2026/01/15 00:16:00.000   30.531686868  114.357276647    30.2058   6  31   0.2656   0.2411   0.5876   0.0604   0.1589  -0.2431   0.00    0.0
2026/01/15 00:16:30.000   30.531686888  114.357276240    30.1284   6  32   0.2610   0.2368   0.5761   0.0597   0.1537  -0.2386   0.00    0.0
2026/01/15 00:17:00.000   30.531686863  114.357276038    30.0731   6  32   0.2567   0.2328   0.5652   0.0591   0.1490  -0.2343   0.00    0.0
2026/01/15 00:17:30.000   30.531686810  114.357275832    30.0270   6  32   0.2525   0.2291   0.5550   0.0584   0.1446  -0.2302   0.00    0.0
2026/01/15 00:18:00.000   30.531686733  114.357275871    30.0177   6  32   0.2486   0.2254   0.5452   0.0578   0.1405  -0.2263   0.00    0.0
2026/01/15 00:18:30.000   30.531686729  114.357275989    30.0127   6  32   0.2448   0.2220   0.5360   0.0571   0.1367  -0.2226   0.00    0.0
2026/01/15 00:19:00.000   30.531686800  114.357275964    30.0119   6  32   0.2411   0.2188   0.5272   0.0565   0.1331  -0.2191   0.00    0.0
2026/01/15 00:19:30.000   30.531686859  114.357276100    30.0168   6  31   0.2379   0.2159   0.5198   0.0548   0.1312  -0.2165   0.00    0.0
2026/01/15 00:20:00.000   30.531686952  114.357276313    30.0124   6  32   0.2345   0.2129   0.5118   0.0542   0.1280  -0.2132   0.00    0.0
2026/01/15 00:20:30.000   30.531686930  114.357276223    30.0304   6  32   0.2313   0.2100   0.5040   0.0536   0.1250  -0.2100   0.00    0.0
2026/01/15 00:21:00.000   30.531686830  114.357276073    30.0285   6  32   0.2282   0.2073   0.4967   0.0530   0.1222  -0.2069   0.00    0.0
2026/01/15 00:21:30.000   30.531686801  114.357276002    30.0326   6  32   0.2252   0.2046   0.4896   0.0525   0.1196  -0.2040   0.00    0.0
2026/01/15 00:22:00.000   30.531686866  114.357275895    29.9626   6  32   0.2223   0.2021   0.4828   0.0519   0.1171  -0.2012   0.00    0.0
2026/01/15 00:22:30.000   30.531686816  114.357275815    29.9033   6  32   0.2195   0.1996   0.4763   0.0513   0.1148  -0.1984   0.00    0.0
2026/01/15 00:23:00.000   30.531686880  114.357275696    29.8598   6  32   0.2168   0.1973   0.4700   0.0508   0.1125  -0.1958   0.00    0.0
2026/01/15 00:23:30.000   30.531686789  114.357275599    29.8466   6  32   0.2142   0.1950   0.4640   0.0503   0.1104  -0.1932   0.00    0.0
2026/01/15 00:24:00.000   30.531686674  114.357275532    29.8352   6  32   0.2117   0.1928   0.4581   0.0497   0.1085  -0.1908   0.00    0.0
2026/01/15 00:24:30.000   30.531686516  114.357275413    29.8342   6  32   0.2093   0.1907   0.4526   0.0492   0.1066  -0.1884   0.00    0.0
2026/01/15 00:25:00.000   30.531686385  114.357275349    29.8268   6  32   0.2069   0.1887   0.4472   0.0487   0.1048  -0.1861   0.00    0.0
2026/01/15 00:25:30.000   30.531686340  114.357275208    29.7966   6  32   0.2046   0.1867   0.4420   0.0482   0.1031  -0.1838   0.00    0.0
2026/01/15 00:26:00.000   30.531686264  114.357274986    29.7633   6  33   0.2021   0.1846   0.4362   0.0486   0.1005  -0.1809   0.00    0.0
2026/01/15 00:26:30.000   30.531686380  114.357274753    29.6601   6  33   0.1997   0.1826   0.4307   0.0489   0.0980  -0.1782   0.00    0.0
2026/01/15 00:27:00.000   30.531686414  114.357274697    29.6296   6  33   0.1974   0.1806   0.4254   0.0491   0.0956  -0.1755   0.00    0.0
2026/01/15 00:27:30.000   30.531686672  114.357274493    29.5466   6  33   0.1952   0.1787   0.4202   0.0493   0.0934  -0.1730   0.00    0.0
2026/01/15 00:28:00.000   30.531686729  114.357274441    29.5427   6  32   0.1931   0.1769   0.4154   0.0496   0.0914  -0.1704   0.00    0.0
2026/01/15 00:28:30.000   30.531686828  114.357274335    29.5444   6  32   0.1911   0.1752   0.4108   0.0498   0.0894  -0.1679   0.00    0.0
2026/01/15 00:29:00.000   30.531686866  114.357274234    29.5428   6  32   0.1892   0.1735   0.4063   0.0499   0.0876  -0.1654   0.00    0.0
2026/01/15 00:29:30.000   30.531686842  114.357274194    29.5617   6  32   0.1873   0.1718   0.4020   0.0500   0.0858  -0.1631   0.00    0.0
2026/01/15 00:30:00.000   30.531686833  114.357274177    29.5680   6  32   0.1854   0.1702   0.3978   0.0501   0.0842  -0.1609   0.00    0.0
2026/01/15 00:30:30.000   30.531686889  114.357273988    29.5772   6  32   0.1836   0.1686   0.3938   0.0501   0.0826  -0.1587   0.00    0.0
2026/01/15 00:31:00.000   30.531686862  114.357274101    29.6053   6  32   0.1819   0.1671   0.3898   0.0501   0.0810  -0.1566   0.00    0.0
2026/01/15 00:31:30.000   30.531686834  114.357274000    29.6305   6  32   0.1802   0.1656   0.3860   0.0501   0.0796  -0.1546   0.00    0.0
2026/01/15 00:32:00.000   30.531686892  114.357274084    29.6354   6  32   0.1785   0.1642   0.3823   0.0501   0.0782  -0.1526   0.00    0.0
2026/01/15 00:32:30.000   30.531686854  114.357273979    29.6388   6  32   0.1769   0.1628   0.3787   0.0500   0.0769  -0.1507   0.00    0.0
2026/01/15 00:33:00.000   30.531687038  114.357273964    29.6225   6  32   0.1754   0.1614   0.3753   0.0500   0.0756  -0.1489   0.00    0.0
2026/01/15 00:33:30.000   30.531687092  114.357273926    29.6281   6  32   0.1738   0.1601   0.3719   0.0499   0.0744  -0.1471   0.00    0.0
2026/01/15 00:34:00.000   30.531687074  114.357273897    29.6116   6  32   0.1723   0.1588   0.3686   0.0498   0.0732  -0.1454   0.00    0.0
2026/01/15 00:34:30.000   30.531687191  114.357273854    29.6272   6  32   0.1709   0.1576   0.3654   0.0497   0.0721  -0.1437   0.00    0.0
2026/01/15 00:35:00.000   30.531687282  114.357273811    29.6370   6  32   0.1695   0.1563   0.3623   0.0496   0.0710  -0.1421   0.00    0.0
2026/01/15 00:35:30.000   30.531687293  114.357273900    29.6347   6  32   0.1681   0.1551   0.3592   0.0494   0.0700  -0.1406   0.00    0.0
2026/01/15 00:36:00.000   30.531687297  114.357273825    29.6337   6  32   0.1667   0.1539   0.3563   0.0493   0.0690  -0.1390   0.00    0.0
2026/01/15 00:36:30.000   30.531687425  114.357273799    29.6176   6  31   0.1654   0.1528   0.3534   0.0491   0.0680  -0.1375   0.00    0.0
2026/01/15 00:37:00.000   30.531687381  114.357273633    29.6094   6  31   0.1641   0.1517   0.3507   0.0490   0.0671  -0.1361   0.00    0.0
2026/01/15 00:37:30.000   30.531687358  114.357273564    29.6076   6  31   0.1629   0.1506   0.3480   0.0488   0.0661  -0.1347   0.00    0.0
2026/01/15 00:38:00.000   30.531687368  114.357273511    29.6188   6  31   0.1616   0.1495   0.3454   0.0486   0.0652  -0.1333   0.00    0.0
2026/01/15 00:38:30.000   30.531687392  114.357273454    29.6079   6  31   0.1604   0.1485   0.3428   0.0484   0.0643  -0.1320   0.00    0.0
2026/01/15 00:39:00.000   30.531687489  114.357273488    29.6138   6  31   0.1592   0.1475   0.3403   0.0483   0.0635  -0.1307   0.00    0.0
2026/01/15 00:39:30.000   30.531687560  114.357273444    29.6279   6  31   0.1581   0.1465   0.3380   0.0481   0.0627  -0.1294   0.00    0.0
2026/01/15 00:40:00.000   30.531687586  114.357273485    29.6452   6  31   0.1569   0.1455   0.3356   0.0479   0.0619  -0.1282   0.00    0.0
2026/01/15 00:40:30.000   30.531687635  114.357273539    29.6610   6  31   0.1558   0.1445   0.3333   0.0477   0.0612  -0.1270   0.00    0.0
2026/01/15 00:41:00.000   30.531687648  114.357273521    29.6567   6  31   0.1547   0.1436   0.3311   0.0475   0.0605  -0.1259   0.00    0.0
2026/01/15 00:41:30.000   30.531687714  114.357273439    29.6514   6  30   0.1538   0.1427   0.3292   0.0475   0.0595  -0.1250   0.00    0.0
2026/01/15 00:42:00.000   30.531687801  114.357273360    29.6535   6  30   0.1528   0.1418   0.3273   0.0474   0.0586  -0.1242   0.00    0.0
2026/01/15 00:42:30.000   30.531687911  114.357273404    29.6468   6  30   0.1519   0.1410   0.3255   0.0473   0.0577  -0.1234   0.00    0.0
2026/01/15 00:43:00.000   30.531687984  114.357273416    29.6543   6  30   0.1510   0.1401   0.3237   0.0473   0.0568  -0.1226   0.00    0.0
2026/01/15 00:43:30.000   30.531688051  114.357273373    29.6460   6  30   0.1501   0.1393   0.3219   0.0472   0.0559  -0.1219   0.00    0.0
2026/01/15 00:44:00.000   30.531688118  114.357273339    29.6450   6  30   0.1492   0.1385   0.3201   0.0471   0.0551  -0.1211   0.00    0.0
2026/01/15 00:44:30.000   30.531688212  114.357273329    29.6292   6  30   0.1483   0.1377   0.3184   0.0470   0.0543  -0.1204   0.00    0.0
2026/01/15 00:45:00.000   30.531688298  114.357273331    29.6310   6  30   0.1474   0.1369   0.3167   0.0469   0.0535  -0.1197   0.00    0.0
2026/01/15 00:45:30.000   30.531688355  114.357273343    29.6183   6  30   0.1466   0.1361   0.3151   0.0468   0.0528  -0.1189   0.00    0.0
2026/01/15 00:46:00.000   30.531688337  114.357273266    29.6152   6  30   0.1457   0.1353   0.3135   0.0467   0.0520  -0.1182   0.00    0.0
2026/01/15 00:46:30.000   30.531688370  114.357273231    29.6008   6  31   0.1449   0.1346   0.3117   0.0466   0.0513  -0.1176   0.00    0.0
2026/01/15 00:47:00.000   30.531688417  114.357273232    29.5902   6  31   0.1441   0.1338   0.3101   0.0464   0.0506  -0.1170   0.00    0.0
2026/01/15 00:47:30.000   30.531688414  114.357273188    29.5850   6  31   0.1433   0.1331   0.3084   0.0463   0.0499  -0.1164   0.00    0.0
2026/01/15 00:48:00.000   30.531688439  114.357273120    29.5739   6  30   0.1425   0.1324   0.3069   0.0461   0.0491  -0.1158   0.00    0.0
2026/01/15 00:48:30.000   30.531688545  114.357273109    29.5802   6  30   0.1417   0.1317   0.3054   0.0460   0.0483  -0.1152   0.00    0.0
2026/01/15 00:49:00.000   30.531688574  114.357273134    29.6030   6  30   0.1409   0.1311   0.3039   0.0458   0.0475  -0.1145   0.00    0.0
2026/01/15 00:49:30.000   30.531688635  114.357273107    29.6087   6  30   0.1401   0.1304   0.3024   0.0457   0.0467  -0.1140   0.00    0.0
2026/01/15 00:50:00.000   30.531688713  114.357273093    29.6182   6  30   0.1393   0.1297   0.3010   0.0455   0.0460  -0.1134   0.00    0.0
2026/01/15 00:50:30.000   30.531688735  114.357273130    29.6133   6  30   0.1386   0.1291   0.2996   0.0453   0.0453  -0.1128   0.00    0.0
2026/01/15 00:51:00.000   30.531688799  114.357273073    29.6172   6  30   0.1379   0.1285   0.2982   0.0451   0.0446  -0.1122   0.00    0.0
2026/01/15 00:51:30.000   30.531688800  114.357272981    29.6187   6  30   0.1371   0.1278   0.2968   0.0450   0.0439  -0.1116   0.00    0.0
2026/01/15 00:52:00.000   30.531688849  114.357272964    29.6177   6  30   0.1364   0.1272   0.2955   0.0448   0.0433  -0.1111   0.00    0.0
2026/01/15 00:52:30.000   30.531688893  114.357272941    29.6118   6  30   0.1357   0.1266   0.2941   0.0446   0.0426  -0.1105   0.00    0.0
2026/01/15 00:53:00.000   30.531688902  114.357272811    29.6076   6  30   0.1350   0.1260   0.2928   0.0444   0.0420  -0.1100   0.00    0.0
2026/01/15 00:53:30.000   30.531688898  114.357272700    29.6061   6  30   0.1343   0.1254   0.2915   0.0443   0.0414  -0.1094   0.00    0.0
2026/01/15 00:54:00.000   30.531688940  114.357272676    29.5905   6  30   0.1336   0.1249   0.2903   0.0441   0.0408  -0.1089   0.00    0.0
2026/01/15 00:54:30.000   30.531688930  114.357272666    29.5847   6  30   0.1329   0.1243   0.2890   0.0439   0.0403  -0.1084   0.00    0.0
2026/01/15 00:55:00.000   30.531688976  114.357272640    29.5846   6  30   0.1323   0.1237   0.2878   0.0437   0.0397  -0.1079   0.00    0.0
2026/01/15 00:55:30.000   30.531689073  114.357272512    29.5754   6  30   0.1316   0.1232   0.2865   0.0435   0.0392  -0.1074   0.00    0.0
2026/01/15 00:56:00.000   30.531689145  114.357272525    29.5620   6  30   0.1310   0.1226   0.2853   0.0434   0.0387  -0.1069   0.00    0.0
2026/01/15 00:56:30.000   30.531689200  114.357272492    29.5390   6  30   0.1303   0.1221   0.2841   0.0432   0.0382  -0.1064   0.00    0.0
2026/01/15 00:57:00.000   30.531689265  114.357272425    29.5358   6  30   0.1297   0.1215   0.2830   0.0430   0.0378  -0.1059   0.00    0.0
2026/01/15 00:57:30.000   30.531689315  114.357272402    29.5418   6  30   0.1290   0.1210   0.2818   0.0428   0.0373  -0.1054   0.00    0.0
2026/01/15 00:58:00.000   30.531689325  114.357272333    29.5512   6  31   0.1284   0.1205   0.2806   0.0426   0.0369  -0.1049   0.00    0.0
2026/01/15 00:58:30.000   30.531689392  114.357272289    29.5496   6  30   0.1278   0.1200   0.2795   0.0424   0.0365  -0.1045   0.00    0.0
2026/01/15 00:59:00.000   30.531689473  114.357272280    29.5483   6  30   0.1272   0.1194   0.2784   0.0422   0.0361  -0.1040   0.00    0.0
2026/01/15 00:59:30.000   30.531689420  114.357272190    29.5545   6  31   0.1266   0.1189   0.2773   0.0420   0.0357  -0.1035   0.00    0.0
2026/01/15 01:00:00.000   30.531689492  114.357272229    29.5480   6  30   0.1260   0.1184   0.2762   0.0418   0.0353  -0.1031   0.00    0.0
2026/01/15 01:00:30.000   30.531689519  114.357272199    29.5534   6  30   0.1254   0.1179   0.2751   0.0416   0.0349  -0.1026   0.00    0.0
2026/01/15 01:01:00.000   30.531689469  114.357272108    29.5503   6  30   0.1248   0.1175   0.2740   0.0414   0.0346  -0.1022   0.00    0.0
2026/01/15 01:01:30.000   30.531689453  114.357272076    29.5425   6  30   0.1242   0.1170   0.2730   0.0412   0.0342  -0.1017   0.00    0.0
2026/01/15 01:02:00.000   30.531689463  114.357272009    29.5185   6  30   0.1237   0.1165   0.2719   0.0410   0.0339  -0.1013   0.00    0.0
2026/01/15 01:02:30.000   30.531689396  114.357272045    29.5139   6  30   0.1231   0.1160   0.2709   0.0409   0.0336  -0.1009   0.00    0.0
2026/01/15 01:03:00.000   30.531689341  114.357272032    29.5128   6  30   0.1226   0.1156   0.2699   0.0407   0.0333  -0.1005   0.00    0.0
2026/01/15 01:03:30.000   30.531689326  114.357272022    29.5035   6  30   0.1220   0.1151   0.2689   0.0405   0.0330  -0.1000   0.00    0.0
2026/01/15 01:04:00.000   30.531689291  114.357271987    29.4953   6  30   0.1215   0.1147   0.2679   0.0403   0.0327  -0.0996   0.00    0.0
2026/01/15 01:04:30.000   30.531689287  114.357271935    29.5021   6  29   0.1209   0.1142   0.2669   0.0401   0.0325  -0.0992   0.00    0.0
2026/01/15 01:05:00.000   30.531689271  114.357271901    29.5004   6  30   0.1204   0.1138   0.2660   0.0399   0.0322  -0.0988   0.00    0.0
2026/01/15 01:05:30.000   30.531689292  114.357271888    29.4938   6  30   0.1199   0.1133   0.2650   0.0397   0.0320  -0.0984   0.00    0.0
2026/01/15 01:06:00.000   30.531689277  114.357271861    29.4945   6  30   0.1194   0.1129   0.2640   0.0396   0.0318  -0.0980   0.00    0.0
2026/01/15 01:06:30.000   30.531689292  114.357271873    29.4877   6  30   0.1188   0.1125   0.2631   0.0394   0.0316  -0.0976   0.00    0.0
2026/01/15 01:07:00.000   30.531689279  114.357271831    29.4908   6  30   0.1183   0.1121   0.2621   0.0392   0.0313  -0.0972   0.00    0.0
2026/01/15 01:07:30.000   30.531689287  114.357271819    29.4779   6  30   0.1178   0.1116   0.2612   0.0390   0.0311  -0.0968   0.00    0.0
2026/01/15 01:08:00.000   30.531689272  114.357271723    29.4591   6  30   0.1173   0.1112   0.2603   0.0388   0.0310  -0.0965   0.00    0.0
2026/01/15 01:08:30.000   30.531689225  114.357271653    29.4443   6  30   0.1168   0.1108   0.2594   0.0386   0.0308  -0.0961   0.00    0.0
2026/01/15 01:09:00.000   30.531689155  114.357271618    29.4323   6  30   0.1164   0.1104   0.2584   0.0384   0.0306  -0.0957   0.00    0.0
2026/01/15 01:09:30.000   30.531689178  114.357271653    29.4232   6  30   0.1159   0.1100   0.2575   0.0383   0.0304  -0.0954   0.00    0.0
2026/01/15 01:10:00.000   30.531689139  114.357271645    29.4094   6  30   0.1154   0.1096   0.2567   0.0381   0.0303  -0.0950   0.00    0.0
2026/01/15 01:10:30.000   30.531689081  114.357271600    29.4117   6  31   0.1149   0.1092   0.2557   0.0379   0.0301  -0.0946   0.00    0.0
2026/01/15 01:11:00.000   30.531689081  114.357271561    29.4012   6  31   0.1144   0.1088   0.2548   0.0377   0.0299  -0.0942   0.00    0.0
2026/01/15 01:11:30.000   30.531689121  114.357271536    29.3903   6  31   0.1139   0.1084   0.2539   0.0376   0.0298  -0.0938   0.00    0.0
2026/01/15 01:12:00.000   30.531689076  114.357271487    29.3895   6  31   0.1134   0.1081   0.2530   0.0374   0.0296  -0.0934   0.00    0.0
2026/01/15 01:12:30.000   30.531689088  114.357271501    29.3845   6  31   0.1130   0.1077   0.2521   0.0372   0.0295  -0.0930   0.00    0.0
2026/01/15 01:13:00.000   30.531689057  114.357271527    29.3931   6  31   0.1125   0.1073   0.2512   0.0370   0.0293  -0.0926   0.00    0.0
2026/01/15 01:13:30.000   30.531689036  114.357271535    29.3749   6  31   0.1120   0.1069   0.2503   0.0369   0.0292  -0.0922   0.00    0.0
2026/01/15 01:14:00.000   30.531689022  114.357271582    29.3645   6  31   0.1116   0.1066   0.2494   0.0367   0.0291  -0.0919   0.00    0.0
2026/01/15 01:14:30.000   30.531689045  114.357271611    29.3550   6  31   0.1111   0.1062   0.2486   0.0365   0.0289  -0.0915   0.00    0.0
2026/01/15 01:15:00.000   30.531689069  114.357271614    29.3362   6  31   0.1107   0.1058   0.2477   0.0364   0.0288  -0.0911   0.00    0.0
2026/01/15 01:15:30.000   30.531689028  114.357271585    29.3277   6  31   0.1102   0.1055   0.2469   0.0362   0.0287  -0.0908   0.00    0.0
2026/01/15 01:16:00.000   30.531689017  114.357271623    29.3329   6  31   0.1098   0.1051   0.2460   0.0360   0.0286  -0.0904   0.00    0.0
2026/01/15 01:16:30.000   30.531689023  114.357271646    29.3308   6  31   0.1093   0.1048   0.2452   0.0359   0.0285  -0.0901   0.00    0.0
2026/01/15 01:17:00.000   30.531689061  114.357271631    29.3235   6  30   0.1089   0.1044   0.2444   0.0357   0.0285  -0.0898   0.00    0.0
2026/01/15 01:17:30.000   30.531689061  114.357271696    29.3235   6  30   0.1085   0.1041   0.2436   0.0355   0.0284  -0.0895   0.00    0.0
2026/01/15 01:18:00.000   30.531689060  114.357271791    29.3211   6  30   0.1081   0.1038   0.2428   0.0353   0.0284  -0.0892   0.00    0.0
2026/01/15 01:18:30.000   30.531689018  114.357271779    29.3082   6  30   0.1077   0.1034   0.2420   0.0351   0.0283  -0.0889   0.00    0.0
2026/01/15 01:19:00.000   30.531689020  114.357271836    29.3078   6  30   0.1073   0.1031   0.2413   0.0350   0.0283  -0.0886   0.00    0.0
2026/01/15 01:19:30.000   30.531689040  114.357271875    29.3037   6  30   0.1069   0.1028   0.2405   0.0348   0.0283  -0.0883   0.00    0.0
2026/01/15 01:20:00.000   30.531689015  114.357271894    29.2981   6  30   0.1065   0.1024   0.2397   0.0346   0.0282  -0.0880   0.00    0.0
2026/01/15 01:20:30.000   30.531689010  114.357271902    29.2901   6  30   0.1061   0.1021   0.2390   0.0344   0.0282  -0.0878   0.00    0.0
2026/01/15 01:21:00.000   30.531689031  114.357271989    29.2823   6  30   0.1057   0.1018   0.2382   0.0343   0.0282  -0.0875   0.00    0.0
2026/01/15 01:21:30.000   30.531689023  114.357272037    29.2706   6  30   0.1053   0.1015   0.2375   0.0341   0.0282  -0.0872   0.00    0.0
2026/01/15 01:22:00.000   30.531689029  114.357272094    29.2637   6  30   0.1049   0.1012   0.2368   0.0339   0.0281  -0.0870   0.00    0.0
2026/01/15 01:22:30.000   30.531689010  114.357272061    29.2521   6  31   0.1046   0.1008   0.2360   0.0337   0.0281  -0.0867   0.00    0.0
2026/01/15 01:23:00.000   30.531689036  114.357272107    29.2400   6  30   0.1042   0.1005   0.2353   0.0335   0.0281  -0.0864   0.00    0.0
2026/01/15 01:23:30.000   30.531688988  114.357272164    29.2392   6  30   0.1038   0.1002   0.2346   0.0334   0.0281  -0.0862   0.00    0.0
2026/01/15 01:24:00.000   30.531688985  114.357272143    29.2325   6  30   0.1035   0.0999   0.2338   0.0332   0.0281  -0.0859   0.00    0.0
2026/01/15 01:24:30.000   30.531688994  114.357272148    29.2235   6  31   0.1031   0.0996   0.2331   0.0330   0.0281  -0.0856   0.00    0.0
2026/01/15 01:25:00.000   30.531689004  114.357272183    29.2213   6  31   0.1027   0.0993   0.2323   0.0329   0.0280  -0.0853   0.00    0.0
2026/01/15 01:25:30.000   30.531689014  114.357272180    29.2099   6  31   0.1023   0.0990   0.2316   0.0327   0.0280  -0.0851   0.00    0.0
2026/01/15 01:26:00.000   30.531689003  114.357272198    29.2018   6  31   0.1020   0.0987   0.2309   0.0326   0.0280  -0.0848   0.00    0.0
2026/01/15 01:26:30.000   30.531689045  114.357272219    29.1848   6  31   0.1016   0.0984   0.2302   0.0324   0.0280  -0.0845   0.00    0.0
2026/01/15 01:27:00.000   30.531688978  114.357272170    29.1760   6  31   0.1012   0.0981   0.2295   0.0322   0.0279  -0.0843   0.00    0.0
2026/01/15 01:27:30.000   30.531688934  114.357272121    29.1671   6  31   0.1009   0.0978   0.2288   0.0320   0.0279  -0.0840   0.00    0.0
2026/01/15 01:28:00.000   30.531688871  114.357272069    29.1628   6  31   0.1005   0.0975   0.2280   0.0318   0.0279  -0.0838   0.00    0.0
2026/01/15 01:28:30.000   30.531688845  114.357272101    29.1670   6  30   0.1002   0.0973   0.2274   0.0317   0.0279  -0.0836   0.00    0.0
2026/01/15 01:29:00.000   30.531688832  114.357272136    29.1727   6  30   0.0999   0.0970   0.2267   0.0315   0.0279  -0.0833   0.00    0.0
2026/01/15 01:29:30.000   30.531688829  114.357272116    29.1643   6  31   0.0995   0.0967   0.2260   0.0314   0.0279  -0.0831   0.00    0.0
2026/01/15 01:30:00.000   30.531688811  114.357272171    29.1631   6  31   0.0992   0.0964   0.2253   0.0312   0.0279  -0.0828   0.00    0.0
2026/01/15 01:30:30.000   30.531688807  114.357272220    29.1604   6  31   0.0988   0.0961   0.2246   0.0310   0.0279  -0.0826   0.00    0.0
2026/01/15 01:31:00.000   30.531688767  114.357272224    29.1599   6  31   0.0985   0.0959   0.2239   0.0309   0.0279  -0.0823   0.00    0.0
2026/01/15 01:31:30.000   30.531688755  114.357272236    29.1529   6  31   0.0982   0.0956   0.2232   0.0307   0.0279  -0.0821   0.00    0.0
2026/01/15 01:32:00.000   30.531688681  114.357272170    29.1459   6  32   0.0978   0.0953   0.2225   0.0306   0.0279  -0.0819   0.00    0.0
2026/01/15 01:32:30.000   30.531688643  114.357272136    29.1401   6  31   0.0975   0.0951   0.2219   0.0304   0.0279  -0.0816   0.00    0.0
2026/01/15 01:33:00.000   30.531688645  114.357272148    29.1228   6  31   0.0972   0.0948   0.2212   0.0303   0.0279  -0.0814   0.00    0.0
2026/01/15 01:33:30.000   30.531688636  114.357272181    29.1057   6  31   0.0969   0.0945   0.2205   0.0301   0.0279  -0.0812   0.00    0.0
2026/01/15 01:34:00.000   30.531688594  114.357272155    29.0931   6  32   0.0965   0.0943   0.2199   0.0299   0.0278  -0.0809   0.00    0.0
2026/01/15 01:34:30.000   30.531688591  114.357272175    29.0801   6  31   0.0962   0.0940   0.2192   0.0298   0.0278  -0.0807   0.00    0.0
2026/01/15 01:35:00.000   30.531688576  114.357272163    29.0746   6  31   0.0959   0.0938   0.2185   0.0296   0.0278  -0.0805   0.00    0.0
2026/01/15 01:35:30.000   30.531688560  114.357272139    29.0644   6  31   0.0956   0.0935   0.2179   0.0295   0.0278  -0.0803   0.00    0.0
2026/01/15 01:36:00.000   30.531688544  114.357272149    29.0567   6  32   0.0953   0.0933   0.2172   0.0293   0.0278  -0.0801   0.00    0.0
2026/01/15 01:36:30.000   30.531688518  114.357272139    29.0478   6  32   0.0950   0.0930   0.2165   0.0292   0.0278  -0.0799   0.00    0.0
2026/01/15 01:37:00.000   30.531688469  114.357272133    29.0442   6  32   0.0947   0.0928   0.2159   0.0290   0.0277  -0.0797   0.00    0.0
2026/01/15 01:37:30.000   30.531688458  114.357272134    29.0280   6  32   0.0943   0.0925   0.2152   0.0288   0.0277  -0.0796   0.00    0.0
2026/01/15 01:38:00.000   30.531688422  114.357272138    29.0146   6  32   0.0940   0.0923   0.2145   0.0287   0.0276  -0.0794   0.00    0.0
2026/01/15 01:38:30.000   30.531688379  114.357272132    29.0118   6  33   0.0937   0.0920   0.2139   0.0285   0.0277  -0.0792   0.00    0.0
2026/01/15 01:39:00.000   30.531688355  114.357272140    29.0024   6  33   0.0934   0.0918   0.2132   0.0283   0.0278  -0.0790   0.00    0.0
2026/01/15 01:39:30.000   30.531688298  114.357272175    28.9882   6  34   0.0931   0.0915   0.2124   0.0282   0.0277  -0.0788   0.00    0.0
2026/01/15 01:40:00.000   30.531688295  114.357272178    28.9745   6  34   0.0928   0.0912   0.2117   0.0281   0.0276  -0.0785   0.00    0.0
2026/01/15 01:40:30.000   30.531688283  114.357272176    28.9631   6  34   0.0925   0.0909   0.2109   0.0280   0.0276  -0.0783   0.00    0.0
2026/01/15 01:41:00.000   30.531688277  114.357272193    28.9504   6  34   0.0922   0.0907   0.2102   0.0279   0.0275  -0.0781   0.00    0.0
2026/01/15 01:41:30.000   30.531688269  114.357272139    28.9459   6  34   0.0918   0.0904   0.2094   0.0278   0.0274  -0.0778   0.00    0.0
2026/01/15 01:42:00.000   30.531688249  114.357272125    28.9463   6  34   0.0915   0.0902   0.2087   0.0277   0.0274  -0.0776   0.00    0.0
2026/01/15 01:42:30.000   30.531688194  114.357272078    28.9240   6  35   0.0912   0.0899   0.2080   0.0276   0.0273  -0.0774   0.00    0.0
2026/01/15 01:43:00.000   30.531688174  114.357272033    28.9113   6  34   0.0909   0.0896   0.2073   0.0275   0.0272  -0.0771   0.00    0.0
2026/01/15 01:43:30.000   30.531688185  114.357272007    28.9036   6  34   0.0906   0.0894   0.2066   0.0273   0.0272  -0.0769   0.00    0.0
2026/01/15 01:44:00.000   30.531688162  114.357272029    28.8935   6  34   0.0903   0.0891   0.2059   0.0272   0.0271  -0.0767   0.00    0.0
2026/01/15 01:44:30.000   30.531688135  114.357272047    28.8890   6  35   0.0900   0.0889   0.2051   0.0272   0.0270  -0.0764   0.00    0.0
2026/01/15 01:45:00.000   30.531688115  114.357272019    28.8914   6  35   0.0897   0.0886   0.2043   0.0271   0.0268  -0.0762   0.00    0.0
2026/01/15 01:45:30.000   30.531688104  114.357272038    28.8901   6  35   0.0894   0.0884   0.2036   0.0270   0.0266  -0.0759   0.00    0.0
2026/01/15 01:46:00.000   30.531688086  114.357272021    28.8813   6  35   0.0891   0.0881   0.2029   0.0269   0.0265  -0.0756   0.00    0.0
2026/01/15 01:46:30.000   30.531688063  114.357271961    28.8579   6  36   0.0888   0.0878   0.2021   0.0268   0.0263  -0.0754   0.00    0.0
2026/01/15 01:47:00.000   30.531688083  114.357271925    28.8476   6  35   0.0885   0.0876   0.2014   0.0268   0.0262  -0.0752   0.00    0.0
2026/01/15 01:47:30.000   30.531688088  114.357271890    28.8380   6  35   0.0882   0.0873   0.2007   0.0267   0.0260  -0.0749   0.00    0.0
2026/01/15 01:48:00.000   30.531688096  114.357271871    28.8341   6  35   0.0879   0.0871   0.2000   0.0266   0.0259  -0.0747   0.00    0.0
2026/01/15 01:48:30.000   30.531688126  114.357271901    28.8271   6  34   0.0876   0.0869   0.1993   0.0266   0.0257  -0.0745   0.00    0.0
2026/01/15 01:49:00.000   30.531688134  114.357271913    28.8218   6  34   0.0874   0.0866   0.1987   0.0265   0.0255  -0.0743   0.00    0.0
2026/01/15 01:49:30.000   30.531688166  114.357271933    28.8130   6  34   0.0871   0.0864   0.1981   0.0264   0.0253  -0.0742   0.00    0.0
2026/01/15 01:50:00.000   30.531688158  114.357271923    28.8009   6  34   0.0869   0.0861   0.1975   0.0264   0.0251  -0.0740   0.00    0.0
2026/01/15 01:50:30.000   30.531688167  114.357271927    28.7865   6  34   0.0866   0.0859   0.1968   0.0263   0.0249  -0.0739   0.00    0.0
2026/01/15 01:51:00.000   30.531688152  114.357271870    28.7692   6  35   0.0864   0.0857   0.1962   0.0263   0.0246  -0.0737   0.00    0.0
2026/01/15 01:51:30.000   30.531688143  114.357271810    28.7524   6  35   0.0861   0.0854   0.1956   0.0262   0.0244  -0.0736   0.00    0.0
2026/01/15 01:52:00.000   30.531688153  114.357271786    28.7376   6  34   0.0859   0.0852   0.1950   0.0261   0.0242  -0.0734   0.00    0.0
2026/01/15 01:52:30.000   30.531688152  114.357271772    28.7291   6  34   0.0856   0.0850   0.1944   0.0261   0.0240  -0.0733   0.00    0.0
2026/01/15 01:53:00.000   30.531688166  114.357271746    28.7215   6  34   0.0854   0.0848   0.1938   0.0260   0.0239  -0.0731   0.00    0.0
2026/01/15 01:53:30.000   30.531688179  114.357271739    28.7132   6  34   0.0851   0.0846   0.1932   0.0259   0.0237  -0.0730   0.00    0.0
2026/01/15 01:54:00.000   30.531688188  114.357271776    28.7052   6  34   0.0849   0.0843   0.1927   0.0259   0.0235  -0.0729   0.00    0.0
2026/01/15 01:54:30.000   30.531688193  114.357271751    28.6993   6  34   0.0847   0.0841   0.1921   0.0258   0.0234  -0.0727   0.00    0.0
2026/01/15 01:55:00.000   30.531688172  114.357271702    28.6791   6  35   0.0844   0.0839   0.1915   0.0257   0.0232  -0.0726   0.00    0.0
2026/01/15 01:55:30.000   30.531688161  114.357271713    28.6685   6  34   0.0842   0.0837   0.1909   0.0257   0.0230  -0.0725   0.00    0.0
2026/01/15 01:56:00.000   30.531688163  114.357271672    28.6558   6  34   0.0840   0.0835   0.1904   0.0256   0.0229  -0.0723   0.00    0.0
2026/01/15 01:56:30.000   30.531688153  114.357271631    28.6397   6  35   0.0837   0.0832   0.1898   0.0255   0.0227  -0.0722   0.00    0.0
2026/01/15 01:57:00.000   30.531688132  114.357271598    28.6215   6  35   0.0835   0.0830   0.1892   0.0254   0.0225  -0.0721   0.00    0.0
2026/01/15 01:57:30.000   30.531688157  114.357271592    28.6088   6  34   0.0833   0.0828   0.1887   0.0254   0.0224  -0.0719   0.00    0.0
2026/01/15 01:58:00.000   30.531688146  114.357271569    28.6042   6  34   0.0830   0.0826   0.1881   0.0253   0.0222  -0.0718   0.00    0.0
2026/01/15 01:58:30.000   30.531688112  114.357271497    28.5936   6  35   0.0828   0.0824   0.1876   0.0252   0.0221  -0.0717   0.00    0.0
2026/01/15 01:59:00.000   30.531688078  114.357271461    28.5867   6  35   0.0826   0.0822   0.1870   0.0251   0.0219  -0.0716   0.00    0.0
2026/01/15 01:59:30.000   30.531688095  114.357271471    28.5741   6  34   0.0824   0.0820   0.1865   0.0251   0.0218  -0.0714   0.00    0.0
2026/01/15 02:00:00.000   30.531688111  114.357271456    28.5687   6  34   0.0822   0.0818   0.1860   0.0250   0.0216  -0.0713   0.00    0.0
2026/01/15 02:00:30.000   30.531688108  114.357271428    28.5567   6  34   0.0820   0.0816   0.1854   0.0249   0.0215  -0.0712   0.00    0.0
2026/01/15 02:01:00.000   30.531688091  114.357271406    28.5499   6  34   0.0817   0.0814   0.1850   0.0249   0.0214  -0.0710   0.00    0.0
2026/01/15 02:01:30.000   30.531688067  114.357271360    28.5326   6  35   0.0815   0.0812   0.1845   0.0248   0.0212  -0.0709   0.00    0.0
2026/01/15 02:02:00.000   30.531688077  114.357271369    28.5270   6  34   0.0813   0.0810   0.1840   0.0247   0.0211  -0.0708   0.00    0.0
2026/01/15 02:02:30.000   30.531688086  114.357271368    28.5210   6  34   0.0811   0.0808   0.1836   0.0247   0.0211  -0.0706   0.00    0.0
2026/01/15 02:03:00.000   30.531688098  114.357271379    28.5136   6  34   0.0809   0.0806   0.1831   0.0246   0.0210  -0.0705   0.00    0.0
2026/01/15 02:03:30.000   30.531688126  114.357271391    28.5076   6  34   0.0807   0.0804   0.1827   0.0246   0.0209  -0.0704   0.00    0.0
2026/01/15 02:04:00.000   30.531688127  114.357271354    28.4983   6  35   0.0805   0.0802   0.1822   0.0245   0.0208  -0.0702   0.00    0.0
2026/01/15 02:04:30.000   30.531688095  114.357271318    28.4862   6  35   0.0803   0.0800   0.1818   0.0244   0.0206  -0.0701   0.00    0.0
2026/01/15 02:05:00.000   30.531688059  114.357271292    28.4771   6  35   0.0801   0.0798   0.1813   0.0243   0.0205  -0.0700   0.00    0.0
2026/01/15 02:05:30.000   30.531688058  114.357271331    28.4728   6  34   0.0799   0.0796   0.1809   0.0243   0.0205  -0.0699   0.00    0.0
2026/01/15 02:06:00.000   30.531688048  114.357271327    28.4650   6  34   0.0797   0.0795   0.1804   0.0242   0.0204  -0.0697   0.00    0.0
2026/01/15 02:06:30.000   30.531688036  114.357271344    28.4590   6  34   0.0795   0.0793   0.1800   0.0241   0.0203  -0.0696   0.00    0.0
2026/01/15 02:07:00.000   30.531688029  114.357271381    28.4471   6  34   0.0793   0.0791   0.1796   0.0241   0.0203  -0.0695   0.00    0.0
2026/01/15 02:07:30.000   30.531688016  114.357271375    28.4400   6  34   0.0792   0.0789   0.1791   0.0240   0.0202  -0.0694   0.00    0.0
2026/01/15 02:08:00.000   30.531687991  114.357271315    28.4289   6  34   0.0790   0.0787   0.1787   0.0239   0.0201  -0.0692   0.00    0.0
2026/01/15 02:08:30.000   30.531688003  114.357271335    28.4246   6  33   0.0788   0.0786   0.1783   0.0238   0.0200  -0.0691   0.00    0.0
2026/01/15 02:09:00.000   30.531687989  114.357271277    28.4117   6  35   0.0786   0.0784   0.1779   0.0238   0.0199  -0.0690   0.00    0.0
2026/01/15 02:09:30.000   30.531687991  114.357271287    28.4121   6  34   0.0784   0.0782   0.1774   0.0237   0.0199  -0.0688   0.00    0.0
2026/01/15 02:10:00.000   30.531687987  114.357271290    28.4202   6  34   0.0782   0.0780   0.1770   0.0236   0.0199  -0.0687   0.00    0.0
2026/01/15 02:10:30.000   30.531687981  114.357271305    28.4214   6  34   0.0781   0.0778   0.1766   0.0235   0.0198  -0.0686   0.00    0.0
2026/01/15 02:11:00.000   30.531687954  114.357271358    28.4233   6  34   0.0779   0.0777   0.1762   0.0234   0.0198  -0.0684   0.00    0.0
2026/01/15 02:11:30.000   30.531687940  114.357271408    28.4238   6  34   0.0777   0.0775   0.1758   0.0234   0.0198  -0.0683   0.00    0.0
2026/01/15 02:12:00.000   30.531687924  114.357271388    28.4255   6  34   0.0775   0.0773   0.1754   0.0233   0.0197  -0.0682   0.00    0.0
2026/01/15 02:12:30.000   30.531687929  114.357271391    28.4251   6  34   0.0774   0.0771   0.1750   0.0232   0.0197  -0.0680   0.00    0.0
2026/01/15 02:13:00.000   30.531687906  114.357271355    28.4211   6  35   0.0772   0.0770   0.1745   0.0231   0.0196  -0.0679   0.00    0.0
2026/01/15 02:13:30.000   30.531687878  114.357271331    28.4186   6  35   0.0770   0.0768   0.1741   0.0230   0.0196  -0.0678   0.00    0.0
2026/01/15 02:14:00.000   30.531687847  114.357271348    28.4184   6  34   0.0768   0.0766   0.1737   0.0229   0.0196  -0.0677   0.00    0.0
2026/01/15 02:14:30.000   30.531687827  114.357271327    28.4111   6  35   0.0767   0.0764   0.1733   0.0228   0.0195  -0.0675   0.00    0.0
2026/01/15 02:15:00.000   30.531687833  114.357271326    28.4106   6  34   0.0765   0.0763   0.1729   0.0228   0.0195  -0.0674   0.00    0.0
2026/01/15 02:15:30.000   30.531687847  114.357271340    28.4069   6  34   0.0763   0.0761   0.1725   0.0227   0.0195  -0.0673   0.00    0.0
2026/01/15 02:16:00.000   30.531687842  114.357271357    28.4032   6  34   0.0761   0.0759   0.1721   0.0226   0.0195  -0.0672   0.00    0.0
2026/01/15 02:16:30.000   30.531687844  114.357271332    28.4007   6  34   0.0760   0.0758   0.1717   0.0225   0.0195  -0.0670   0.00    0.0
2026/01/15 02:17:00.000   30.531687823  114.357271286    28.3934   6  34   0.0758   0.0756   0.1713   0.0224   0.0194  -0.0669   0.00    0.0
2026/01/15 02:17:30.000   30.531687818  114.357271281    28.3931   6  33   0.0757   0.0755   0.1709   0.0223   0.0194  -0.0668   0.00    0.0
2026/01/15 02:18:00.000   30.531687813  114.357271290    28.3923   6  33   0.0755   0.0753   0.1706   0.0223   0.0194  -0.0667   0.00    0.0
2026/01/15 02:18:30.000   30.531687803  114.357271281    28.3850   6  32   0.0754   0.0751   0.1703   0.0222   0.0193  -0.0666   0.00    0.0
2026/01/15 02:19:00.000   30.531687776  114.357271229    28.3750   6  33   0.0752   0.0750   0.1699   0.0221   0.0192  -0.0665   0.00    0.0
2026/01/15 02:19:30.000   30.531687764  114.357271174    28.3636   6  33   0.0751   0.0748   0.1696   0.0221   0.0191  -0.0665   0.00    0.0
2026/01/15 02:20:00.000   30.531687749  114.357271166    28.3615   6  32   0.0749   0.0747   0.1693   0.0220   0.0190  -0.0664   0.00    0.0
2026/01/15 02:20:30.000   30.531687757  114.357271155    28.3540   6  32   0.0748   0.0745   0.1690   0.0219   0.0189  -0.0663   0.00    0.0
2026/01/15 02:21:00.000   30.531687750  114.357271165    28.3513   6  32   0.0746   0.0744   0.1687   0.0219   0.0189  -0.0663   0.00    0.0
2026/01/15 02:21:30.000   30.531687713  114.357271163    28.3459   6  32   0.0745   0.0742   0.1684   0.0218   0.0188  -0.0662   0.00    0.0
2026/01/15 02:22:00.000   30.531687693  114.357271175    28.3440   6  32   0.0744   0.0741   0.1681   0.0218   0.0187  -0.0661   0.00    0.0
2026/01/15 02:22:30.000   30.531687687  114.357271177    28.3361   6  32   0.0742   0.0739   0.1678   0.0217   0.0187  -0.0660   0.00    0.0
2026/01/15 02:23:00.000   30.531687689  114.357271189    28.3313   6  32   0.0741   0.0738   0.1674   0.0216   0.0186  -0.0660   0.00    0.0
2026/01/15 02:23:30.000   30.531687665  114.357271179    28.3288   6  32   0.0739   0.0736   0.1671   0.0216   0.0185  -0.0659   0.00    0.0
2026/01/15 02:24:00.000   30.531687645  114.357271157    28.3283   6  32   0.0738   0.0735   0.1668   0.0215   0.0185  -0.0658   0.00    0.0
2026/01/15 02:24:30.000   30.531687626  114.357271108    28.3180   6  33   0.0737   0.0733   0.1665   0.0214   0.0184  -0.0658   0.00    0.0
2026/01/15 02:25:00.000   30.531687592  114.357271076    28.3113   6  33   0.0735   0.0732   0.1662   0.0214   0.0183  -0.0657   0.00    0.0
2026/01/15 02:25:30.000   30.531687559  114.357271050    28.3018   6  33   0.0734   0.0730   0.1659   0.0213   0.0182  -0.0656   0.00    0.0
2026/01/15 02:26:00.000   30.531687509  114.357271000    28.2930   6  33   0.0733   0.0729   0.1656   0.0212   0.0181  -0.0656   0.00    0.0
2026/01/15 02:26:30.000   30.531687483  114.357270939    28.2844   6  33   0.0731   0.0727   0.1652   0.0212   0.0181  -0.0655   0.00    0.0
2026/01/15 02:27:00.000   30.531687438  114.357270875    28.2742   6  33   0.0730   0.0726   0.1649   0.0211   0.0180  -0.0654   0.00    0.0
2026/01/15 02:27:30.000   30.531687414  114.357270842    28.2632   6  33   0.0728   0.0724   0.1646   0.0210   0.0179  -0.0654   0.00    0.0
2026/01/15 02:28:00.000   30.531687392  114.357270804    28.2524   6  32   0.0727   0.0723   0.1643   0.0209   0.0179  -0.0653   0.00    0.0
2026/01/15 02:28:30.000   30.531687381  114.357270742    28.2390   6  32   0.0726   0.0722   0.1640   0.0209   0.0179  -0.0652   0.00    0.0
2026/01/15 02:29:00.000   30.531687357  114.357270706    28.2324   6  32   0.0724   0.0720   0.1638   0.0208   0.0179  -0.0652   0.00    0.0
2026/01/15 02:29:30.000   30.531687329  114.357270651    28.2200   6  32   0.0723   0.0719   0.1635   0.0207   0.0179  -0.0651   0.00    0.0
2026/01/15 02:30:00.000   30.531687299  114.357270607    28.2044   6  32   0.0722   0.0717   0.1632   0.0206   0.0178  -0.0650   0.00    0.0
2026/01/15 02:30:30.000   30.531687294  114.357270593    28.1992   6  31   0.0721   0.0716   0.1629   0.0206   0.0179  -0.0649   0.00    0.0
2026/01/15 02:31:00.000   30.531687281  114.357270562    28.1850   6  32   0.0719   0.0715   0.1626   0.0205   0.0179  -0.0649   0.00    0.0
2026/01/15 02:31:30.000   30.531687256  114.357270540    28.1752   6  32   0.0718   0.0713   0.1623   0.0204   0.0179  -0.0648   0.00    0.0
2026/01/15 02:32:00.000   30.531687214  114.357270487    28.1605   6  33   0.0717   0.0712   0.1620   0.0203   0.0178  -0.0647   0.00    0.0
2026/01/15 02:32:30.000   30.531687186  114.357270453    28.1484   6  33   0.0715   0.0711   0.1618   0.0203   0.0178  -0.0647   0.00    0.0
2026/01/15 02:33:00.000   30.531687155  114.357270417    28.1367   6  33   0.0714   0.0709   0.1615   0.0202   0.0178  -0.0646   0.00    0.0
2026/01/15 02:33:30.000   30.531687135  114.357270379    28.1194   6  34   0.0713   0.0708   0.1612   0.0201   0.0178  -0.0645   0.00    0.0
2026/01/15 02:34:00.000   30.531687107  114.357270356    28.1036   6  34   0.0711   0.0706   0.1608   0.0200   0.0178  -0.0645   0.00    0.0
2026/01/15 02:34:30.000   30.531687097  114.357270374    28.0977   6  33   0.0710   0.0705   0.1606   0.0199   0.0178  -0.0644   0.00    0.0
2026/01/15 02:35:00.000   30.531687094  114.357270369    28.0916   6  33   0.0709   0.0704   0.1603   0.0198   0.0179  -0.0644   0.00    0.0
2026/01/15 02:35:30.000   30.531687090  114.357270378    28.0854   6  33   0.0708   0.0702   0.1600   0.0198   0.0179  -0.0643   0.00    0.0
2026/01/15 02:36:00.000   30.531687074  114.357270376    28.0800   6  33   0.0706   0.0701   0.1597   0.0197   0.0179  -0.0642   0.00    0.0
2026/01/15 02:36:30.000   30.531687056  114.357270345    28.0679   6  34   0.0705   0.0700   0.1594   0.0196   0.0180  -0.0642   0.00    0.0
2026/01/15 02:37:00.000   30.531687043  114.357270333    28.0597   6  33   0.0704   0.0699   0.1591   0.0195   0.0180  -0.0641   0.00    0.0
2026/01/15 02:37:30.000   30.531687015  114.357270331    28.0580   6  33   0.0702   0.0697   0.1588   0.0194   0.0181  -0.0640   0.00    0.0
2026/01/15 02:38:00.000   30.531686987  114.357270330    28.0534   6  33   0.0701   0.0696   0.1585   0.0193   0.0181  -0.0640   0.00    0.0
2026/01/15 02:38:30.000   30.531686975  114.357270332    28.0462   6  33   0.0700   0.0695   0.1582   0.0192   0.0182  -0.0639   0.00    0.0
2026/01/15 02:39:00.000   30.531686947  114.357270316    28.0336   6  34   0.0699   0.0693   0.1579   0.0192   0.0182  -0.0638   0.00    0.0
2026/01/15 02:39:30.000   30.531686930  114.357270323    28.0237   6  34   0.0697   0.0692   0.1576   0.0191   0.0182  -0.0638   0.00    0.0
2026/01/15 02:40:00.000   30.531686904  114.357270299    28.0134   6  34   0.0696   0.0691   0.1573   0.0190   0.0182  -0.0637   0.00    0.0
2026/01/15 02:40:30.000   30.531686887  114.357270299    28.0035   6  35   0.0695   0.0690   0.1570   0.0189   0.0183  -0.0636   0.00    0.0
2026/01/15 02:41:00.000   30.531686868  114.357270304    27.9928   6  35   0.0694   0.0688   0.1567   0.0188   0.0183  -0.0636   0.00    0.0
2026/01/15 02:41:30.000   30.531686855  114.357270322    27.9785   6  34   0.0692   0.0687   0.1564   0.0187   0.0183  -0.0635   0.00    0.0
2026/01/15 02:42:00.000   30.531686830  114.357270322    27.9693   6  34   0.0691   0.0686   0.1561   0.0186   0.0184  -0.0634   0.00    0.0
2026/01/15 02:42:30.000   30.531686802  114.357270337    27.9586   6  35   0.0690   0.0684   0.1558   0.0185   0.0184  -0.0634   0.00    0.0
2026/01/15 02:43:00.000   30.531686764  114.357270322    27.9499   6  35   0.0689   0.0683   0.1555   0.0184   0.0184  -0.0633   0.00    0.0
2026/01/15 02:43:30.000   30.531686747  114.357270326    27.9379   6  35   0.0687   0.0682   0.1552   0.0183   0.0185  -0.0633   0.00    0.0
2026/01/15 02:44:00.000   30.531686713  114.357270315    27.9236   6  35   0.0686   0.0681   0.1549   0.0182   0.0185  -0.0632   0.00    0.0
2026/01/15 02:44:30.000   30.531686687  114.357270323    27.9129   6  35   0.0685   0.0680   0.1546   0.0181   0.0186  -0.0631   0.00    0.0
2026/01/15 02:45:00.000   30.531686669  114.357270317    27.9042   6  35   0.0684   0.0678   0.1543   0.0181   0.0186  -0.0631   0.00    0.0
2026/01/15 02:45:30.000   30.531686640  114.357270304    27.8928   6  35   0.0683   0.0677   0.1540   0.0180   0.0187  -0.0630   0.00    0.0
2026/01/15 02:46:00.000   30.531686622  114.357270322    27.8857   6  34   0.0681   0.0676   0.1537   0.0179   0.0188  -0.0629   0.00    0.0
2026/01/15 02:46:30.000   30.531686602  114.357270327    27.8790   6  34   0.0680   0.0675   0.1534   0.0178   0.0189  -0.0628   0.00    0.0
2026/01/15 02:47:00.000   30.531686607  114.357270351    27.8777   6  34   0.0679   0.0674   0.1532   0.0177   0.0190  -0.0628   0.00    0.0
2026/01/15 02:47:30.000   30.531686591  114.357270338    27.8669   6  35   0.0678   0.0672   0.1529   0.0176   0.0190  -0.0627   0.00    0.0
2026/01/15 02:48:00.000   30.531686567  114.357270322    27.8600   6  35   0.0677   0.0671   0.1526   0.0175   0.0191  -0.0626   0.00    0.0
2026/01/15 02:48:30.000   30.531686547  114.357270322    27.8522   6  35   0.0675   0.0670   0.1524   0.0174   0.0192  -0.0625   0.00    0.0
2026/01/15 02:49:00.000   30.531686529  114.357270328    27.8437   6  35   0.0674   0.0669   0.1521   0.0173   0.0192  -0.0625   0.00    0.0
2026/01/15 02:49:30.000   30.531686500  114.357270322    27.8360   6  35   0.0673   0.0668   0.1518   0.0172   0.0193  -0.0624   0.00    0.0
2026/01/15 02:50:00.000   30.531686472  114.357270311    27.8274   6  35   0.0672   0.0667   0.1516   0.0171   0.0194  -0.0623   0.00    0.0
2026/01/15 02:50:30.000   30.531686459  114.357270306    27.8216   6  35   0.0671   0.0665   0.1513   0.0170   0.0195  -0.0622   0.00    0.0
2026/01/15 02:51:00.000   30.531686444  114.357270326    27.8157   6  34   0.0669   0.0664   0.1511   0.0169   0.0196  -0.0621   0.00    0.0
2026/01/15 02:51:30.000   30.531686418  114.357270328    27.8150   6  34   0.0668   0.0663   0.1508   0.0168   0.0197  -0.0621   0.00    0.0
2026/01/15 02:52:00.000   30.531686397  114.357270305    27.8130   6  34   0.0667   0.0662   0.1506   0.0167   0.0198  -0.0620   0.00    0.0
2026/01/15 02:52:30.000   30.531686394  114.357270318    27.8131   6  34   0.0666   0.0661   0.1503   0.0166   0.0199  -0.0619   0.00    0.0
2026/01/15 02:53:00.000   30.531686395  114.357270298    27.8102   6  34   0.0665   0.0660   0.1501   0.0165   0.0200  -0.0618   0.00    0.0
2026/01/15 02:53:30.000   30.531686379  114.357270321    27.8079   6  35   0.0664   0.0659   0.1498   0.0165   0.0200  -0.0617   0.00    0.0
2026/01/15 02:54:00.000   30.531686363  114.357270333    27.8064   6  35   0.0662   0.0658   0.1495   0.0164   0.0201  -0.0616   0.00    0.0
2026/01/15 02:54:30.000   30.531686344  114.357270338    27.8059   6  35   0.0661   0.0656   0.1492   0.0164   0.0201  -0.0615   0.00    0.0
2026/01/15 02:55:00.000   30.531686323  114.357270373    27.8083   6  35   0.0660   0.0655   0.1489   0.0163   0.0201  -0.0614   0.00    0.0
2026/01/15 02:55:30.000   30.531686307  114.357270418    27.8074   6  34   0.0659   0.0654   0.1487   0.0162   0.0202  -0.0612   0.00    0.0
2026/01/15 02:56:00.000   30.531686290  114.357270449    27.8103   6  34   0.0657   0.0653   0.1484   0.0162   0.0203  -0.0611   0.00    0.0
2026/01/15 02:56:30.000   30.531686279  114.357270473    27.8072   6  34   0.0656   0.0652   0.1482   0.0161   0.0204  -0.0610   0.00    0.0
2026/01/15 02:57:00.000   30.531686252  114.357270463    27.8036   6  34   0.0655   0.0651   0.1479   0.0161   0.0205  -0.0609   0.00    0.0
2026/01/15 02:57:30.000   30.531686224  114.357270473    27.8068   6  34   0.0654   0.0650   0.1476   0.0160   0.0206  -0.0608   0.00    0.0
2026/01/15 02:58:00.000   30.531686206  114.357270471    27.8037   6  34   0.0653   0.0649   0.1474   0.0160   0.0207  -0.0607   0.00    0.0
2026/01/15 02:58:30.000   30.531686186  114.357270476    27.8042   6  34   0.0651   0.0648   0.1471   0.0159   0.0208  -0.0605   0.00    0.0
2026/01/15 02:59:00.000   30.531686152  114.357270487    27.8025   6  34   0.0650   0.0647   0.1469   0.0159   0.0209  -0.0604   0.00    0.0
2026/01/15 02:59:30.000   30.531686134  114.357270487    27.8018   6  34   0.0649   0.0646   0.1466   0.0158   0.0210  -0.0603   0.00    0.0
2026/01/15 03:00:00.000   30.531686112  114.357270502    27.8007   6  34   0.0648   0.0645   0.1463   0.0158   0.0211  -0.0602   0.00    0.0
2026/01/15 03:00:30.000   30.531686086  114.357270533    27.8020   6  34   0.0647   0.0644   0.1461   0.0157   0.0212  -0.0601   0.00    0.0
2026/01/15 03:01:00.000   30.531686073  114.357270543    27.8030   6  33   0.0646   0.0643   0.1458   0.0156   0.0213  -0.0600   0.00    0.0
2026/01/15 03:01:30.000   30.531686051  114.357270549    27.8003   6  33   0.0644   0.0642   0.1456   0.0156   0.0214  -0.0598   0.00    0.0
2026/01/15 03:02:00.000   30.531686027  114.357270573    27.8044   6  34   0.0643   0.0641   0.1453   0.0155   0.0215  -0.0597   0.00    0.0
2026/01/15 03:02:30.000   30.531686000  114.357270598    27.8055   6  35   0.0642   0.0640   0.1450   0.0155   0.0216  -0.0596   0.00    0.0
2026/01/15 03:03:00.000   30.531685986  114.357270621    27.8071   6  34   0.0641   0.0639   0.1448   0.0154   0.0217  -0.0595   0.00    0.0
2026/01/15 03:03:30.000   30.531685990  114.357270640    27.8031   6  35   0.0640   0.0638   0.1445   0.0153   0.0218  -0.0594   0.00    0.0
2026/01/15 03:04:00.000   30.531685983  114.357270687    27.7990   6  34   0.0638   0.0637   0.1443   0.0153   0.0219  -0.0592   0.00    0.0
2026/01/15 03:04:30.000   30.531685975  114.357270705    27.7961   6  34   0.0637   0.0636   0.1440   0.0152   0.0220  -0.0591   0.00    0.0
2026/01/15 03:05:00.000   30.531685959  114.357270736    27.7960   6  34   0.0636   0.0635   0.1438   0.0152   0.0221  -0.0590   0.00    0.0
2026/01/15 03:05:30.000   30.531685953  114.357270763    27.7921   6  34   0.0635   0.0634   0.1435   0.0151   0.0222  -0.0589   0.00    0.0
2026/01/15 03:06:00.000   30.531685939  114.357270808    27.7898   6  34   0.0634   0.0633   0.1433   0.0150   0.0223  -0.0588   0.00    0.0
2026/01/15 03:06:30.000   30.531685939  114.357270833    27.7832   6  35   0.0633   0.0632   0.1430   0.0150   0.0224  -0.0587   0.00    0.0
2026/01/15 03:07:00.000   30.531685918  114.357270873    27.7855   6  34   0.0631   0.0631   0.1428   0.0149   0.0225  -0.0586   0.00    0.0
2026/01/15 03:07:30.000   30.531685892  114.357270906    27.7859   6  34   0.0630   0.0630   0.1425   0.0148   0.0226  -0.0584   0.00    0.0
2026/01/15 03:08:00.000   30.531685864  114.357270948    27.7874   6  34   0.0629   0.0629   0.1423   0.0148   0.0227  -0.0583   0.00    0.0
2026/01/15 03:08:30.000   30.531685850  114.357270977    27.7848   6  34   0.0628   0.0628   0.1420   0.0147   0.0228  -0.0582   0.00    0.0
2026/01/15 03:09:00.000   30.531685839  114.357271003    27.7801   6  34   0.0627   0.0627   0.1418   0.0146   0.0229  -0.0581   0.00    0.0
2026/01/15 03:09:30.000   30.531685812  114.357271024    27.7814   6  33   0.0626   0.0626   0.1416   0.0146   0.0230  -0.0580   0.00    0.0
2026/01/15 03:10:00.000   30.531685796  114.357271053    27.7825   6  33   0.0625   0.0626   0.1414   0.0145   0.0231  -0.0579   0.00    0.0
2026/01/15 03:10:30.000   30.531685781  114.357271079    27.7829   6  33   0.0624   0.0625   0.1411   0.0144   0.0232  -0.0577   0.00    0.0
2026/01/15 03:11:00.000   30.531685782  114.357271108    27.7863   6  33   0.0622   0.0624   0.1409   0.0143   0.0233  -0.0576   0.00    0.0
2026/01/15 03:11:30.000   30.531685760  114.357271135    27.7900   6  34   0.0621   0.0623   0.1407   0.0143   0.0234  -0.0575   0.00    0.0
2026/01/15 03:12:00.000   30.531685753  114.357271169    27.7912   6  34   0.0620   0.0622   0.1405   0.0142   0.0235  -0.0574   0.00    0.0
2026/01/15 03:12:30.000   30.531685746  114.357271229    27.7915   6  34   0.0619   0.0621   0.1403   0.0141   0.0236  -0.0572   0.00    0.0
2026/01/15 03:13:00.000   30.531685729  114.357271235    27.7911   6  34   0.0618   0.0620   0.1401   0.0141   0.0237  -0.0571   0.00    0.0
2026/01/15 03:13:30.000   30.531685724  114.357271224    27.7871   6  34   0.0617   0.0619   0.1398   0.0140   0.0238  -0.0570   0.00    0.0
2026/01/15 03:14:00.000   30.531685698  114.357271233    27.7898   6  33   0.0616   0.0618   0.1396   0.0139   0.0239  -0.0569   0.00    0.0
2026/01/15 03:14:30.000   30.531685688  114.357271251    27.7903   6  33   0.0615   0.0617   0.1394   0.0138   0.0240  -0.0568   0.00    0.0
2026/01/15 03:15:00.000   30.531685668  114.357271257    27.7902   6  33   0.0614   0.0616   0.1392   0.0138   0.0241  -0.0566   0.00    0.0
2026/01/15 03:15:30.000   30.531685657  114.357271272    27.7908   6  33   0.0613   0.0615   0.1390   0.0137   0.0242  -0.0565   0.00    0.0
2026/01/15 03:16:00.000   30.531685633  114.357271284    27.7939   6  33   0.0611   0.0615   0.1388   0.0136   0.0243  -0.0564   0.00    0.0
2026/01/15 03:16:30.000   30.531685617  114.357271291    27.7932   6  33   0.0610   0.0614   0.1386   0.0135   0.0243  -0.0563   0.00    0.0
2026/01/15 03:17:00.000   30.531685595  114.357271295    27.7931   6  33   0.0609   0.0613   0.1384   0.0134   0.0244  -0.0562   0.00    0.0
2026/01/15 03:17:30.000   30.531685574  114.357271302    27.7934   6  34   0.0608   0.0612   0.1382   0.0134   0.0245  -0.0561   0.00    0.0
2026/01/15 03:18:00.000   30.531685546  114.357271309    27.7944   6  34   0.0607   0.0611   0.1379   0.0133   0.0246  -0.0559   0.00    0.0
2026/01/15 03:18:30.000   30.531685537  114.357271317    27.7957   6  34   0.0606   0.0610   0.1377   0.0132   0.0247  -0.0558   0.00    0.0
2026/01/15 03:19:00.000   30.531685525  114.357271342    27.7971   6  34   0.0605   0.0609   0.1375   0.0131   0.0248  -0.0557   0.00    0.0
2026/01/15 03:19:30.000   30.531685502  114.357271348    27.7985   6  34   0.0604   0.0608   0.1373   0.0131   0.0248  -0.0556   0.00    0.0
2026/01/15 03:20:00.000   30.531685485  114.357271344    27.7990   6  34   0.0603   0.0607   0.1371   0.0130   0.0249  -0.0554   0.00    0.0
2026/01/15 03:20:30.000   30.531685468  114.357271355    27.8010   6  34   0.0602   0.0607   0.1370   0.0129   0.0250  -0.0553   0.00    0.0
2026/01/15 03:21:00.000   30.531685448  114.357271374    27.8061   6  34   0.0601   0.0606   0.1368   0.0128   0.0251  -0.0552   0.00    0.0
2026/01/15 03:21:30.000   30.531685437  114.357271394    27.8095   6  34   0.0600   0.0605   0.1366   0.0127   0.0252  -0.0551   0.00    0.0
2026/01/15 03:22:00.000   30.531685437  114.357271393    27.8101   6  34   0.0599   0.0604   0.1364   0.0126   0.0252  -0.0549   0.00    0.0
2026/01/15 03:22:30.000   30.531685428  114.357271396    27.8107   6  34   0.0598   0.0603   0.1362   0.0126   0.0253  -0.0548   0.00    0.0
2026/01/15 03:23:00.000   30.531685422  114.357271411    27.8101   6  34   0.0597   0.0602   0.1360   0.0125   0.0254  -0.0547   0.00    0.0
2026/01/15 03:23:30.000   30.531685405  114.357271427    27.8117   6  34   0.0596   0.0601   0.1358   0.0124   0.0255  -0.0546   0.00    0.0
2026/01/15 03:24:00.000   30.531685402  114.357271445    27.8137   6  34   0.0595   0.0601   0.1356   0.0123   0.0256  -0.0544   0.00    0.0
2026/01/15 03:24:30.000   30.531685393  114.357271475    27.8134   6  34   0.0594   0.0600   0.1354   0.0122   0.0256  -0.0543   0.00    0.0
2026/01/15 03:25:00.000   30.531685380  114.357271500    27.8141   6  34   0.0593   0.0599   0.1352   0.0121   0.0257  -0.0542   0.00    0.0
2026/01/15 03:25:30.000   30.531685362  114.357271530    27.8155   6  34   0.0592   0.0598   0.1350   0.0120   0.0258  -0.0541   0.00    0.0
2026/01/15 03:26:00.000   30.531685353  114.357271557    27.8189   6  34   0.0591   0.0597   0.1348   0.0120   0.0259  -0.0539   0.00    0.0
2026/01/15 03:26:30.000   30.531685353  114.357271590    27.8181   6  34   0.0590   0.0596   0.1347   0.0119   0.0259  -0.0538   0.00    0.0
2026/01/15 03:27:00.000   30.531685335  114.357271622    27.8183   6  34   0.0589   0.0595   0.1345   0.0118   0.0260  -0.0537   0.00    0.0
2026/01/15 03:27:30.000   30.531685315  114.357271655    27.8197   6  34   0.0588   0.0595   0.1343   0.0117   0.0261  -0.0536   0.00    0.0
2026/01/15 03:28:00.000   30.531685305  114.357271679    27.8200   6  33   0.0587   0.0594   0.1341   0.0116   0.0262  -0.0535   0.00    0.0
