% program   : RTKPOST ver.demo5 b34d
% inp file  : E:\Master courses\SNDP-PROJECT\New_Data\obs\RNXDATA\WUH200CHN_R_20260150000_01D_30S_MO.obs
% inp file  : E:\Master courses\SNDP-PROJECT\New_Data\nav\BRDC00IGS_R_20260150000_01D_MN.rnx
% inp file  : E:\Master courses\SNDP-PROJECT\New_Data\DATA_FINAL_ANT_EXTRA\COD0MGXFIN_20260150000_01D_05M_ORB.SP3
% inp file  : E:\Master courses\SNDP\SNDP-PROJECT\1_DATA\HKWS_OP71_data\IGS0OPSFIN_20260150000_01D_30S_CLK.CLK
% obs start : 2026/01/15 00:00:00.0 GPST (week2401 345600.0s)
% obs end   : 2026/01/15 01:00:00.0 GPST (week2401 349200.0s)
% pos mode  : PPP Static
% solution  : Forward
% elev mask : 15.0 deg
% dynamics  : off
% tidecorr  : off
% tropo opt : Saastamoinen
% ephemeris : Broadcast+SBAS
% navi sys  : GPS Galileo BDS
% antenna1  : JAVRINGANT_G5T  NONE  ( 0.0000  0.0000  0.1206)
%
% (lat/lon/height=WGS84/ellipsoidal,Q=1:fix,2:float,3:sbas,4:dgps,5:single,6:ppp,ns=# of satellites)
%  GPST                  latitude(deg) longitude(deg)  height(m)   Q  ns   sdn(m)   sde(m)   sdu(m)  sdne(m)  sdeu(m)  sdun(m) age(s)  ratio
2026/01/15 00:00:00.000   30.531684718  114.357277798    30.7187   6  21   1.8226   1.7087   4.4912   0.4587   1.6898  -1.8639   0.00    0.0
2026/01/15 00:00:30.000   30.531689747  114.357276082    30.7896   6  21   1.2897   1.2104   3.1812   0.3239   1.1986  -1.3198   0.00    0.0
2026/01/15 00:01:00.000   30.531690268  114.357279229    31.9352   6  21   1.0530   0.9894   2.5979   0.2646   0.9802  -1.0774   0.00    0.0
2026/01/15 00:01:30.000   30.531690689  114.357281342    32.3597   6  21   0.9117   0.8577   2.2494   0.2293   0.8499  -0.9325   0.00    0.0
2026/01/15 00:02:00.000   30.531690755  114.357283057    32.5522   6  21   0.8152   0.7678   2.0113   0.2052   0.7610  -0.8334   0.00    0.0
2026/01/15 00:02:30.000   30.531690403  114.357284372    32.7347   6  21   0.7439   0.7015   1.8352   0.1875   0.6953  -0.7602   0.00    0.0
2026/01/15 00:03:00.000   30.531692039  114.357283395    32.1528   6  21   0.6899   0.6358   1.6542   0.1879   0.6026  -0.6911   0.00    0.0
2026/01/15 00:03:30.000   30.531692753  114.357284776    32.4578   6  21   0.6464   0.5863   1.5191   0.1841   0.5371  -0.6381   0.00    0.0
2026/01/15 00:04:00.000   30.531693005  114.357284139    32.0818   6  21   0.6088   0.5475   1.4211   0.1803   0.4907  -0.5936   0.00    0.0
2026/01/15 00:04:30.000   30.531692042  114.357282926    31.9064   6  21   0.5771   0.5156   1.3401   0.1757   0.4540  -0.5570   0.00    0.0
2026/01/15 00:05:00.000   30.531692833  114.357282712    31.5849   6  21   0.5499   0.4888   1.2714   0.1708   0.4240  -0.5263   0.00    0.0
2026/01/15 00:05:30.000   30.531693161  114.357282751    31.3191   6  21   0.5262   0.4659   1.2124   0.1661   0.3991  -0.5000   0.00    0.0
2026/01/15 00:06:00.000   30.531693245  114.357282565    31.2253   6  21   0.5053   0.4460   1.1608   0.1615   0.3779  -0.4771   0.00    0.0
2026/01/15 00:06:30.000   30.531692543  114.357281742    31.0488   6  21   0.4867   0.4286   1.1152   0.1572   0.3597  -0.4571   0.00    0.0
2026/01/15 00:07:00.000   30.531692164  114.357281494    31.0842   6  21   0.4700   0.4130   1.0746   0.1531   0.3438  -0.4393   0.00    0.0
2026/01/15 00:07:30.000   30.531691501  114.357281718    31.2278   6  21   0.4549   0.3991   1.0380   0.1493   0.3298  -0.4233   0.00    0.0
2026/01/15 00:08:00.000   30.531691791  114.357281495    31.2476   6  22   0.4403   0.3845   1.0002   0.1404   0.3126  -0.4132   0.00    0.0
2026/01/15 00:08:30.000   30.531692154  114.357280860    31.0775   6  22   0.4273   0.3715   0.9665   0.1330   0.2975  -0.4037   0.00    0.0
2026/01/15 00:09:00.000   30.531692536  114.357281294    31.0098   6  22   0.4154   0.3598   0.9360   0.1266   0.2843  -0.3948   0.00    0.0
2026/01/15 00:09:30.000   30.531692462  114.357281334    30.9421   6  22   0.4036   0.3479   0.9034   0.1250   0.2665  -0.3809   0.00    0.0
2026/01/15 00:10:00.000   30.531692909  114.357280933    30.8451   6  23   0.3926   0.3371   0.8723   0.1232   0.2506  -0.3693   0.00    0.0
2026/01/15 00:10:30.000   30.531692949  114.357280805    30.7716   6  22   0.3835   0.3285   0.8498   0.1185   0.2419  -0.3624   0.00    0.0
2026/01/15 00:11:00.000   30.531693063  114.357280699    30.7349   6  22   0.3750   0.3205   0.8290   0.1142   0.2341  -0.3558   0.00    0.0
2026/01/15 00:11:30.000   30.531693414  114.357280813    30.6568   6  22   0.3670   0.3131   0.8097   0.1104   0.2269  -0.3496   0.00    0.0
2026/01/15 00:12:00.000   30.531693649  114.357280784    30.5147   6  22   0.3596   0.3062   0.7916   0.1069   0.2204  -0.3436   0.00    0.0
2026/01/15 00:12:30.000   30.531693927  114.357280945    30.5205   6  22   0.3526   0.2998   0.7747   0.1037   0.2143  -0.3378   0.00    0.0
2026/01/15 00:13:00.000   30.531694004  114.357280785    30.5340   6  22   0.3459   0.2941   0.7608   0.0985   0.2108  -0.3341   0.00    0.0
2026/01/15 00:13:30.000   30.531694220  114.357280633    30.4333   6  23   0.3394   0.2879   0.7447   0.0947   0.2039  -0.3295   0.00    0.0
2026/01/15 00:14:00.000   30.531694492  114.357280355    30.3629   6  23   0.3333   0.2821   0.7296   0.0912   0.1975  -0.3250   0.00    0.0
2026/01/15 00:14:30.000   30.531694477  114.357280241    30.3483   6  23   0.3275   0.2766   0.7154   0.0880   0.1917  -0.3207   0.00    0.0
2026/01/15 00:15:00.000   30.531694553  114.357279976    30.2917   6  23   0.3221   0.2715   0.7020   0.0850   0.1863  -0.3164   0.00    0.0
2026/01/15 00:15:30.000   30.531694742  114.357280225    30.2662   6  24   0.3162   0.2661   0.6866   0.0843   0.1784  -0.3102   0.00    0.0
2026/01/15 00:16:00.000   30.531694722  114.357280265    30.2914   6  23   0.3107   0.2617   0.6742   0.0827   0.1740  -0.3051   0.00    0.0
2026/01/15 00:16:30.000   30.531694843  114.357279812    30.2039   6  24   0.3053   0.2569   0.6605   0.0820   0.1673  -0.2995   0.00    0.0
2026/01/15 00:17:00.000   30.531694940  114.357279523    30.1217   6  24   0.3003   0.2524   0.6477   0.0812   0.1611  -0.2942   0.00    0.0
2026/01/15 00:17:30.000   30.531695068  114.357279258    30.0569   6  24   0.2954   0.2481   0.6356   0.0804   0.1553  -0.2892   0.00    0.0
2026/01/15 00:18:00.000   30.531695155  114.357279312    30.0291   6  24   0.2908   0.2440   0.6242   0.0797   0.1500  -0.2845   0.00    0.0
2026/01/15 00:18:30.000   30.531695146  114.357279430    30.0532   6  24   0.2864   0.2402   0.6134   0.0789   0.1450  -0.2799   0.00    0.0
2026/01/15 00:19:00.000   30.531695222  114.357279359    30.0713   6  24   0.2822   0.2365   0.6031   0.0780   0.1404  -0.2756   0.00    0.0
2026/01/15 00:19:30.000   30.531695251  114.357279423    30.0858   6  23   0.2786   0.2334   0.5950   0.0760   0.1381  -0.2727   0.00    0.0
2026/01/15 00:20:00.000   30.531695372  114.357279593    30.0836   6  24   0.2747   0.2300   0.5856   0.0753   0.1340  -0.2687   0.00    0.0
2026/01/15 00:20:30.000   30.531695423  114.357279474    30.1110   6  24   0.2709   0.2268   0.5767   0.0745   0.1302  -0.2648   0.00    0.0
2026/01/15 00:21:00.000   30.531695397  114.357279351    30.1117   6  24   0.2673   0.2237   0.5682   0.0738   0.1266  -0.2610   0.00    0.0
2026/01/15 00:21:30.000   30.531695463  114.357279239    30.0984   6  24   0.2638   0.2208   0.5600   0.0731   0.1233  -0.2575   0.00    0.0
2026/01/15 00:22:00.000   30.531695474  114.357279112    30.0529   6  24   0.2605   0.2180   0.5522   0.0723   0.1201  -0.2540   0.00    0.0
2026/01/15 00:22:30.000   30.531695361  114.357278989    30.0183   6  24   0.2572   0.2153   0.5447   0.0716   0.1171  -0.2507   0.00    0.0
2026/01/15 00:23:00.000   30.531695412  114.357278819    29.9823   6  24   0.2541   0.2127   0.5375   0.0709   0.1144  -0.2474   0.00    0.0
2026/01/15 00:23:30.000   30.531695323  114.357278705    29.9565   6  24   0.2510   0.2101   0.5306   0.0701   0.1117  -0.2443   0.00    0.0
2026/01/15 00:24:00.000   30.531695228  114.357278652    29.9544   6  24   0.2481   0.2077   0.5239   0.0694   0.1093  -0.2413   0.00    0.0
2026/01/15 00:24:30.000   30.531695181  114.357278550    29.9267   6  24   0.2453   0.2054   0.5176   0.0687   0.1069  -0.2385   0.00    0.0
2026/01/15 00:25:00.000   30.531694793  114.357278554    29.9671   6  24   0.2420   0.2035   0.5113   0.0676   0.1075  -0.2346   0.00    0.0
2026/01/15 00:25:30.000   30.531694521  114.357278437    29.9645   6  24   0.2388   0.2016   0.5053   0.0665   0.1080  -0.2308   0.00    0.0
2026/01/15 00:26:00.000   30.531694269  114.357278237    29.9516   6  25   0.2354   0.1997   0.4984   0.0664   0.1070  -0.2263   0.00    0.0
2026/01/15 00:26:30.000   30.531694247  114.357278034    29.8551   6  25   0.2321   0.1977   0.4918   0.0663   0.1061  -0.2220   0.00    0.0
2026/01/15 00:27:00.000   30.531694168  114.357277915    29.8191   6  25   0.2290   0.1959   0.4855   0.0661   0.1052  -0.2179   0.00    0.0
2026/01/15 00:27:30.000   30.531694325  114.357277813    29.7590   6  25   0.2260   0.1940   0.4794   0.0659   0.1043  -0.2140   0.00    0.0
2026/01/15 00:28:00.000   30.531694279  114.357277745    29.7647   6  24   0.2233   0.1923   0.4736   0.0659   0.1036  -0.2101   0.00    0.0
2026/01/15 00:28:30.000   30.531694243  114.357277681    29.7962   6  24   0.2207   0.1906   0.4681   0.0658   0.1029  -0.2063   0.00    0.0
2026/01/15 00:29:00.000   30.531694224  114.357277609    29.8103   6  24   0.2181   0.1889   0.4628   0.0657   0.1023  -0.2027   0.00    0.0
2026/01/15 00:29:30.000   30.531694147  114.357277644    29.8607   6  24   0.2157   0.1873   0.4577   0.0656   0.1017  -0.1993   0.00    0.0
2026/01/15 00:30:00.000   30.531694046  114.357277658    29.8895   6  24   0.2133   0.1858   0.4528   0.0655   0.1011  -0.1960   0.00    0.0
2026/01/15 00:30:30.000   30.531694042  114.357277478    29.9122   6  24   0.2111   0.1842   0.4480   0.0654   0.1005  -0.1928   0.00    0.0
2026/01/15 00:31:00.000   30.531693944  114.357277555    29.9429   6  24   0.2089   0.1827   0.4435   0.0652   0.0999  -0.1897   0.00    0.0
2026/01/15 00:31:30.000   30.531693863  114.357277475    29.9816   6  24   0.2068   0.1813   0.4390   0.0651   0.0994  -0.1868   0.00    0.0
2026/01/15 00:32:00.000   30.531693838  114.357277542    29.9885   6  24   0.2047   0.1799   0.4347   0.0649   0.0988  -0.1840   0.00    0.0
2026/01/15 00:32:30.000   30.531693730  114.357277525    30.0165   6  24   0.2027   0.1785   0.4305   0.0648   0.0983  -0.1812   0.00    0.0
2026/01/15 00:33:00.000   30.531693877  114.357277526    30.0088   6  24   0.2008   0.1772   0.4265   0.0646   0.0978  -0.1786   0.00    0.0
2026/01/15 00:33:30.000   30.531693896  114.357277496    30.0148   6  24   0.1989   0.1758   0.4226   0.0644   0.0973  -0.1761   0.00    0.0
2026/01/15 00:34:00.000   30.531693840  114.357277425    30.0107   6  24   0.1971   0.1746   0.4188   0.0643   0.0969  -0.1736   0.00    0.0
2026/01/15 00:34:30.000   30.531693937  114.357277462    30.0164   6  24   0.1953   0.1733   0.4151   0.0641   0.0964  -0.1713   0.00    0.0
2026/01/15 00:35:00.000   30.531693972  114.357277461    30.0380   6  24   0.1936   0.1721   0.4115   0.0639   0.0960  -0.1690   0.00    0.0
2026/01/15 00:35:30.000   30.531693961  114.357277508    30.0410   6  24   0.1919   0.1709   0.4080   0.0637   0.0955  -0.1668   0.00    0.0
2026/01/15 00:36:00.000   30.531693946  114.357277469    30.0589   6  24   0.1903   0.1697   0.4046   0.0635   0.0951  -0.1646   0.00    0.0
2026/01/15 00:36:30.000   30.531694030  114.357277427    30.0432   6  24   0.1887   0.1686   0.4013   0.0633   0.0947  -0.1626   0.00    0.0
2026/01/15 00:37:00.000   30.531693925  114.357277401    30.0747   6  24   0.1871   0.1674   0.3980   0.0631   0.0943  -0.1606   0.00    0.0
2026/01/15 00:37:30.000   30.531693869  114.357277362    30.0828   6  24   0.1856   0.1663   0.3949   0.0629   0.0938  -0.1586   0.00    0.0
2026/01/15 00:38:00.000   30.531693820  114.357277308    30.1042   6  24   0.1841   0.1652   0.3918   0.0627   0.0935  -0.1567   0.00    0.0
2026/01/15 00:38:30.000   30.531693769  114.357277240    30.1000   6  24   0.1827   0.1642   0.3889   0.0624   0.0931  -0.1549   0.00    0.0
2026/01/15 00:39:00.000   30.531693835  114.357277312    30.1170   6  24   0.1813   0.1632   0.3860   0.0622   0.0927  -0.1531   0.00    0.0
2026/01/15 00:39:30.000   30.531693859  114.357277294    30.1452   6  24   0.1799   0.1621   0.3831   0.0620   0.0923  -0.1514   0.00    0.0
2026/01/15 00:40:00.000   30.531693867  114.357277386    30.1763   6  24   0.1786   0.1611   0.3804   0.0618   0.0919  -0.1498   0.00    0.0
2026/01/15 00:40:30.000   30.531693893  114.357277475    30.2020   6  24   0.1773   0.1602   0.3777   0.0616   0.0916  -0.1482   0.00    0.0
2026/01/15 00:41:00.000   30.531693905  114.357277538    30.2113   6  24   0.1760   0.1592   0.3750   0.0614   0.0912  -0.1466   0.00    0.0
2026/01/15 00:41:30.000   30.531693935  114.357277510    30.2203   6  23   0.1748   0.1583   0.3728   0.0613   0.0906  -0.1454   0.00    0.0
2026/01/15 00:42:00.000   30.531693952  114.357277426    30.2297   6  23   0.1737   0.1574   0.3706   0.0612   0.0901  -0.1443   0.00    0.0
2026/01/15 00:42:30.000   30.531694042  114.357277475    30.2227   6  23   0.1726   0.1565   0.3685   0.0611   0.0895  -0.1432   0.00    0.0
2026/01/15 00:43:00.000   30.531694079  114.357277498    30.2336   6  23   0.1716   0.1557   0.3664   0.0610   0.0890  -0.1421   0.00    0.0
2026/01/15 00:43:30.000   30.531694117  114.357277478    30.2293   6  23   0.1705   0.1548   0.3643   0.0609   0.0884  -0.1411   0.00    0.0
2026/01/15 00:44:00.000   30.531694121  114.357277474    30.2409   6  23   0.1695   0.1540   0.3623   0.0608   0.0879  -0.1400   0.00    0.0
2026/01/15 00:44:30.000   30.531694175  114.357277524    30.2392   6  23   0.1684   0.1531   0.3603   0.0607   0.0874  -0.1390   0.00    0.0
2026/01/15 00:45:00.000   30.531694200  114.357277535    30.2491   6  23   0.1674   0.1523   0.3583   0.0606   0.0869  -0.1380   0.00    0.0
2026/01/15 00:45:30.000   30.531694214  114.357277606    30.2502   6  23   0.1665   0.1515   0.3564   0.0604   0.0865  -0.1371   0.00    0.0
2026/01/15 00:46:00.000   30.531694161  114.357277557    30.2550   6  23   0.1655   0.1507   0.3545   0.0603   0.0860  -0.1361   0.00    0.0
2026/01/15 00:46:30.000   30.531694135  114.357277541    30.2470   6  24   0.1645   0.1500   0.3524   0.0601   0.0855  -0.1353   0.00    0.0
2026/01/15 00:47:00.000   30.531694124  114.357277568    30.2452   6  24   0.1635   0.1492   0.3505   0.0599   0.0849  -0.1345   0.00    0.0
2026/01/15 00:47:30.000   30.531694076  114.357277481    30.2324   6  24   0.1626   0.1484   0.3485   0.0598   0.0844  -0.1337   0.00    0.0
2026/01/15 00:48:00.000   30.531694059  114.357277480    30.2373   6  23   0.1616   0.1477   0.3467   0.0596   0.0838  -0.1328   0.00    0.0
2026/01/15 00:48:30.000   30.531694140  114.357277476    30.2464   6  23   0.1607   0.1470   0.3449   0.0594   0.0832  -0.1320   0.00    0.0
2026/01/15 00:49:00.000   30.531694120  114.357277514    30.2784   6  23   0.1598   0.1463   0.3432   0.0591   0.0827  -0.1313   0.00    0.0
2026/01/15 00:49:30.000   30.531694132  114.357277506    30.2935   6  23   0.1589   0.1456   0.3414   0.0589   0.0821  -0.1305   0.00    0.0
2026/01/15 00:50:00.000   30.531694158  114.357277500    30.3114   6  23   0.1580   0.1449   0.3397   0.0587   0.0816  -0.1297   0.00    0.0
2026/01/15 00:50:30.000   30.531694146  114.357277528    30.3041   6  23   0.1572   0.1442   0.3381   0.0585   0.0810  -0.1290   0.00    0.0
2026/01/15 00:51:00.000   30.531694159  114.357277546    30.3280   6  23   0.1563   0.1436   0.3364   0.0583   0.0805  -0.1283   0.00    0.0
2026/01/15 00:51:30.000   30.531694122  114.357277519    30.3441   6  23   0.1555   0.1429   0.3348   0.0581   0.0800  -0.1276   0.00    0.0
2026/01/15 00:52:00.000   30.531694138  114.357277539    30.3529   6  23   0.1546   0.1423   0.3332   0.0578   0.0795  -0.1269   0.00    0.0
2026/01/15 00:52:30.000   30.531694146  114.357277581    30.3604   6  23   0.1538   0.1416   0.3317   0.0576   0.0790  -0.1262   0.00    0.0
2026/01/15 00:53:00.000   30.531694140  114.357277498    30.3643   6  23   0.1530   0.1410   0.3301   0.0574   0.0786  -0.1255   0.00    0.0
2026/01/15 00:53:30.000   30.531694100  114.357277433    30.3731   6  23   0.1522   0.1404   0.3286   0.0572   0.0781  -0.1248   0.00    0.0
2026/01/15 00:54:00.000   30.531694113  114.357277459    30.3672   6  23   0.1514   0.1398   0.3271   0.0570   0.0777  -0.1242   0.00    0.0
2026/01/15 00:54:30.000   30.531694049  114.357277465    30.3672   6  23   0.1506   0.1392   0.3257   0.0567   0.0772  -0.1235   0.00    0.0
2026/01/15 00:55:00.000   30.531694075  114.357277512    30.3815   6  23   0.1499   0.1386   0.3242   0.0565   0.0768  -0.1229   0.00    0.0
2026/01/15 00:55:30.000   30.531694203  114.357277349    30.3698   6  24   0.1491   0.1378   0.3226   0.0561   0.0760  -0.1222   0.00    0.0
2026/01/15 00:56:00.000   30.531694247  114.357277414    30.3659   6  23   0.1483   0.1372   0.3212   0.0558   0.0756  -0.1216   0.00    0.0
2026/01/15 00:56:30.000   30.531694255  114.357277391    30.3472   6  23   0.1476   0.1367   0.3198   0.0556   0.0752  -0.1210   0.00    0.0
2026/01/15 00:57:00.000   30.531694291  114.357277324    30.3468   6  23   0.1468   0.1361   0.3184   0.0554   0.0748  -0.1204   0.00    0.0
2026/01/15 00:57:30.000   30.531694379  114.357277278    30.3502   6  24   0.1461   0.1354   0.3169   0.0550   0.0741  -0.1198   0.00    0.0
2026/01/15 00:58:00.000   30.531694432  114.357277138    30.3523   6  25   0.1453   0.1346   0.3154   0.0545   0.0735  -0.1191   0.00    0.0
2026/01/15 00:58:30.000   30.531694524  114.357277062    30.3464   6  24   0.1446   0.1340   0.3139   0.0541   0.0728  -0.1185   0.00    0.0
2026/01/15 00:59:00.000   30.531694642  114.357277025    30.3418   6  24   0.1438   0.1333   0.3124   0.0537   0.0721  -0.1179   0.00    0.0
2026/01/15 00:59:30.000   30.531694621  114.357276884    30.3463   6  25   0.1431   0.1326   0.3110   0.0533   0.0715  -0.1173   0.00    0.0
2026/01/15 01:00:00.000   30.531694742  114.357276906    30.3363   6  24   0.1424   0.1319   0.3096   0.0529   0.0709  -0.1166   0.00    0.0
