% program   : RTKPOST ver.demo5 b34d
% inp file  : E:\Master courses\SNDP-PROJECT\New_Data\obs\RNXDATA\WUH200CHN_R_20260150000_01D_30S_MO.obs
% inp file  : E:\Master courses\SNDP-PROJECT\New_Data\nav\BRDC00IGS_R_20260150000_01D_MN.rnx
% inp file  : E:\Master courses\SNDP-PROJECT\New_Data\DATA_FINAL_ANT_EXTRA\COD0MGXFIN_20260150000_01D_05M_ORB.SP3
% inp file  : E:\Master courses\SNDP\SNDP-PROJECT\1_DATA\HKWS_OP71_data\IGS0OPSFIN_20260150000_01D_30S_CLK.CLK
% obs start : 2026/01/15 00:00:00.0 GPST (week2401 345600.0s)
% obs end   : 2026/01/15 08:00:00.0 GPST (week2401 374400.0s)
% pos mode  : PPP Static
% solution  : Forward
% elev mask : 15.0 deg
% dynamics  : off
% tidecorr  : off
% tropo opt : Saastamoinen
% ephemeris : Broadcast+SBAS
% navi sys  : GPS Galileo BDS
% antenna1  : JAVRINGANT_G5T  NONE  ( 0.0000  0.0000  0.1206)
%
% (lat/lon/height=WGS84/ellipsoidal,Q=1:fix,2:float,3:sbas,4:dgps,5:single,6:ppp,ns=# of satellites)
%  GPST                  latitude(deg) longitude(deg)  height(m)   Q  ns   sdn(m)   sde(m)   sdu(m)  sdne(m)  sdeu(m)  sdun(m) age(s)  ratio
2026/01/15 00:00:00.000   30.531681926  114.357278192    31.4782   6  23   1.6460   1.4761   3.8120   0.3248   1.1894  -1.5413   0.00    0.0
2026/01/15 00:00:30.000   30.531688098  114.357271300    30.1563   6  23   1.1645   1.0453   2.6983   0.2295   0.8441  -1.0901   0.00    0.0
2026/01/15 00:01:00.000   30.531689238  114.357273665    30.9844   6  23   0.9507   0.8543   2.2027   0.1875   0.6909  -0.8891   0.00    0.0
2026/01/15 00:01:30.000   30.531689644  114.357276694    31.6114   6  23   0.8232   0.7404   1.9067   0.1625   0.5996  -0.7689   0.00    0.0
2026/01/15 00:02:00.000   30.531689899  114.357278028    31.6781   6  23   0.7360   0.6626   1.7043   0.1454   0.5373  -0.6867   0.00    0.0
2026/01/15 00:02:30.000   30.531689523  114.357279420    31.8856   6  23   0.6716   0.6053   1.5547   0.1329   0.4914  -0.6258   0.00    0.0
2026/01/15 00:03:00.000   30.531690029  114.357279436    31.5770   6  23   0.6216   0.5607   1.4383   0.1232   0.4557  -0.5785   0.00    0.0
2026/01/15 00:03:30.000   30.531690246  114.357280840    31.8644   6  23   0.5812   0.5248   1.3444   0.1154   0.4270  -0.5402   0.00    0.0
2026/01/15 00:04:00.000   30.531690647  114.357280772    31.8058   6  23   0.5478   0.4951   1.2664   0.1089   0.4033  -0.5084   0.00    0.0
2026/01/15 00:04:30.000   30.531690116  114.357280169    31.7743   6  23   0.5194   0.4700   1.2005   0.1035   0.3832  -0.4815   0.00    0.0
2026/01/15 00:05:00.000   30.531691037  114.357280311    31.6053   6  23   0.4951   0.4484   1.1436   0.0988   0.3659  -0.4583   0.00    0.0
2026/01/15 00:05:30.000   30.531691210  114.357280465    31.4215   6  23   0.4738   0.4296   1.0940   0.0948   0.3509  -0.4380   0.00    0.0
2026/01/15 00:06:00.000   30.531691366  114.357280474    31.3528   6  23   0.4550   0.4130   1.0501   0.0912   0.3376  -0.4201   0.00    0.0
2026/01/15 00:06:30.000   30.531690891  114.357279987    31.1910   6  23   0.4383   0.3982   1.0110   0.0880   0.3258  -0.4041   0.00    0.0
2026/01/15 00:07:00.000   30.531690485  114.357279799    31.2221   6  23   0.4233   0.3849   0.9759   0.0852   0.3152  -0.3897   0.00    0.0
2026/01/15 00:07:30.000   30.531689915  114.357280069    31.3650   6  23   0.4097   0.3729   0.9440   0.0827   0.3056  -0.3766   0.00    0.0
2026/01/15 00:08:00.000   30.531689569  114.357279816    31.4277   6  24   0.3967   0.3609   0.9128   0.0764   0.2938  -0.3666   0.00    0.0
2026/01/15 00:08:30.000   30.531689275  114.357279209    31.3219   6  24   0.3848   0.3500   0.8844   0.0708   0.2834  -0.3573   0.00    0.0
2026/01/15 00:09:00.000   30.531689329  114.357279682    31.2483   6  24   0.3739   0.3400   0.8585   0.0659   0.2740  -0.3485   0.00    0.0
2026/01/15 00:09:30.000   30.531689062  114.357279827    31.1695   6  24   0.3632   0.3296   0.8308   0.0675   0.2603  -0.3357   0.00    0.0
2026/01/15 00:10:00.000   30.531689060  114.357279420    31.1074   6  25   0.3532   0.3201   0.8042   0.0683   0.2482  -0.3250   0.00    0.0
2026/01/15 00:10:30.000   30.531688904  114.357279409    31.0160   6  24   0.3446   0.3125   0.7844   0.0643   0.2418  -0.3182   0.00    0.0
2026/01/15 00:11:00.000   30.531688795  114.357279344    30.9852   6  24   0.3367   0.3054   0.7660   0.0607   0.2359  -0.3118   0.00    0.0
2026/01/15 00:11:30.000   30.531688792  114.357279405    30.9417   6  24   0.3292   0.2988   0.7487   0.0573   0.2305  -0.3056   0.00    0.0
2026/01/15 00:12:00.000   30.531688731  114.357279404    30.8160   6  24   0.3223   0.2926   0.7325   0.0542   0.2254  -0.2998   0.00    0.0
2026/01/15 00:12:30.000   30.531688777  114.357279535    30.8381   6  24   0.3157   0.2868   0.7173   0.0514   0.2207  -0.2942   0.00    0.0
2026/01/15 00:13:00.000   30.531688699  114.357279430    30.8641   6  24   0.3094   0.2818   0.7044   0.0453   0.2179  -0.2904   0.00    0.0
2026/01/15 00:13:30.000   30.531688826  114.357279351    30.7678   6  25   0.3034   0.2762   0.6897   0.0410   0.2124  -0.2859   0.00    0.0
2026/01/15 00:14:00.000   30.531688906  114.357279105    30.7110   6  25   0.2977   0.2709   0.6759   0.0369   0.2072  -0.2815   0.00    0.0
2026/01/15 00:14:30.000   30.531688861  114.357279070    30.6843   6  25   0.2923   0.2659   0.6629   0.0329   0.2025  -0.2773   0.00    0.0
2026/01/15 00:15:00.000   30.531688807  114.357278857    30.6343   6  25   0.2872   0.2612   0.6506   0.0290   0.1980  -0.2732   0.00    0.0
2026/01/15 00:15:30.000   30.531688825  114.357279083    30.6175   6  26   0.2818   0.2562   0.6366   0.0302   0.1915  -0.2676   0.00    0.0
2026/01/15 00:16:00.000   30.531688633  114.357279121    30.6600   6  25   0.2768   0.2521   0.6252   0.0294   0.1877  -0.2628   0.00    0.0
2026/01/15 00:16:30.000   30.531688688  114.357278685    30.5839   6  26   0.2719   0.2476   0.6128   0.0302   0.1820  -0.2577   0.00    0.0
2026/01/15 00:17:00.000   30.531688695  114.357278415    30.5083   6  26   0.2673   0.2434   0.6011   0.0308   0.1768  -0.2529   0.00    0.0
2026/01/15 00:17:30.000   30.531688630  114.357278156    30.4530   6  26   0.2629   0.2394   0.5900   0.0313   0.1720  -0.2483   0.00    0.0
2026/01/15 00:18:00.000   30.531688540  114.357278181    30.4412   6  26   0.2587   0.2356   0.5795   0.0316   0.1675  -0.2440   0.00    0.0
2026/01/15 00:18:30.000   30.531688517  114.357278341    30.4453   6  26   0.2547   0.2319   0.5695   0.0318   0.1633  -0.2398   0.00    0.0
2026/01/15 00:19:00.000   30.531688569  114.357278309    30.4448   6  26   0.2509   0.2285   0.5601   0.0320   0.1593  -0.2359   0.00    0.0
2026/01/15 00:19:30.000   30.531688586  114.357278427    30.4448   6  25   0.2475   0.2255   0.5524   0.0294   0.1572  -0.2332   0.00    0.0
2026/01/15 00:20:00.000   30.531688660  114.357278620    30.4297   6  26   0.2440   0.2224   0.5437   0.0296   0.1536  -0.2295   0.00    0.0
2026/01/15 00:20:30.000   30.531688623  114.357278508    30.4561   6  26   0.2406   0.2193   0.5354   0.0298   0.1503  -0.2260   0.00    0.0
2026/01/15 00:21:00.000   30.531688514  114.357278394    30.4585   6  26   0.2373   0.2164   0.5275   0.0298   0.1472  -0.2226   0.00    0.0
2026/01/15 00:21:30.000   30.531688456  114.357278280    30.4523   6  26   0.2341   0.2136   0.5199   0.0298   0.1443  -0.2193   0.00    0.0
2026/01/15 00:22:00.000   30.531688543  114.357278202    30.3897   6  26   0.2311   0.2110   0.5126   0.0298   0.1415  -0.2162   0.00    0.0
2026/01/15 00:22:30.000   30.531688486  114.357278123    30.3410   6  26   0.2282   0.2084   0.5056   0.0297   0.1388  -0.2132   0.00    0.0
2026/01/15 00:23:00.000   30.531688531  114.357277980    30.2965   6  26   0.2253   0.2059   0.4989   0.0296   0.1364  -0.2103   0.00    0.0
2026/01/15 00:23:30.000   30.531688432  114.357277875    30.2718   6  26   0.2226   0.2035   0.4924   0.0295   0.1340  -0.2075   0.00    0.0
2026/01/15 00:24:00.000   30.531688287  114.357277834    30.2680   6  26   0.2200   0.2012   0.4862   0.0294   0.1318  -0.2048   0.00    0.0
2026/01/15 00:24:30.000   30.531688125  114.357277703    30.2604   6  26   0.2174   0.1990   0.4802   0.0292   0.1296  -0.2022   0.00    0.0
2026/01/15 00:25:00.000   30.531687997  114.357277616    30.2488   6  26   0.2150   0.1969   0.4744   0.0291   0.1276  -0.1996   0.00    0.0
2026/01/15 00:25:30.000   30.531687950  114.357277443    30.2098   6  26   0.2126   0.1948   0.4689   0.0289   0.1257  -0.1972   0.00    0.0
2026/01/15 00:26:00.000   30.531687887  114.357277225    30.1730   6  27   0.2100   0.1926   0.4627   0.0303   0.1229  -0.1940   0.00    0.0
2026/01/15 00:26:30.000   30.531688009  114.357276982    30.0641   6  27   0.2075   0.1904   0.4567   0.0316   0.1202  -0.1911   0.00    0.0
2026/01/15 00:27:00.000   30.531688053  114.357276888    30.0255   6  27   0.2051   0.1884   0.4510   0.0326   0.1176  -0.1882   0.00    0.0
2026/01/15 00:27:30.000   30.531688343  114.357276672    29.9368   6  27   0.2027   0.1864   0.4455   0.0335   0.1152  -0.1854   0.00    0.0
2026/01/15 00:28:00.000   30.531688421  114.357276601    29.9282   6  26   0.2006   0.1844   0.4403   0.0344   0.1130  -0.1826   0.00    0.0
2026/01/15 00:28:30.000   30.531688556  114.357276462    29.9218   6  26   0.1985   0.1826   0.4353   0.0352   0.1108  -0.1799   0.00    0.0
2026/01/15 00:29:00.000   30.531688620  114.357276357    29.9193   6  26   0.1965   0.1808   0.4305   0.0359   0.1088  -0.1773   0.00    0.0
2026/01/15 00:29:30.000   30.531688608  114.357276339    29.9482   6  26   0.1945   0.1790   0.4258   0.0364   0.1069  -0.1748   0.00    0.0
2026/01/15 00:30:00.000   30.531688615  114.357276293    29.9506   6  26   0.1926   0.1773   0.4213   0.0370   0.1050  -0.1723   0.00    0.0
2026/01/15 00:30:30.000   30.531688689  114.357276087    29.9560   6  26   0.1908   0.1757   0.4170   0.0374   0.1033  -0.1700   0.00    0.0
2026/01/15 00:31:00.000   30.531688655  114.357276212    29.9896   6  26   0.1890   0.1741   0.4127   0.0378   0.1016  -0.1678   0.00    0.0
2026/01/15 00:31:30.000   30.531688631  114.357276113    30.0147   6  26   0.1872   0.1725   0.4086   0.0381   0.1000  -0.1656   0.00    0.0
2026/01/15 00:32:00.000   30.531688713  114.357276174    30.0103   6  26   0.1855   0.1710   0.4047   0.0384   0.0984  -0.1635   0.00    0.0
2026/01/15 00:32:30.000   30.531688687  114.357276061    30.0071   6  26   0.1839   0.1695   0.4008   0.0386   0.0969  -0.1614   0.00    0.0
2026/01/15 00:33:00.000   30.531688886  114.357276022    29.9886   6  26   0.1822   0.1681   0.3971   0.0388   0.0955  -0.1595   0.00    0.0
2026/01/15 00:33:30.000   30.531688932  114.357275985    29.9920   6  26   0.1807   0.1667   0.3934   0.0390   0.0942  -0.1576   0.00    0.0
2026/01/15 00:34:00.000   30.531688952  114.357275912    29.9805   6  26   0.1791   0.1653   0.3899   0.0391   0.0929  -0.1557   0.00    0.0
2026/01/15 00:34:30.000   30.531689068  114.357275910    29.9785   6  26   0.1776   0.1640   0.3865   0.0392   0.0916  -0.1539   0.00    0.0
2026/01/15 00:35:00.000   30.531689152  114.357275860    29.9848   6  26   0.1762   0.1627   0.3831   0.0393   0.0904  -0.1522   0.00    0.0
2026/01/15 00:35:30.000   30.531689187  114.357275928    29.9895   6  26   0.1747   0.1614   0.3799   0.0394   0.0893  -0.1505   0.00    0.0
2026/01/15 00:36:00.000   30.531689199  114.357275843    29.9955   6  26   0.1733   0.1602   0.3767   0.0394   0.0881  -0.1489   0.00    0.0
2026/01/15 00:36:30.000   30.531689336  114.357275795    29.9753   6  26   0.1720   0.1590   0.3736   0.0395   0.0871  -0.1473   0.00    0.0
2026/01/15 00:37:00.000   30.531689290  114.357275640    29.9718   6  26   0.1706   0.1578   0.3706   0.0395   0.0860  -0.1457   0.00    0.0
2026/01/15 00:37:30.000   30.531689274  114.357275569    29.9693   6  26   0.1693   0.1566   0.3677   0.0395   0.0850  -0.1442   0.00    0.0
2026/01/15 00:38:00.000   30.531689294  114.357275492    29.9769   6  26   0.1680   0.1555   0.3648   0.0395   0.0841  -0.1428   0.00    0.0
2026/01/15 00:38:30.000   30.531689327  114.357275413    29.9614   6  26   0.1668   0.1544   0.3620   0.0394   0.0832  -0.1413   0.00    0.0
2026/01/15 00:39:00.000   30.531689438  114.357275447    29.9675   6  26   0.1656   0.1533   0.3593   0.0394   0.0823  -0.1400   0.00    0.0
2026/01/15 00:39:30.000   30.531689527  114.357275396    29.9812   6  26   0.1644   0.1523   0.3567   0.0393   0.0814  -0.1387   0.00    0.0
2026/01/15 00:40:00.000   30.531689562  114.357275442    30.0008   6  26   0.1632   0.1512   0.3542   0.0393   0.0806  -0.1374   0.00    0.0
2026/01/15 00:40:30.000   30.531689613  114.357275484    30.0161   6  26   0.1621   0.1502   0.3517   0.0392   0.0798  -0.1361   0.00    0.0
2026/01/15 00:41:00.000   30.531689627  114.357275464    30.0115   6  26   0.1609   0.1492   0.3493   0.0391   0.0791  -0.1349   0.00    0.0
2026/01/15 00:41:30.000   30.531689690  114.357275380    30.0075   6  25   0.1599   0.1483   0.3472   0.0392   0.0781  -0.1340   0.00    0.0
2026/01/15 00:42:00.000   30.531689775  114.357275302    30.0110   6  25   0.1589   0.1474   0.3451   0.0393   0.0771  -0.1331   0.00    0.0
2026/01/15 00:42:30.000   30.531689895  114.357275358    30.0062   6  25   0.1580   0.1465   0.3431   0.0394   0.0762  -0.1322   0.00    0.0
2026/01/15 00:43:00.000   30.531689962  114.357275377    30.0150   6  25   0.1570   0.1456   0.3411   0.0395   0.0753  -0.1314   0.00    0.0
2026/01/15 00:43:30.000   30.531690018  114.357275321    30.0049   6  25   0.1561   0.1447   0.3392   0.0395   0.0745  -0.1305   0.00    0.0
2026/01/15 00:44:00.000   30.531690091  114.357275296    30.0052   6  25   0.1552   0.1438   0.3373   0.0395   0.0737  -0.1297   0.00    0.0
2026/01/15 00:44:30.000   30.531690190  114.357275285    29.9891   6  25   0.1542   0.1430   0.3354   0.0396   0.0729  -0.1289   0.00    0.0
2026/01/15 00:45:00.000   30.531690270  114.357275286    29.9919   6  25   0.1533   0.1422   0.3336   0.0396   0.0721  -0.1281   0.00    0.0
2026/01/15 00:45:30.000   30.531690317  114.357275290    29.9783   6  25   0.1525   0.1413   0.3317   0.0396   0.0713  -0.1274   0.00    0.0
2026/01/15 00:46:00.000   30.531690301  114.357275199    29.9720   6  25   0.1516   0.1405   0.3300   0.0396   0.0706  -0.1266   0.00    0.0
2026/01/15 00:46:30.000   30.531690330  114.357275151    29.9543   6  26   0.1507   0.1397   0.3281   0.0395   0.0699  -0.1259   0.00    0.0
2026/01/15 00:47:00.000   30.531690380  114.357275150    29.9423   6  26   0.1499   0.1390   0.3263   0.0395   0.0691  -0.1253   0.00    0.0
2026/01/15 00:47:30.000   30.531690370  114.357275080    29.9320   6  26   0.1490   0.1382   0.3244   0.0394   0.0684  -0.1246   0.00    0.0
2026/01/15 00:48:00.000   30.531690398  114.357275012    29.9200   6  25   0.1482   0.1375   0.3228   0.0393   0.0676  -0.1239   0.00    0.0
2026/01/15 00:48:30.000   30.531690505  114.357274992    29.9249   6  25   0.1474   0.1368   0.3211   0.0392   0.0669  -0.1233   0.00    0.0
2026/01/15 00:49:00.000   30.531690532  114.357275018    29.9493   6  25   0.1466   0.1361   0.3195   0.0391   0.0661  -0.1226   0.00    0.0
2026/01/15 00:49:30.000   30.531690598  114.357274996    29.9557   6  25   0.1458   0.1354   0.3179   0.0390   0.0654  -0.1219   0.00    0.0
2026/01/15 00:50:00.000   30.531690683  114.357274982    29.9653   6  25   0.1450   0.1347   0.3163   0.0389   0.0647  -0.1213   0.00    0.0
2026/01/15 00:50:30.000   30.531690691  114.357275014    29.9600   6  25   0.1442   0.1340   0.3148   0.0388   0.0640  -0.1207   0.00    0.0
2026/01/15 00:51:00.000   30.531690748  114.357274951    29.9630   6  25   0.1434   0.1333   0.3133   0.0387   0.0633  -0.1201   0.00    0.0
2026/01/15 00:51:30.000   30.531690737  114.357274854    29.9635   6  25   0.1427   0.1327   0.3118   0.0386   0.0626  -0.1195   0.00    0.0
2026/01/15 00:52:00.000   30.531690789  114.357274833    29.9612   6  25   0.1419   0.1320   0.3103   0.0385   0.0620  -0.1189   0.00    0.0
2026/01/15 00:52:30.000   30.531690824  114.357274813    29.9554   6  25   0.1412   0.1314   0.3088   0.0383   0.0614  -0.1183   0.00    0.0
2026/01/15 00:53:00.000   30.531690825  114.357274679    29.9507   6  25   0.1405   0.1308   0.3074   0.0382   0.0608  -0.1177   0.00    0.0
2026/01/15 00:53:30.000   30.531690804  114.357274570    29.9502   6  25   0.1398   0.1302   0.3060   0.0381   0.0602  -0.1171   0.00    0.0
2026/01/15 00:54:00.000   30.531690848  114.357274547    29.9334   6  25   0.1391   0.1295   0.3046   0.0379   0.0597  -0.1165   0.00    0.0
2026/01/15 00:54:30.000   30.531690829  114.357274517    29.9225   6  25   0.1384   0.1289   0.3032   0.0378   0.0591  -0.1160   0.00    0.0
2026/01/15 00:55:00.000   30.531690868  114.357274502    29.9250   6  25   0.1377   0.1284   0.3019   0.0377   0.0586  -0.1154   0.00    0.0
2026/01/15 00:55:30.000   30.531690970  114.357274380    29.9162   6  25   0.1370   0.1278   0.3005   0.0375   0.0581  -0.1149   0.00    0.0
2026/01/15 00:56:00.000   30.531691037  114.357274393    29.9020   6  25   0.1363   0.1272   0.2992   0.0374   0.0576  -0.1143   0.00    0.0
2026/01/15 00:56:30.000   30.531691087  114.357274355    29.8771   6  25   0.1357   0.1266   0.2979   0.0372   0.0571  -0.1138   0.00    0.0
2026/01/15 00:57:00.000   30.531691152  114.357274277    29.8717   6  25   0.1350   0.1261   0.2966   0.0371   0.0566  -0.1133   0.00    0.0
2026/01/15 00:57:30.000   30.531691213  114.357274258    29.8767   6  25   0.1344   0.1255   0.2954   0.0369   0.0562  -0.1128   0.00    0.0
2026/01/15 00:58:00.000   30.531691304  114.357274235    29.8778   6  25   0.1337   0.1250   0.2941   0.0368   0.0557  -0.1123   0.00    0.0
2026/01/15 00:58:30.000   30.531691370  114.357274193    29.8752   6  25   0.1331   0.1244   0.2929   0.0366   0.0553  -0.1118   0.00    0.0
2026/01/15 00:59:00.000   30.531691455  114.357274179    29.8721   6  25   0.1325   0.1239   0.2917   0.0365   0.0549  -0.1113   0.00    0.0
2026/01/15 00:59:30.000   30.531691474  114.357274156    29.8748   6  25   0.1319   0.1234   0.2905   0.0363   0.0545  -0.1108   0.00    0.0
2026/01/15 01:00:00.000   30.531691552  114.357274193    29.8656   6  25   0.1312   0.1228   0.2893   0.0361   0.0541  -0.1103   0.00    0.0
2026/01/15 01:00:30.000   30.531691567  114.357274158    29.8698   6  25   0.1306   0.1223   0.2881   0.0360   0.0537  -0.1098   0.00    0.0
2026/01/15 01:01:00.000   30.531691521  114.357274048    29.8616   6  25   0.1300   0.1218   0.2870   0.0358   0.0533  -0.1093   0.00    0.0
2026/01/15 01:01:30.000   30.531691505  114.357274008    29.8508   6  25   0.1295   0.1213   0.2858   0.0357   0.0530  -0.1089   0.00    0.0
2026/01/15 01:02:00.000   30.531691517  114.357273930    29.8227   6  25   0.1289   0.1208   0.2847   0.0355   0.0526  -0.1084   0.00    0.0
2026/01/15 01:02:30.000   30.531691445  114.357273962    29.8156   6  25   0.1283   0.1203   0.2836   0.0353   0.0523  -0.1080   0.00    0.0
2026/01/15 01:03:00.000   30.531691387  114.357273941    29.8119   6  25   0.1277   0.1198   0.2825   0.0352   0.0520  -0.1075   0.00    0.0
2026/01/15 01:03:30.000   30.531691368  114.357273936    29.8015   6  25   0.1272   0.1194   0.2814   0.0350   0.0516  -0.1071   0.00    0.0
2026/01/15 01:04:00.000   30.531691335  114.357273885    29.7894   6  25   0.1266   0.1189   0.2803   0.0349   0.0513  -0.1066   0.00    0.0
2026/01/15 01:04:30.000   30.531691344  114.357273817    29.7922   6  24   0.1261   0.1184   0.2793   0.0347   0.0511  -0.1061   0.00    0.0
2026/01/15 01:05:00.000   30.531691326  114.357273779    29.7887   6  25   0.1255   0.1180   0.2782   0.0345   0.0508  -0.1057   0.00    0.0
2026/01/15 01:05:30.000   30.531691349  114.357273747    29.7781   6  25   0.1250   0.1175   0.2772   0.0344   0.0505  -0.1053   0.00    0.0
2026/01/15 01:06:00.000   30.531691334  114.357273708    29.7763   6  25   0.1244   0.1171   0.2761   0.0342   0.0502  -0.1049   0.00    0.0
2026/01/15 01:06:30.000   30.531691347  114.357273709    29.7662   6  25   0.1239   0.1166   0.2751   0.0340   0.0500  -0.1045   0.00    0.0
2026/01/15 01:07:00.000   30.531691328  114.357273668    29.7687   6  25   0.1234   0.1162   0.2741   0.0339   0.0497  -0.1041   0.00    0.0
2026/01/15 01:07:30.000   30.531691339  114.357273653    29.7529   6  25   0.1229   0.1157   0.2731   0.0337   0.0495  -0.1037   0.00    0.0
2026/01/15 01:08:00.000   30.531691325  114.357273544    29.7299   6  25   0.1224   0.1153   0.2721   0.0335   0.0492  -0.1033   0.00    0.0
2026/01/15 01:08:30.000   30.531691277  114.357273472    29.7125   6  25   0.1219   0.1149   0.2711   0.0334   0.0490  -0.1029   0.00    0.0
2026/01/15 01:09:00.000   30.531691205  114.357273430    29.6976   6  25   0.1214   0.1145   0.2701   0.0332   0.0488  -0.1025   0.00    0.0
2026/01/15 01:09:30.000   30.531691216  114.357273467    29.6875   6  25   0.1209   0.1140   0.2691   0.0330   0.0485  -0.1021   0.00    0.0
2026/01/15 01:10:00.000   30.531691175  114.357273454    29.6710   6  25   0.1204   0.1136   0.2682   0.0328   0.0483  -0.1017   0.00    0.0
2026/01/15 01:10:30.000   30.531691109  114.357273406    29.6728   6  25   0.1199   0.1132   0.2672   0.0327   0.0481  -0.1013   0.00    0.0
2026/01/15 01:11:00.000   30.531691082  114.357273364    29.6649   6  25   0.1194   0.1128   0.2663   0.0325   0.0479  -0.1010   0.00    0.0
2026/01/15 01:11:30.000   30.531691098  114.357273334    29.6559   6  25   0.1189   0.1124   0.2654   0.0323   0.0477  -0.1006   0.00    0.0
2026/01/15 01:12:00.000   30.531691067  114.357273280    29.6495   6  25   0.1185   0.1120   0.2644   0.0322   0.0475  -0.1002   0.00    0.0
2026/01/15 01:12:30.000   30.531691085  114.357273298    29.6425   6  25   0.1180   0.1116   0.2635   0.0320   0.0474  -0.0999   0.00    0.0
2026/01/15 01:13:00.000   30.531691044  114.357273330    29.6532   6  25   0.1175   0.1112   0.2626   0.0318   0.0472  -0.0995   0.00    0.0
2026/01/15 01:13:30.000   30.531691003  114.357273332    29.6361   6  25   0.1171   0.1108   0.2617   0.0317   0.0470  -0.0992   0.00    0.0
2026/01/15 01:14:00.000   30.531690978  114.357273375    29.6249   6  25   0.1166   0.1105   0.2608   0.0315   0.0468  -0.0988   0.00    0.0
2026/01/15 01:14:30.000   30.531690973  114.357273400    29.6190   6  25   0.1162   0.1101   0.2599   0.0313   0.0467  -0.0985   0.00    0.0
2026/01/15 01:15:00.000   30.531690954  114.357273408    29.6075   6  25   0.1157   0.1097   0.2590   0.0312   0.0465  -0.0982   0.00    0.0
2026/01/15 01:15:30.000   30.531690916  114.357273373    29.5940   6  25   0.1153   0.1093   0.2582   0.0310   0.0464  -0.0978   0.00    0.0
2026/01/15 01:16:00.000   30.531690913  114.357273417    29.5968   6  25   0.1149   0.1090   0.2573   0.0308   0.0462  -0.0975   0.00    0.0
2026/01/15 01:16:30.000   30.531690922  114.357273436    29.5927   6  25   0.1144   0.1086   0.2564   0.0306   0.0461  -0.0972   0.00    0.0
2026/01/15 01:17:00.000   30.531690954  114.357273417    29.5835   6  25   0.1140   0.1082   0.2556   0.0305   0.0459  -0.0968   0.00    0.0
2026/01/15 01:17:30.000   30.531690956  114.357273488    29.5824   6  25   0.1136   0.1079   0.2547   0.0303   0.0458  -0.0965   0.00    0.0
2026/01/15 01:18:00.000   30.531690962  114.357273585    29.5781   6  25   0.1132   0.1075   0.2539   0.0301   0.0457  -0.0962   0.00    0.0
2026/01/15 01:18:30.000   30.531690918  114.357273569    29.5626   6  25   0.1127   0.1072   0.2531   0.0300   0.0455  -0.0959   0.00    0.0
2026/01/15 01:19:00.000   30.531690926  114.357273622    29.5591   6  25   0.1123   0.1068   0.2522   0.0298   0.0454  -0.0956   0.00    0.0
2026/01/15 01:19:30.000   30.531690942  114.357273658    29.5530   6  25   0.1119   0.1065   0.2514   0.0296   0.0453  -0.0953   0.00    0.0
2026/01/15 01:20:00.000   30.531690910  114.357273671    29.5454   6  25   0.1115   0.1062   0.2506   0.0295   0.0452  -0.0950   0.00    0.0
2026/01/15 01:20:30.000   30.531690901  114.357273671    29.5345   6  25   0.1111   0.1058   0.2498   0.0293   0.0450  -0.0947   0.00    0.0
2026/01/15 01:21:00.000   30.531690915  114.357273765    29.5260   6  25   0.1107   0.1055   0.2490   0.0291   0.0449  -0.0944   0.00    0.0
2026/01/15 01:21:30.000   30.531690907  114.357273814    29.5121   6  25   0.1103   0.1052   0.2482   0.0290   0.0448  -0.0941   0.00    0.0
2026/01/15 01:22:00.000   30.531690916  114.357273874    29.5036   6  25   0.1099   0.1048   0.2474   0.0288   0.0447  -0.0938   0.00    0.0
2026/01/15 01:22:30.000   30.531690899  114.357273846    29.4893   6  26   0.1095   0.1045   0.2466   0.0286   0.0446  -0.0935   0.00    0.0
2026/01/15 01:23:00.000   30.531690930  114.357273879    29.4734   6  25   0.1091   0.1042   0.2458   0.0284   0.0445  -0.0932   0.00    0.0
2026/01/15 01:23:30.000   30.531690884  114.357273933    29.4700   6  25   0.1088   0.1038   0.2450   0.0283   0.0444  -0.0929   0.00    0.0
2026/01/15 01:24:00.000   30.531690885  114.357273912    29.4613   6  25   0.1084   0.1035   0.2442   0.0281   0.0443  -0.0926   0.00    0.0
2026/01/15 01:24:30.000   30.531690889  114.357273912    29.4508   6  25   0.1080   0.1032   0.2435   0.0279   0.0442  -0.0924   0.00    0.0
2026/01/15 01:25:00.000   30.531690901  114.357273944    29.4456   6  25   0.1076   0.1029   0.2427   0.0278   0.0441  -0.0921   0.00    0.0
2026/01/15 01:25:30.000   30.531690893  114.357273946    29.4364   6  25   0.1073   0.1026   0.2419   0.0276   0.0440  -0.0918   0.00    0.0
2026/01/15 01:26:00.000   30.531690863  114.357273970    29.4310   6  25   0.1069   0.1023   0.2412   0.0274   0.0439  -0.0915   0.00    0.0
2026/01/15 01:26:30.000   30.531690849  114.357274009    29.4241   6  25   0.1066   0.1020   0.2404   0.0273   0.0438  -0.0913   0.00    0.0
2026/01/15 01:27:00.000   30.531690771  114.357273958    29.4142   6  26   0.1062   0.1017   0.2397   0.0271   0.0437  -0.0910   0.00    0.0
2026/01/15 01:27:30.000   30.531690724  114.357273902    29.4021   6  26   0.1058   0.1014   0.2389   0.0269   0.0436  -0.0908   0.00    0.0
2026/01/15 01:28:00.000   30.531690653  114.357273843    29.3958   6  26   0.1055   0.1011   0.2382   0.0267   0.0435  -0.0905   0.00    0.0
2026/01/15 01:28:30.000   30.531690617  114.357273888    29.4000   6  25   0.1051   0.1008   0.2375   0.0266   0.0434  -0.0903   0.00    0.0
2026/01/15 01:29:00.000   30.531690601  114.357273919    29.4043   6  25   0.1048   0.1005   0.2367   0.0264   0.0433  -0.0900   0.00    0.0
2026/01/15 01:29:30.000   30.531690580  114.357273898    29.3964   6  25   0.1044   0.1002   0.2360   0.0262   0.0432  -0.0897   0.00    0.0
2026/01/15 01:30:00.000   30.531690555  114.357273955    29.3949   6  25   0.1041   0.0999   0.2353   0.0261   0.0432  -0.0895   0.00    0.0
2026/01/15 01:30:30.000   30.531690561  114.357273995    29.3886   6  25   0.1038   0.0996   0.2345   0.0259   0.0431  -0.0893   0.00    0.0
2026/01/15 01:31:00.000   30.531690513  114.357274010    29.3876   6  25   0.1034   0.0993   0.2338   0.0258   0.0430  -0.0890   0.00    0.0
2026/01/15 01:31:30.000   30.531690493  114.357274028    29.3801   6  25   0.1031   0.0991   0.2331   0.0256   0.0429  -0.0888   0.00    0.0
2026/01/15 01:32:00.000   30.531690420  114.357273963    29.3705   6  26   0.1028   0.0988   0.2324   0.0254   0.0428  -0.0885   0.00    0.0
2026/01/15 01:32:30.000   30.531690376  114.357273920    29.3630   6  25   0.1024   0.0985   0.2317   0.0253   0.0427  -0.0883   0.00    0.0
2026/01/15 01:33:00.000   30.531690364  114.357273937    29.3448   6  25   0.1021   0.0982   0.2310   0.0251   0.0427  -0.0881   0.00    0.0
2026/01/15 01:33:30.000   30.531690352  114.357273968    29.3256   6  25   0.1018   0.0980   0.2303   0.0249   0.0426  -0.0878   0.00    0.0
2026/01/15 01:34:00.000   30.531690292  114.357273947    29.3119   6  26   0.1015   0.0977   0.2296   0.0248   0.0425  -0.0876   0.00    0.0
2026/01/15 01:34:30.000   30.531690285  114.357273971    29.2981   6  25   0.1012   0.0974   0.2289   0.0246   0.0424  -0.0874   0.00    0.0
2026/01/15 01:35:00.000   30.531690269  114.357273953    29.2905   6  25   0.1008   0.0972   0.2282   0.0245   0.0423  -0.0871   0.00    0.0
2026/01/15 01:35:30.000   30.531690238  114.357273930    29.2805   6  25   0.1005   0.0969   0.2275   0.0243   0.0423  -0.0869   0.00    0.0
2026/01/15 01:36:00.000   30.531690203  114.357273943    29.2724   6  26   0.1002   0.0966   0.2268   0.0241   0.0422  -0.0867   0.00    0.0
2026/01/15 01:36:30.000   30.531690166  114.357273927    29.2618   6  26   0.0999   0.0964   0.2261   0.0239   0.0421  -0.0865   0.00    0.0
2026/01/15 01:37:00.000   30.531690106  114.357273921    29.2570   6  26   0.0996   0.0961   0.2254   0.0238   0.0420  -0.0864   0.00    0.0
2026/01/15 01:37:30.000   30.531690088  114.357273910    29.2389   6  26   0.0993   0.0959   0.2247   0.0236   0.0419  -0.0862   0.00    0.0
2026/01/15 01:38:00.000   30.531690051  114.357273910    29.2223   6  26   0.0989   0.0956   0.2240   0.0234   0.0418  -0.0860   0.00    0.0
2026/01/15 01:38:30.000   30.531690005  114.357273897    29.2165   6  27   0.0986   0.0953   0.2233   0.0232   0.0418  -0.0858   0.00    0.0
2026/01/15 01:39:00.000   30.531689974  114.357273906    29.2053   6  27   0.0983   0.0951   0.2226   0.0231   0.0418  -0.0856   0.00    0.0
2026/01/15 01:39:30.000   30.531689901  114.357273936    29.1889   6  28   0.0980   0.0948   0.2218   0.0230   0.0416  -0.0854   0.00    0.0
2026/01/15 01:40:00.000   30.531689889  114.357273932    29.1722   6  28   0.0977   0.0945   0.2210   0.0229   0.0415  -0.0851   0.00    0.0
2026/01/15 01:40:30.000   30.531689867  114.357273923    29.1580   6  28   0.0973   0.0942   0.2203   0.0228   0.0414  -0.0849   0.00    0.0
2026/01/15 01:41:00.000   30.531689861  114.357273934    29.1418   6  28   0.0970   0.0940   0.2195   0.0227   0.0412  -0.0846   0.00    0.0
2026/01/15 01:41:30.000   30.531689848  114.357273876    29.1349   6  28   0.0967   0.0937   0.2187   0.0226   0.0411  -0.0843   0.00    0.0
2026/01/15 01:42:00.000   30.531689824  114.357273858    29.1326   6  28   0.0964   0.0934   0.2180   0.0225   0.0410  -0.0841   0.00    0.0
2026/01/15 01:42:30.000   30.531689791  114.357273858    29.1127   6  28   0.0961   0.0931   0.2172   0.0224   0.0409  -0.0839   0.00    0.0
2026/01/15 01:43:00.000   30.531689778  114.357273801    29.0947   6  28   0.0957   0.0929   0.2164   0.0223   0.0407  -0.0836   0.00    0.0
2026/01/15 01:43:30.000   30.531689788  114.357273763    29.0834   6  28   0.0954   0.0926   0.2157   0.0222   0.0406  -0.0834   0.00    0.0
2026/01/15 01:44:00.000   30.531689760  114.357273786    29.0689   6  28   0.0951   0.0923   0.2150   0.0221   0.0405  -0.0831   0.00    0.0
2026/01/15 01:44:30.000   30.531689730  114.357273803    29.0605   6  29   0.0948   0.0921   0.2142   0.0220   0.0403  -0.0828   0.00    0.0
2026/01/15 01:45:00.000   30.531689708  114.357273769    29.0595   6  29   0.0945   0.0918   0.2134   0.0220   0.0401  -0.0825   0.00    0.0
2026/01/15 01:45:30.000   30.531689687  114.357273786    29.0555   6  29   0.0942   0.0915   0.2126   0.0219   0.0399  -0.0823   0.00    0.0
2026/01/15 01:46:00.000   30.531689662  114.357273761    29.0442   6  29   0.0938   0.0913   0.2118   0.0219   0.0397  -0.0820   0.00    0.0
2026/01/15 01:46:30.000   30.531689645  114.357273688    29.0156   6  30   0.0935   0.0910   0.2110   0.0218   0.0394  -0.0817   0.00    0.0
2026/01/15 01:47:00.000   30.531689664  114.357273652    29.0023   6  29   0.0932   0.0907   0.2103   0.0218   0.0392  -0.0814   0.00    0.0
2026/01/15 01:47:30.000   30.531689660  114.357273607    28.9902   6  29   0.0929   0.0905   0.2095   0.0217   0.0391  -0.0812   0.00    0.0
2026/01/15 01:48:00.000   30.531689673  114.357273580    28.9826   6  29   0.0926   0.0902   0.2088   0.0217   0.0389  -0.0809   0.00    0.0
2026/01/15 01:48:30.000   30.531689704  114.357273604    28.9723   6  28   0.0923   0.0900   0.2081   0.0217   0.0386  -0.0807   0.00    0.0
2026/01/15 01:49:00.000   30.531689712  114.357273616    28.9629   6  28   0.0921   0.0897   0.2074   0.0216   0.0384  -0.0805   0.00    0.0
2026/01/15 01:49:30.000   30.531689735  114.357273639    28.9507   6  28   0.0918   0.0895   0.2067   0.0216   0.0382  -0.0803   0.00    0.0
2026/01/15 01:50:00.000   30.531689729  114.357273623    28.9355   6  28   0.0915   0.0892   0.2061   0.0216   0.0379  -0.0801   0.00    0.0
2026/01/15 01:50:30.000   30.531689730  114.357273626    28.9177   6  28   0.0913   0.0890   0.2054   0.0216   0.0377  -0.0800   0.00    0.0
2026/01/15 01:51:00.000   30.531689713  114.357273558    28.8968   6  29   0.0910   0.0887   0.2048   0.0215   0.0375  -0.0798   0.00    0.0
2026/01/15 01:51:30.000   30.531689703  114.357273490    28.8761   6  29   0.0907   0.0885   0.2041   0.0215   0.0372  -0.0796   0.00    0.0
2026/01/15 01:52:00.000   30.531689705  114.357273459    28.8584   6  28   0.0905   0.0882   0.2035   0.0214   0.0370  -0.0794   0.00    0.0
2026/01/15 01:52:30.000   30.531689700  114.357273439    28.8462   6  28   0.0902   0.0880   0.2029   0.0214   0.0368  -0.0793   0.00    0.0
2026/01/15 01:53:00.000   30.531689701  114.357273408    28.8372   6  28   0.0900   0.0878   0.2022   0.0214   0.0366  -0.0791   0.00    0.0
2026/01/15 01:53:30.000   30.531689699  114.357273396    28.8274   6  28   0.0897   0.0875   0.2016   0.0213   0.0364  -0.0789   0.00    0.0
2026/01/15 01:54:00.000   30.531689705  114.357273432    28.8161   6  28   0.0895   0.0873   0.2010   0.0213   0.0362  -0.0788   0.00    0.0
2026/01/15 01:54:30.000   30.531689705  114.357273400    28.8074   6  28   0.0892   0.0871   0.2004   0.0212   0.0360  -0.0786   0.00    0.0
2026/01/15 01:55:00.000   30.531689681  114.357273337    28.7829   6  29   0.0890   0.0869   0.1998   0.0212   0.0358  -0.0785   0.00    0.0
2026/01/15 01:55:30.000   30.531689656  114.357273342    28.7703   6  28   0.0887   0.0866   0.1992   0.0211   0.0356  -0.0783   0.00    0.0
2026/01/15 01:56:00.000   30.531689652  114.357273302    28.7548   6  28   0.0885   0.0864   0.1986   0.0211   0.0354  -0.0781   0.00    0.0
2026/01/15 01:56:30.000   30.531689632  114.357273254    28.7347   6  29   0.0882   0.0862   0.1980   0.0210   0.0352  -0.0780   0.00    0.0
2026/01/15 01:57:00.000   30.531689614  114.357273211    28.7117   6  29   0.0880   0.0859   0.1974   0.0210   0.0350  -0.0778   0.00    0.0
2026/01/15 01:57:30.000   30.531689639  114.357273197    28.6965   6  28   0.0878   0.0857   0.1968   0.0209   0.0349  -0.0777   0.00    0.0
2026/01/15 01:58:00.000   30.531689631  114.357273160    28.6878   6  28   0.0875   0.0855   0.1962   0.0209   0.0347  -0.0775   0.00    0.0
2026/01/15 01:58:30.000   30.531689593  114.357273077    28.6738   6  29   0.0873   0.0853   0.1956   0.0208   0.0345  -0.0774   0.00    0.0
2026/01/15 01:59:00.000   30.531689587  114.357273080    28.6701   6  28   0.0871   0.0851   0.1951   0.0207   0.0343  -0.0772   0.00    0.0
2026/01/15 01:59:30.000   30.531689600  114.357273082    28.6547   6  28   0.0868   0.0849   0.1945   0.0207   0.0342  -0.0771   0.00    0.0
2026/01/15 02:00:00.000   30.531689621  114.357273061    28.6465   6  28   0.0866   0.0847   0.1940   0.0207   0.0340  -0.0769   0.00    0.0
2026/01/15 02:00:30.000   30.531689620  114.357273030    28.6311   6  28   0.0864   0.0844   0.1934   0.0206   0.0338  -0.0768   0.00    0.0
2026/01/15 02:01:00.000   30.531689602  114.357273007    28.6222   6  28   0.0862   0.0842   0.1929   0.0206   0.0337  -0.0766   0.00    0.0
2026/01/15 02:01:30.000   30.531689571  114.357272954    28.6016   6  29   0.0859   0.0840   0.1924   0.0205   0.0335  -0.0765   0.00    0.0
2026/01/15 02:02:00.000   30.531689580  114.357272961    28.5936   6  28   0.0857   0.0838   0.1920   0.0205   0.0334  -0.0763   0.00    0.0
2026/01/15 02:02:30.000   30.531689596  114.357272957    28.5850   6  28   0.0855   0.0836   0.1915   0.0204   0.0332  -0.0762   0.00    0.0
2026/01/15 02:03:00.000   30.531689605  114.357272973    28.5743   6  28   0.0853   0.0834   0.1910   0.0204   0.0331  -0.0760   0.00    0.0
2026/01/15 02:03:30.000   30.531689627  114.357272986    28.5658   6  28   0.0851   0.0832   0.1905   0.0204   0.0329  -0.0759   0.00    0.0
2026/01/15 02:04:00.000   30.531689628  114.357272941    28.5530   6  29   0.0849   0.0830   0.1901   0.0203   0.0328  -0.0758   0.00    0.0
2026/01/15 02:04:30.000   30.531689593  114.357272903    28.5368   6  29   0.0847   0.0828   0.1896   0.0202   0.0326  -0.0756   0.00    0.0
2026/01/15 02:05:00.000   30.531689552  114.357272873    28.5249   6  29   0.0844   0.0826   0.1891   0.0202   0.0325  -0.0755   0.00    0.0
2026/01/15 02:05:30.000   30.531689538  114.357272913    28.5179   6  28   0.0842   0.0824   0.1886   0.0201   0.0324  -0.0753   0.00    0.0
2026/01/15 02:06:00.000   30.531689524  114.357272912    28.5071   6  28   0.0840   0.0822   0.1882   0.0201   0.0322  -0.0752   0.00    0.0
2026/01/15 02:06:30.000   30.531689511  114.357272927    28.4994   6  28   0.0838   0.0821   0.1877   0.0200   0.0321  -0.0751   0.00    0.0
2026/01/15 02:07:00.000   30.531689505  114.357272968    28.4852   6  28   0.0836   0.0819   0.1873   0.0200   0.0320  -0.0749   0.00    0.0
2026/01/15 02:07:30.000   30.531689491  114.357272964    28.4757   6  28   0.0834   0.0817   0.1868   0.0199   0.0319  -0.0748   0.00    0.0
2026/01/15 02:08:00.000   30.531689475  114.357272898    28.4616   6  28   0.0832   0.0815   0.1864   0.0198   0.0317  -0.0746   0.00    0.0
2026/01/15 02:08:30.000   30.531689485  114.357272920    28.4550   6  27   0.0830   0.0813   0.1859   0.0198   0.0316  -0.0745   0.00    0.0
2026/01/15 02:09:00.000   30.531689468  114.357272857    28.4379   6  28   0.0828   0.0811   0.1855   0.0197   0.0315  -0.0743   0.00    0.0
2026/01/15 02:09:30.000   30.531689468  114.357272870    28.4360   6  27   0.0827   0.0809   0.1850   0.0196   0.0313  -0.0742   0.00    0.0
2026/01/15 02:10:00.000   30.531689468  114.357272878    28.4413   6  27   0.0825   0.0807   0.1846   0.0196   0.0312  -0.0740   0.00    0.0
2026/01/15 02:10:30.000   30.531689465  114.357272894    28.4417   6  27   0.0823   0.0806   0.1842   0.0195   0.0311  -0.0739   0.00    0.0
2026/01/15 02:11:00.000   30.531689436  114.357272956    28.4399   6  27   0.0821   0.0804   0.1838   0.0194   0.0310  -0.0738   0.00    0.0
2026/01/15 02:11:30.000   30.531689416  114.357273011    28.4386   6  27   0.0819   0.0802   0.1833   0.0194   0.0309  -0.0736   0.00    0.0
2026/01/15 02:12:00.000   30.531689399  114.357272990    28.4386   6  27   0.0817   0.0800   0.1829   0.0193   0.0308  -0.0735   0.00    0.0
2026/01/15 02:12:30.000   30.531689395  114.357272993    28.4359   6  27   0.0815   0.0799   0.1825   0.0192   0.0307  -0.0733   0.00    0.0
2026/01/15 02:13:00.000   30.531689371  114.357272957    28.4293   6  28   0.0813   0.0797   0.1821   0.0192   0.0305  -0.0732   0.00    0.0
2026/01/15 02:13:30.000   30.531689344  114.357272938    28.4247   6  28   0.0812   0.0795   0.1816   0.0191   0.0304  -0.0731   0.00    0.0
2026/01/15 02:14:00.000   30.531689314  114.357272961    28.4214   6  27   0.0810   0.0793   0.1812   0.0190   0.0303  -0.0729   0.00    0.0
2026/01/15 02:14:30.000   30.531689291  114.357272938    28.4111   6  28   0.0808   0.0792   0.1808   0.0189   0.0302  -0.0728   0.00    0.0
2026/01/15 02:15:00.000   30.531689296  114.357272934    28.4091   6  27   0.0806   0.0790   0.1804   0.0188   0.0301  -0.0727   0.00    0.0
2026/01/15 02:15:30.000   30.531689318  114.357272951    28.4028   6  27   0.0804   0.0788   0.1800   0.0188   0.0300  -0.0725   0.00    0.0
2026/01/15 02:16:00.000   30.531689307  114.357272970    28.3977   6  27   0.0803   0.0786   0.1795   0.0187   0.0299  -0.0724   0.00    0.0
2026/01/15 02:16:30.000   30.531689319  114.357272943    28.3925   6  27   0.0801   0.0785   0.1791   0.0186   0.0298  -0.0723   0.00    0.0
2026/01/15 02:17:00.000   30.531689300  114.357272896    28.3821   6  28   0.0799   0.0783   0.1787   0.0185   0.0297  -0.0721   0.00    0.0
2026/01/15 02:17:30.000   30.531689298  114.357272890    28.3793   6  27   0.0797   0.0781   0.1783   0.0185   0.0296  -0.0720   0.00    0.0
2026/01/15 02:18:00.000   30.531689293  114.357272898    28.3757   6  27   0.0796   0.0780   0.1780   0.0184   0.0295  -0.0719   0.00    0.0
2026/01/15 02:18:30.000   30.531689289  114.357272880    28.3656   6  26   0.0794   0.0778   0.1776   0.0184   0.0294  -0.0718   0.00    0.0
2026/01/15 02:19:00.000   30.531689265  114.357272827    28.3518   6  27   0.0793   0.0777   0.1773   0.0183   0.0292  -0.0717   0.00    0.0
2026/01/15 02:19:30.000   30.531689274  114.357272803    28.3443   6  26   0.0791   0.0775   0.1770   0.0183   0.0291  -0.0717   0.00    0.0
2026/01/15 02:20:00.000   30.531689264  114.357272799    28.3381   6  26   0.0789   0.0773   0.1767   0.0182   0.0289  -0.0716   0.00    0.0
2026/01/15 02:20:30.000   30.531689270  114.357272780    28.3290   6  26   0.0788   0.0772   0.1764   0.0182   0.0288  -0.0715   0.00    0.0
2026/01/15 02:21:00.000   30.531689264  114.357272797    28.3232   6  26   0.0786   0.0770   0.1760   0.0181   0.0287  -0.0715   0.00    0.0
2026/01/15 02:21:30.000   30.531689227  114.357272800    28.3152   6  26   0.0785   0.0769   0.1757   0.0181   0.0285  -0.0714   0.00    0.0
2026/01/15 02:22:00.000   30.531689208  114.357272819    28.3106   6  26   0.0783   0.0767   0.1754   0.0181   0.0284  -0.0713   0.00    0.0
2026/01/15 02:22:30.000   30.531689200  114.357272820    28.3012   6  26   0.0782   0.0766   0.1751   0.0180   0.0283  -0.0712   0.00    0.0
2026/01/15 02:23:00.000   30.531689202  114.357272834    28.2946   6  26   0.0780   0.0764   0.1748   0.0180   0.0282  -0.0712   0.00    0.0
2026/01/15 02:23:30.000   30.531689183  114.357272829    28.2884   6  26   0.0779   0.0763   0.1745   0.0179   0.0280  -0.0711   0.00    0.0
2026/01/15 02:24:00.000   30.531689162  114.357272812    28.2851   6  26   0.0778   0.0761   0.1741   0.0179   0.0279  -0.0710   0.00    0.0
2026/01/15 02:24:30.000   30.531689147  114.357272754    28.2719   6  27   0.0776   0.0760   0.1738   0.0178   0.0278  -0.0710   0.00    0.0
2026/01/15 02:25:00.000   30.531689115  114.357272719    28.2621   6  27   0.0775   0.0758   0.1735   0.0178   0.0276  -0.0709   0.00    0.0
2026/01/15 02:25:30.000   30.531689083  114.357272692    28.2496   6  27   0.0773   0.0757   0.1732   0.0177   0.0275  -0.0708   0.00    0.0
2026/01/15 02:26:00.000   30.531689030  114.357272639    28.2380   6  27   0.0772   0.0755   0.1728   0.0176   0.0274  -0.0708   0.00    0.0
2026/01/15 02:26:30.000   30.531689008  114.357272577    28.2256   6  27   0.0770   0.0754   0.1725   0.0176   0.0272  -0.0707   0.00    0.0
2026/01/15 02:27:00.000   30.531688964  114.357272503    28.2127   6  27   0.0769   0.0752   0.1722   0.0175   0.0271  -0.0706   0.00    0.0
2026/01/15 02:27:30.000   30.531688942  114.357272466    28.1986   6  27   0.0767   0.0751   0.1719   0.0174   0.0270  -0.0706   0.00    0.0
2026/01/15 02:28:00.000   30.531688919  114.357272431    28.1842   6  26   0.0766   0.0749   0.1716   0.0174   0.0269  -0.0705   0.00    0.0
2026/01/15 02:28:30.000   30.531688907  114.357272360    28.1685   6  26   0.0765   0.0748   0.1713   0.0173   0.0268  -0.0704   0.00    0.0
2026/01/15 02:29:00.000   30.531688890  114.357272324    28.1574   6  26   0.0763   0.0746   0.1710   0.0173   0.0267  -0.0704   0.00    0.0
2026/01/15 02:29:30.000   30.531688868  114.357272268    28.1404   6  26   0.0762   0.0745   0.1707   0.0172   0.0266  -0.0703   0.00    0.0
2026/01/15 02:30:00.000   30.531688842  114.357272222    28.1203   6  26   0.0760   0.0744   0.1704   0.0171   0.0265  -0.0702   0.00    0.0
2026/01/15 02:30:30.000   30.531688839  114.357272203    28.1132   6  25   0.0759   0.0742   0.1702   0.0171   0.0265  -0.0701   0.00    0.0
2026/01/15 02:31:00.000   30.531688828  114.357272169    28.0965   6  26   0.0758   0.0741   0.1699   0.0170   0.0264  -0.0701   0.00    0.0
2026/01/15 02:31:30.000   30.531688806  114.357272147    28.0840   6  26   0.0756   0.0739   0.1696   0.0170   0.0264  -0.0700   0.00    0.0
2026/01/15 02:32:00.000   30.531688763  114.357272096    28.0662   6  27   0.0755   0.0738   0.1693   0.0169   0.0263  -0.0699   0.00    0.0
2026/01/15 02:32:30.000   30.531688733  114.357272057    28.0521   6  27   0.0753   0.0737   0.1690   0.0168   0.0262  -0.0699   0.00    0.0
2026/01/15 02:33:00.000   30.531688705  114.357272022    28.0363   6  27   0.0752   0.0735   0.1687   0.0167   0.0261  -0.0698   0.00    0.0
2026/01/15 02:33:30.000   30.531688685  114.357271978    28.0157   6  28   0.0751   0.0734   0.1684   0.0166   0.0260  -0.0698   0.00    0.0
2026/01/15 02:34:00.000   30.531688655  114.357271950    27.9972   6  28   0.0749   0.0732   0.1681   0.0166   0.0259  -0.0697   0.00    0.0
2026/01/15 02:34:30.000   30.531688644  114.357271965    27.9902   6  27   0.0748   0.0731   0.1678   0.0165   0.0259  -0.0696   0.00    0.0
2026/01/15 02:35:00.000   30.531688644  114.357271961    27.9815   6  27   0.0746   0.0730   0.1675   0.0164   0.0259  -0.0696   0.00    0.0
2026/01/15 02:35:30.000   30.531688635  114.357271965    27.9752   6  27   0.0745   0.0728   0.1672   0.0163   0.0258  -0.0695   0.00    0.0
2026/01/15 02:36:00.000   30.531688615  114.357271959    27.9693   6  27   0.0744   0.0727   0.1669   0.0163   0.0258  -0.0694   0.00    0.0
2026/01/15 02:36:30.000   30.531688602  114.357271928    27.9534   6  28   0.0742   0.0726   0.1666   0.0162   0.0257  -0.0694   0.00    0.0
2026/01/15 02:37:00.000   30.531688585  114.357271912    27.9444   6  27   0.0741   0.0724   0.1663   0.0161   0.0257  -0.0693   0.00    0.0
2026/01/15 02:37:30.000   30.531688557  114.357271907    27.9410   6  27   0.0740   0.0723   0.1660   0.0160   0.0257  -0.0692   0.00    0.0
2026/01/15 02:38:00.000   30.531688528  114.357271903    27.9349   6  27   0.0738   0.0722   0.1657   0.0160   0.0257  -0.0692   0.00    0.0
2026/01/15 02:38:30.000   30.531688516  114.357271904    27.9258   6  27   0.0737   0.0721   0.1654   0.0159   0.0256  -0.0691   0.00    0.0
2026/01/15 02:39:00.000   30.531688485  114.357271885    27.9114   6  28   0.0736   0.0719   0.1651   0.0158   0.0256  -0.0690   0.00    0.0
2026/01/15 02:39:30.000   30.531688469  114.357271892    27.8990   6  28   0.0734   0.0718   0.1648   0.0157   0.0256  -0.0690   0.00    0.0
2026/01/15 02:40:00.000   30.531688441  114.357271867    27.8869   6  28   0.0733   0.0717   0.1645   0.0156   0.0255  -0.0689   0.00    0.0
2026/01/15 02:40:30.000   30.531688415  114.357271873    27.8735   6  28   0.0732   0.0715   0.1642   0.0155   0.0255  -0.0688   0.00    0.0
2026/01/15 02:41:00.000   30.531688393  114.357271879    27.8605   6  28   0.0730   0.0714   0.1639   0.0154   0.0254  -0.0688   0.00    0.0
2026/01/15 02:41:30.000   30.531688378  114.357271894    27.8444   6  28   0.0729   0.0713   0.1636   0.0153   0.0254  -0.0687   0.00    0.0
2026/01/15 02:42:00.000   30.531688352  114.357271891    27.8329   6  28   0.0728   0.0712   0.1633   0.0152   0.0254  -0.0686   0.00    0.0
2026/01/15 02:42:30.000   30.531688321  114.357271902    27.8207   6  28   0.0726   0.0710   0.1630   0.0152   0.0253  -0.0686   0.00    0.0
2026/01/15 02:43:00.000   30.531688285  114.357271879    27.8106   6  28   0.0725   0.0709   0.1627   0.0151   0.0253  -0.0685   0.00    0.0
2026/01/15 02:43:30.000   30.531688268  114.357271881    27.7971   6  28   0.0724   0.0708   0.1623   0.0150   0.0253  -0.0684   0.00    0.0
2026/01/15 02:44:00.000   30.531688235  114.357271866    27.7812   6  28   0.0722   0.0706   0.1620   0.0149   0.0252  -0.0684   0.00    0.0
2026/01/15 02:44:30.000   30.531688214  114.357271864    27.7701   6  28   0.0721   0.0705   0.1617   0.0148   0.0252  -0.0683   0.00    0.0
2026/01/15 02:45:00.000   30.531688192  114.357271855    27.7603   6  28   0.0720   0.0704   0.1614   0.0147   0.0252  -0.0682   0.00    0.0
2026/01/15 02:45:30.000   30.531688169  114.357271836    27.7477   6  28   0.0718   0.0703   0.1611   0.0146   0.0252  -0.0682   0.00    0.0
2026/01/15 02:46:00.000   30.531688149  114.357271856    27.7394   6  27   0.0717   0.0702   0.1608   0.0145   0.0252  -0.0681   0.00    0.0
2026/01/15 02:46:30.000   30.531688129  114.357271864    27.7312   6  27   0.0716   0.0700   0.1606   0.0144   0.0252  -0.0680   0.00    0.0
2026/01/15 02:47:00.000   30.531688134  114.357271890    27.7281   6  27   0.0715   0.0699   0.1603   0.0143   0.0252  -0.0679   0.00    0.0
2026/01/15 02:47:30.000   30.531688119  114.357271873    27.7160   6  28   0.0713   0.0698   0.1601   0.0142   0.0252  -0.0678   0.00    0.0
2026/01/15 02:48:00.000   30.531688092  114.357271859    27.7068   6  28   0.0712   0.0697   0.1598   0.0141   0.0252  -0.0678   0.00    0.0
2026/01/15 02:48:30.000   30.531688077  114.357271857    27.6977   6  28   0.0711   0.0696   0.1595   0.0140   0.0252  -0.0677   0.00    0.0
2026/01/15 02:49:00.000   30.531688061  114.357271858    27.6880   6  28   0.0710   0.0694   0.1593   0.0139   0.0252  -0.0676   0.00    0.0
2026/01/15 02:49:30.000   30.531688035  114.357271847    27.6789   6  28   0.0708   0.0693   0.1590   0.0138   0.0252  -0.0675   0.00    0.0
2026/01/15 02:50:00.000   30.531688009  114.357271827    27.6694   6  28   0.0707   0.0692   0.1587   0.0137   0.0252  -0.0674   0.00    0.0
2026/01/15 02:50:30.000   30.531687997  114.357271816    27.6627   6  28   0.0706   0.0691   0.1585   0.0136   0.0252  -0.0674   0.00    0.0
2026/01/15 02:51:00.000   30.531687982  114.357271828    27.6576   6  27   0.0705   0.0690   0.1582   0.0135   0.0253  -0.0673   0.00    0.0
2026/01/15 02:51:30.000   30.531687960  114.357271827    27.6557   6  27   0.0703   0.0689   0.1580   0.0134   0.0253  -0.0672   0.00    0.0
2026/01/15 02:52:00.000   30.531687944  114.357271801    27.6519   6  27   0.0702   0.0688   0.1577   0.0133   0.0253  -0.0671   0.00    0.0
2026/01/15 02:52:30.000   30.531687945  114.357271812    27.6505   6  27   0.0701   0.0687   0.1575   0.0132   0.0254  -0.0670   0.00    0.0
2026/01/15 02:53:00.000   30.531687951  114.357271788    27.6462   6  27   0.0700   0.0685   0.1572   0.0131   0.0254  -0.0669   0.00    0.0
2026/01/15 02:53:30.000   30.531687941  114.357271811    27.6423   6  28   0.0699   0.0684   0.1569   0.0130   0.0254  -0.0668   0.00    0.0
2026/01/15 02:54:00.000   30.531687925  114.357271820    27.6403   6  28   0.0697   0.0683   0.1566   0.0130   0.0254  -0.0667   0.00    0.0
2026/01/15 02:54:30.000   30.531687907  114.357271820    27.6388   6  28   0.0696   0.0682   0.1564   0.0129   0.0254  -0.0666   0.00    0.0
2026/01/15 02:55:00.000   30.531687885  114.357271857    27.6400   6  28   0.0695   0.0681   0.1561   0.0129   0.0253  -0.0665   0.00    0.0
2026/01/15 02:55:30.000   30.531687868  114.357271895    27.6399   6  27   0.0693   0.0680   0.1558   0.0128   0.0254  -0.0663   0.00    0.0
2026/01/15 02:56:00.000   30.531687851  114.357271926    27.6427   6  27   0.0692   0.0679   0.1555   0.0128   0.0254  -0.0662   0.00    0.0
2026/01/15 02:56:30.000   30.531687841  114.357271946    27.6397   6  27   0.0691   0.0678   0.1553   0.0128   0.0254  -0.0661   0.00    0.0
2026/01/15 02:57:00.000   30.531687819  114.357271930    27.6350   6  27   0.0689   0.0677   0.1550   0.0127   0.0255  -0.0660   0.00    0.0
2026/01/15 02:57:30.000   30.531687795  114.357271942    27.6369   6  27   0.0688   0.0676   0.1547   0.0127   0.0255  -0.0658   0.00    0.0
2026/01/15 02:58:00.000   30.531687779  114.357271939    27.6331   6  27   0.0687   0.0675   0.1545   0.0127   0.0256  -0.0657   0.00    0.0
2026/01/15 02:58:30.000   30.531687760  114.357271938    27.6336   6  27   0.0686   0.0674   0.1542   0.0126   0.0256  -0.0656   0.00    0.0
2026/01/15 02:59:00.000   30.531687726  114.357271948    27.6317   6  27   0.0684   0.0673   0.1539   0.0126   0.0256  -0.0655   0.00    0.0
2026/01/15 02:59:30.000   30.531687714  114.357271950    27.6292   6  27   0.0683   0.0672   0.1537   0.0125   0.0257  -0.0653   0.00    0.0
2026/01/15 03:00:00.000   30.531687692  114.357271965    27.6269   6  27   0.0682   0.0671   0.1534   0.0125   0.0257  -0.0652   0.00    0.0
2026/01/15 03:00:30.000   30.531687669  114.357272000    27.6267   6  27   0.0681   0.0670   0.1531   0.0124   0.0258  -0.0651   0.00    0.0
2026/01/15 03:01:00.000   30.531687656  114.357272008    27.6272   6  26   0.0679   0.0669   0.1529   0.0124   0.0258  -0.0650   0.00    0.0
2026/01/15 03:01:30.000   30.531687636  114.357272008    27.6243   6  26   0.0678   0.0668   0.1526   0.0123   0.0259  -0.0649   0.00    0.0
2026/01/15 03:02:00.000   30.531687621  114.357272024    27.6245   6  26   0.0677   0.0667   0.1524   0.0123   0.0259  -0.0647   0.00    0.0
2026/01/15 03:02:30.000   30.531687599  114.357272041    27.6249   6  26   0.0676   0.0666   0.1521   0.0122   0.0260  -0.0646   0.00    0.0
2026/01/15 03:03:00.000   30.531687591  114.357272062    27.6254   6  26   0.0674   0.0665   0.1519   0.0122   0.0260  -0.0645   0.00    0.0
2026/01/15 03:03:30.000   30.531687600  114.357272078    27.6214   6  26   0.0673   0.0664   0.1516   0.0121   0.0261  -0.0644   0.00    0.0
2026/01/15 03:04:00.000   30.531687597  114.357272122    27.6194   6  26   0.0672   0.0663   0.1513   0.0121   0.0262  -0.0642   0.00    0.0
2026/01/15 03:04:30.000   30.531687592  114.357272131    27.6185   6  26   0.0671   0.0662   0.1511   0.0120   0.0262  -0.0641   0.00    0.0
2026/01/15 03:05:00.000   30.531687588  114.357272160    27.6180   6  26   0.0670   0.0661   0.1508   0.0119   0.0263  -0.0640   0.00    0.0
2026/01/15 03:05:30.000   30.531687584  114.357272184    27.6138   6  26   0.0668   0.0660   0.1506   0.0119   0.0263  -0.0639   0.00    0.0
2026/01/15 03:06:00.000   30.531687578  114.357272229    27.6104   6  26   0.0667   0.0659   0.1503   0.0118   0.0264  -0.0637   0.00    0.0
2026/01/15 03:06:30.000   30.531687567  114.357272267    27.6081   6  26   0.0666   0.0658   0.1501   0.0118   0.0264  -0.0636   0.00    0.0
2026/01/15 03:07:00.000   30.531687549  114.357272308    27.6093   6  26   0.0665   0.0657   0.1498   0.0117   0.0265  -0.0635   0.00    0.0
2026/01/15 03:07:30.000   30.531687527  114.357272337    27.6099   6  26   0.0664   0.0656   0.1496   0.0116   0.0265  -0.0634   0.00    0.0
2026/01/15 03:08:00.000   30.531687505  114.357272380    27.6107   6  26   0.0662   0.0655   0.1493   0.0116   0.0266  -0.0632   0.00    0.0
2026/01/15 03:08:30.000   30.531687493  114.357272405    27.6088   6  26   0.0661   0.0654   0.1490   0.0115   0.0267  -0.0631   0.00    0.0
2026/01/15 03:09:00.000   30.531687484  114.357272428    27.6041   6  26   0.0660   0.0653   0.1488   0.0114   0.0267  -0.0630   0.00    0.0
2026/01/15 03:09:30.000   30.531687463  114.357272451    27.6045   6  25   0.0659   0.0652   0.1486   0.0114   0.0268  -0.0629   0.00    0.0
2026/01/15 03:10:00.000   30.531687456  114.357272475    27.6060   6  25   0.0658   0.0651   0.1484   0.0113   0.0268  -0.0627   0.00    0.0
2026/01/15 03:10:30.000   30.531687444  114.357272493    27.6082   6  25   0.0656   0.0650   0.1482   0.0112   0.0269  -0.0626   0.00    0.0
2026/01/15 03:11:00.000   30.531687445  114.357272520    27.6117   6  25   0.0655   0.0649   0.1480   0.0111   0.0270  -0.0625   0.00    0.0
2026/01/15 03:11:30.000   30.531687425  114.357272550    27.6145   6  25   0.0654   0.0648   0.1477   0.0111   0.0270  -0.0623   0.00    0.0
2026/01/15 03:12:00.000   30.531687417  114.357272584    27.6168   6  25   0.0653   0.0647   0.1475   0.0110   0.0271  -0.0622   0.00    0.0
2026/01/15 03:12:30.000   30.531687415  114.357272639    27.6160   6  25   0.0652   0.0647   0.1473   0.0109   0.0271  -0.0621   0.00    0.0
2026/01/15 03:13:00.000   30.531687406  114.357272636    27.6140   6  25   0.0651   0.0646   0.1471   0.0108   0.0272  -0.0619   0.00    0.0
2026/01/15 03:13:30.000   30.531687398  114.357272636    27.6116   6  25   0.0649   0.0645   0.1469   0.0108   0.0273  -0.0618   0.00    0.0
2026/01/15 03:14:00.000   30.531687372  114.357272641    27.6143   6  25   0.0648   0.0644   0.1467   0.0107   0.0273  -0.0617   0.00    0.0
2026/01/15 03:14:30.000   30.531687362  114.357272654    27.6156   6  25   0.0647   0.0643   0.1464   0.0106   0.0274  -0.0616   0.00    0.0
2026/01/15 03:15:00.000   30.531687347  114.357272660    27.6146   6  25   0.0646   0.0642   0.1462   0.0105   0.0274  -0.0614   0.00    0.0
2026/01/15 03:15:30.000   30.531687337  114.357272673    27.6152   6  25   0.0645   0.0641   0.1460   0.0104   0.0275  -0.0613   0.00    0.0
2026/01/15 03:16:00.000   30.531687321  114.357272685    27.6172   6  25   0.0644   0.0640   0.1458   0.0103   0.0276  -0.0612   0.00    0.0
2026/01/15 03:16:30.000   30.531687313  114.357272687    27.6166   6  25   0.0643   0.0639   0.1456   0.0102   0.0276  -0.0610   0.00    0.0
2026/01/15 03:17:00.000   30.531687294  114.357272685    27.6170   6  25   0.0642   0.0638   0.1454   0.0101   0.0277  -0.0609   0.00    0.0
2026/01/15 03:17:30.000   30.531687279  114.357272682    27.6164   6  25   0.0640   0.0638   0.1452   0.0101   0.0277  -0.0608   0.00    0.0
2026/01/15 03:18:00.000   30.531687263  114.357272676    27.6140   6  25   0.0639   0.0637   0.1450   0.0100   0.0278  -0.0607   0.00    0.0
2026/01/15 03:18:30.000   30.531687259  114.357272683    27.6145   6  25   0.0638   0.0636   0.1447   0.0099   0.0279  -0.0605   0.00    0.0
2026/01/15 03:19:00.000   30.531687249  114.357272707    27.6147   6  25   0.0637   0.0635   0.1445   0.0098   0.0279  -0.0604   0.00    0.0
2026/01/15 03:19:30.000   30.531687233  114.357272700    27.6144   6  25   0.0636   0.0634   0.1444   0.0097   0.0280  -0.0603   0.00    0.0
2026/01/15 03:20:00.000   30.531687215  114.357272698    27.6147   6  25   0.0635   0.0633   0.1442   0.0096   0.0280  -0.0601   0.00    0.0
2026/01/15 03:20:30.000   30.531687198  114.357272701    27.6156   6  25   0.0634   0.0632   0.1440   0.0095   0.0281  -0.0600   0.00    0.0
2026/01/15 03:21:00.000   30.531687181  114.357272713    27.6202   6  25   0.0633   0.0632   0.1438   0.0094   0.0282  -0.0599   0.00    0.0
2026/01/15 03:21:30.000   30.531687175  114.357272736    27.6217   6  25   0.0632   0.0631   0.1436   0.0093   0.0282  -0.0597   0.00    0.0
2026/01/15 03:22:00.000   30.531687177  114.357272726    27.6209   6  25   0.0631   0.0630   0.1434   0.0092   0.0283  -0.0596   0.00    0.0
2026/01/15 03:22:30.000   30.531687170  114.357272724    27.6209   6  25   0.0630   0.0629   0.1432   0.0091   0.0284  -0.0595   0.00    0.0
2026/01/15 03:23:00.000   30.531687170  114.357272738    27.6184   6  25   0.0628   0.0628   0.1430   0.0089   0.0284  -0.0593   0.00    0.0
2026/01/15 03:23:30.000   30.531687155  114.357272753    27.6196   6  25   0.0627   0.0627   0.1428   0.0088   0.0285  -0.0592   0.00    0.0
2026/01/15 03:24:00.000   30.531687157  114.357272767    27.6199   6  25   0.0626   0.0626   0.1426   0.0087   0.0285  -0.0591   0.00    0.0
2026/01/15 03:24:30.000   30.531687152  114.357272791    27.6192   6  25   0.0625   0.0626   0.1424   0.0086   0.0286  -0.0589   0.00    0.0
2026/01/15 03:25:00.000   30.531687144  114.357272810    27.6186   6  25   0.0624   0.0625   0.1422   0.0085   0.0287  -0.0588   0.00    0.0
2026/01/15 03:25:30.000   30.531687128  114.357272838    27.6207   6  25   0.0623   0.0624   0.1420   0.0084   0.0287  -0.0587   0.00    0.0
2026/01/15 03:26:00.000   30.531687126  114.357272862    27.6223   6  25   0.0622   0.0623   0.1418   0.0083   0.0288  -0.0585   0.00    0.0
2026/01/15 03:26:30.000   30.531687125  114.357272887    27.6218   6  25   0.0621   0.0622   0.1417   0.0081   0.0289  -0.0584   0.00    0.0
2026/01/15 03:27:00.000   30.531687110  114.357272912    27.6221   6  25   0.0620   0.0621   0.1415   0.0080   0.0289  -0.0583   0.00    0.0
2026/01/15 03:27:30.000   30.531687093  114.357272943    27.6234   6  25   0.0619   0.0621   0.1413   0.0079   0.0290  -0.0581   0.00    0.0
2026/01/15 03:28:00.000   30.531687082  114.357272953    27.6237   6  25   0.0618   0.0620   0.1411   0.0078   0.0291  -0.0580   0.00    0.0
