% program   : RTKLIB ver.EX 2.5.0
% inp file  : C:\PPP_PROJECT\RTKLIB_work\runs\WUH2_EXP2_2D_20260508_133003\WUH200CHN_R_20260150000_01D_30S_MO.rnx
% inp file  : C:\PPP_PROJECT\RTKLIB_work\runs\WUH2_EXP2_2D_20260508_133003\BRDC00IGS_R_20260150000_01D_MN.rnx
% inp file  : C:\PPP_PROJECT\RTKLIB_work\runs\WUH2_EXP2_2D_20260508_133003\COD0MGXFIN_20260150000_01D_05M_ORB.SP3
% inp file  : C:\PPP_PROJECT\RTKLIB_work\runs\WUH2_EXP2_2D_20260508_133003\COD0MGXFIN_20260150000_01D_30S_CLK.CLK
% inp file  : C:\PPP_PROJECT\RTKLIB_work\runs\WUH2_EXP2_2D_20260508_133003
% inp file  : C:\PPP_PROJECT\RTKLIB_work\runs\WUH2_EXP2_2D_20260508_133003
% obs start : 2026/01/15 00:00:00.0 GPST (week2401 345600.0s)
% obs end   : 2026/01/15 23:59:30.0 GPST (week2401 431970.0s)
% pos mode  : PPP Static
% freqs     : L1+L2/E5b
% solution  : Forward
% elev mask : 15.0 deg
% dynamics  : on
% tidecorr  :
% ionos opt : Iono-Free LC
% tropo opt : Saastamoinen
% ephemeris : Precise
% navi sys  : GPS GLONASS Galileo QZSS BDS
% antenna1  : JAVRINGANT_G5T  NONE  ( 0.0000  0.0000  0.1206)
%
% (lat/lon/height=WGS84/ellipsoidal,Q=1:fix,2:float,3:sbas,4:dgps,5:single,6:ppp,ns=# of satellites)
%  GPST                  latitude(deg) longitude(deg)  height(m)   Q  ns   sdn(m)   sde(m)   sdu(m)  sdne(m)  sdeu(m)  sdun(m) age(s)  ratio
2026/01/15 00:00:00.000   30.531658214  114.357261634    26.3656   6  12   2.6090   2.8386   7.0762   0.7157   1.7490  -2.4639   0.00    0.0
2026/01/15 00:00:30.000   30.531662393  114.357262592    26.4720   6  17   1.8458   2.0115   5.0127   0.5066   1.2422  -1.7431   0.00    0.0
2026/01/15 00:01:00.000   30.531662117  114.357264397    27.1746   6  17   1.5057   1.6440   4.0786   0.4166   1.0132  -1.4187   0.00    0.0
2026/01/15 00:01:30.000   30.531663875  114.357264202    27.4319   6  17   1.3012   1.4243   3.5102   0.3634   0.8738  -1.2224   0.00    0.0
2026/01/15 00:02:00.000   30.531664980  114.357266386    27.6956   6  17   1.1603   1.2739   3.1135   0.3273   0.7762  -1.0866   0.00    0.0
2026/01/15 00:02:30.000   30.531664613  114.357267140    27.6302   6  14   1.0572   1.1625   2.8136   0.3017   0.7018  -0.9854   0.00    0.0
2026/01/15 00:03:00.000   30.531664838  114.357267345    27.3823   6  14   0.9763   1.0757   2.5745   0.2821   0.6421  -0.9056   0.00    0.0
2026/01/15 00:03:30.000   30.531665823  114.357268120    27.3793   6  14   0.9106   1.0054   2.3767   0.2665   0.5921  -0.8404   0.00    0.0
2026/01/15 00:04:00.000   30.531666284  114.357268290    27.4591   6  14   0.8556   0.9470   2.2084   0.2539   0.5491  -0.7856   0.00    0.0
2026/01/15 00:04:30.000   30.531666225  114.357268352    27.4938   6  14   0.8087   0.8973   2.0625   0.2433   0.5114  -0.7388   0.00    0.0
2026/01/15 00:05:00.000   30.531666971  114.357268461    27.4249   6  14   0.7679   0.8543   1.9339   0.2344   0.4777  -0.6979   0.00    0.0
2026/01/15 00:05:30.000   30.531667547  114.357269067    27.3683   6  17   0.7243   0.8165   1.8183   0.2236   0.4473  -0.6598   0.00    0.0
2026/01/15 00:06:00.000   30.531667855  114.357269449    27.3683   6  14   0.6932   0.7822   1.7117   0.2169   0.4145  -0.6282   0.00    0.0
2026/01/15 00:06:30.000   30.531667822  114.357269201    27.2689   6  14   0.6650   0.7515   1.6158   0.2110   0.3852  -0.5998   0.00    0.0
2026/01/15 00:07:00.000   30.531667800  114.357268650    27.2447   6  14   0.6394   0.7239   1.5289   0.2058   0.3588  -0.5740   0.00    0.0
2026/01/15 00:07:30.000   30.531667872  114.357268296    27.3743   6  14   0.6159   0.6989   1.4496   0.2010   0.3346  -0.5505   0.00    0.0
2026/01/15 00:08:00.000   30.531667896  114.357268713    27.4572   6  14   0.5939   0.6750   1.3751   0.1947   0.3083  -0.5303   0.00    0.0
2026/01/15 00:08:30.000   30.531667714  114.357268370    27.4973   6  15   0.5735   0.6531   1.3069   0.1891   0.2843  -0.5114   0.00    0.0
2026/01/15 00:09:00.000   30.531667855  114.357268342    27.4244   6  14   0.5545   0.6330   1.2444   0.1842   0.2627  -0.4937   0.00    0.0
2026/01/15 00:09:30.000   30.531668291  114.357268625    27.4576   6  19   0.5269   0.6129   1.1839   0.1781   0.2347  -0.4702   0.00    0.0
2026/01/15 00:10:00.000   30.531668350  114.357268624    27.5154   6  16   0.5106   0.5947   1.1280   0.1766   0.2101  -0.4532   0.00    0.0
2026/01/15 00:10:30.000   30.531668460  114.357268503    27.5140   6  15   0.4957   0.5788   1.0790   0.1728   0.1941  -0.4392   0.00    0.0
2026/01/15 00:11:00.000   30.531668705  114.357268647    27.5140   6  15   0.4817   0.5639   1.0334   0.1693   0.1791  -0.4259   0.00    0.0
2026/01/15 00:11:30.000   30.531668880  114.357269009    27.5362   6  15   0.4683   0.5499   0.9907   0.1661   0.1650  -0.4133   0.00    0.0
2026/01/15 00:12:00.000   30.531669023  114.357269267    27.5046   6  15   0.4556   0.5367   0.9507   0.1631   0.1517  -0.4012   0.00    0.0
2026/01/15 00:12:30.000   30.531669215  114.357269455    27.5535   6  15   0.4435   0.5242   0.9131   0.1603   0.1391  -0.3897   0.00    0.0
2026/01/15 00:13:00.000   30.531669455  114.357269266    27.5835   6  16   0.4318   0.5120   0.8774   0.1570   0.1251  -0.3791   0.00    0.0
2026/01/15 00:13:30.000   30.531669830  114.357269417    27.5801   6  16   0.4206   0.5004   0.8438   0.1540   0.1118  -0.3689   0.00    0.0
2026/01/15 00:14:00.000   30.531670044  114.357269363    27.6084   6  16   0.4099   0.4894   0.8122   0.1512   0.0990  -0.3590   0.00    0.0
2026/01/15 00:14:30.000   30.531670191  114.357269271    27.6035   6  16   0.3997   0.4788   0.7824   0.1485   0.0865  -0.3496   0.00    0.0
2026/01/15 00:15:00.000   30.531670374  114.357269093    27.5989   6  16   0.3898   0.4688   0.7542   0.1460   0.0741  -0.3404   0.00    0.0
2026/01/15 00:15:30.000   30.531670643  114.357269317    27.5961   6  17   0.3801   0.4587   0.7267   0.1446   0.0552  -0.3310   0.00    0.0
2026/01/15 00:16:00.000   30.531670790  114.357269315    27.6181   6  17   0.3708   0.4490   0.7009   0.1431   0.0319  -0.3219   0.00    0.0
2026/01/15 00:16:30.000   30.531671076  114.357269236    27.5912   6  17   0.3619   0.4398   0.6764   0.1416  -0.0260  -0.3133   0.00    0.0
2026/01/15 00:17:00.000   30.531671303  114.357269252    27.5838   6  16   0.3535   0.4313   0.6539   0.1393  -0.0395  -0.3056   0.00    0.0
2026/01/15 00:17:30.000   30.531671385  114.357269278    27.5902   6  16   0.3454   0.4232   0.6325   0.1371  -0.0481  -0.2982   0.00    0.0
2026/01/15 00:18:00.000   30.531671540  114.357269446    27.5875   6  17   0.3374   0.4149   0.6116   0.1356  -0.0581  -0.2905   0.00    0.0
2026/01/15 00:18:30.000   30.531671750  114.357269578    27.5822   6  17   0.3298   0.4070   0.5919   0.1341  -0.0651  -0.2832   0.00    0.0
2026/01/15 00:19:00.000   30.531671925  114.357269558    27.5811   6  17   0.3223   0.3994   0.5731   0.1326  -0.0703  -0.2762   0.00    0.0
2026/01/15 00:19:30.000   30.531672119  114.357269712    27.5818   6  16   0.3153   0.3924   0.5556   0.1306  -0.0722  -0.2698   0.00    0.0
2026/01/15 00:20:00.000   30.531672316  114.357269968    27.5852   6  18   0.3084   0.3852   0.5386   0.1291  -0.0756  -0.2633   0.00    0.0
2026/01/15 00:20:30.000   30.531672467  114.357270084    27.5945   6  18   0.3017   0.3783   0.5224   0.1277  -0.0781  -0.2571   0.00    0.0
2026/01/15 00:21:00.000   30.531672546  114.357270091    27.5994   6  18   0.2953   0.3717   0.5069   0.1262  -0.0801  -0.2511   0.00    0.0
2026/01/15 00:21:30.000   30.531672654  114.357270126    27.6069   6  18   0.2890   0.3652   0.4921   0.1247  -0.0816  -0.2453   0.00    0.0
2026/01/15 00:22:00.000   30.531672832  114.357270147    27.5842   6  17   0.2830   0.3589   0.4781   0.1232  -0.0826  -0.2397   0.00    0.0
2026/01/15 00:22:30.000   30.531672950  114.357270131    27.5668   6  17   0.2772   0.3528   0.4646   0.1217  -0.0834  -0.2343   0.00    0.0
2026/01/15 00:23:00.000   30.531673058  114.357270131    27.5546   6  17   0.2715   0.3469   0.4517   0.1203  -0.0838  -0.2291   0.00    0.0
2026/01/15 00:23:30.000   30.531673161  114.357270132    27.5551   6  17   0.2660   0.3412   0.4394   0.1188  -0.0841  -0.2241   0.00    0.0
2026/01/15 00:24:00.000   30.531673272  114.357270196    27.5512   6  17   0.2607   0.3356   0.4276   0.1174  -0.0842  -0.2193   0.00    0.0
2026/01/15 00:24:30.000   30.531673337  114.357270148    27.5519   6  17   0.2556   0.3301   0.4164   0.1159  -0.0841  -0.2146   0.00    0.0
2026/01/15 00:25:00.000   30.531673411  114.357270182    27.5550   6  17   0.2506   0.3248   0.4055   0.1145  -0.0839  -0.2101   0.00    0.0
2026/01/15 00:25:30.000   30.531673536  114.357270149    27.5444   6  17   0.2457   0.3197   0.3951   0.1131  -0.0835  -0.2057   0.00    0.0
2026/01/15 00:26:00.000   30.531673573  114.357270062    27.5380   6  17   0.2413   0.3146   0.3850   0.1115  -0.0836  -0.2014   0.00    0.0
2026/01/15 00:26:30.000   30.531673643  114.357270016    27.5247   6  10   0.2384   0.3100   0.3801   0.1099  -0.0806  -0.1988   0.00    0.0
2026/01/15 00:27:00.000   30.531673781  114.357269995    27.5230   6  18   0.2337   0.3051   0.3721   0.1088  -0.0800  -0.1946   0.00    0.0
2026/01/15 00:27:30.000   30.531673920  114.357269949    27.5126   6  11   0.2309   0.3008   0.3673   0.1072  -0.0772  -0.1922   0.00    0.0
2026/01/15 00:28:00.000   30.531674047  114.357269949    27.5139   6  17   0.2263   0.2960   0.3595   0.1062  -0.0766  -0.1880   0.00    0.0
2026/01/15 00:28:30.000   30.531674181  114.357269994    27.5204   6  17   0.2220   0.2914   0.3520   0.1050  -0.0760  -0.1841   0.00    0.0
2026/01/15 00:29:00.000   30.531674256  114.357269938    27.5246   6  17   0.2177   0.2869   0.3446   0.1039  -0.0753  -0.1802   0.00    0.0
2026/01/15 00:29:30.000   30.531674329  114.357269899    27.5302   6  17   0.2136   0.2825   0.3375   0.1028  -0.0745  -0.1766   0.00    0.0
2026/01/15 00:30:00.000   30.531674409  114.357269886    27.5380   6  17   0.2096   0.2782   0.3306   0.1016  -0.0738  -0.1730   0.00    0.0
2026/01/15 00:30:30.000   30.531674483  114.357269808    27.5409   6   9   0.2073   0.2745   0.3266   0.1001  -0.0711  -0.1710   0.00    0.0
2026/01/15 00:31:00.000   30.531674558  114.357269788    27.5469   6  17   0.2034   0.2704   0.3199   0.0990  -0.0704  -0.1675   0.00    0.0
2026/01/15 00:31:30.000   30.531674626  114.357269739    27.5512   6  17   0.1996   0.2663   0.3133   0.0978  -0.0696  -0.1642   0.00    0.0
2026/01/15 00:32:00.000   30.531674691  114.357269817    27.5520   6  16   0.1963   0.2624   0.3070   0.0964  -0.0689  -0.1609   0.00    0.0
2026/01/15 00:32:30.000   30.531674756  114.357269814    27.5534   6  17   0.1928   0.2585   0.3008   0.0953  -0.0681  -0.1578   0.00    0.0
2026/01/15 00:33:00.000   30.531674824  114.357269855    27.5507   6   9   0.1907   0.2552   0.2973   0.0939  -0.0656  -0.1561   0.00    0.0
2026/01/15 00:33:30.000   30.531674865  114.357269844    27.5519   6  12   0.1884   0.2519   0.2925   0.0925  -0.0629  -0.1535   0.00    0.0
2026/01/15 00:34:00.000   30.531674895  114.357269837    27.5456   6  10   0.1864   0.2487   0.2891   0.0912  -0.0604  -0.1519   0.00    0.0
2026/01/15 00:34:30.000   30.531675039  114.357269791    27.5439   6  17   0.1829   0.2450   0.2832   0.0901  -0.0600  -0.1489   0.00    0.0
2026/01/15 00:35:00.000   30.531675115  114.357269797    27.5429   6  10   0.1810   0.2419   0.2799   0.0887  -0.0576  -0.1474   0.00    0.0
2026/01/15 00:35:30.000   30.531675159  114.357269845    27.5378   6  10   0.1791   0.2389   0.2767   0.0874  -0.0552  -0.1458   0.00    0.0
2026/01/15 00:36:00.000   30.531675206  114.357269841    27.5316   6  10   0.1772   0.2359   0.2735   0.0862  -0.0528  -0.1443   0.00    0.0
2026/01/15 00:37:00.000   30.531675290  114.357269853    27.5166   6  10   0.1748   0.2319   0.2685   0.0845  -0.0506  -0.1422   0.00    0.0
2026/01/15 00:37:30.000   30.531675359  114.357269854    27.5110   6   9   0.1729   0.2289   0.2653   0.0832  -0.0481  -0.1406   0.00    0.0
2026/01/15 00:38:00.000   30.531675415  114.357269880    27.5094   6   9   0.1710   0.2260   0.2622   0.0819  -0.0456  -0.1391   0.00    0.0
2026/01/15 00:38:30.000   30.531675465  114.357269883    27.5100   6   8   0.1694   0.2232   0.2611   0.0806  -0.0428  -0.1386   0.00    0.0
2026/01/15 00:39:00.000   30.531675530  114.357269927    27.5121   6   8   0.1677   0.2204   0.2599   0.0793  -0.0398  -0.1381   0.00    0.0
2026/01/15 00:39:30.000   30.531675557  114.357269938    27.5184   6   8   0.1661   0.2176   0.2587   0.0779  -0.0367  -0.1376   0.00    0.0
2026/01/15 00:40:00.000   30.531675578  114.357269939    27.5256   6   8   0.1645   0.2149   0.2575   0.0767  -0.0335  -0.1371   0.00    0.0
2026/01/15 00:40:30.000   30.531675572  114.357269965    27.5288   6   7   0.1636   0.2123   0.2564   0.0757  -0.0296  -0.1362   0.00    0.0
2026/01/15 01:00:30.000   30.531675680  114.357270507    27.4456   6  15   0.1485   0.1889   0.2455   0.0683  -0.0362  -0.1239   0.00    0.0
2026/01/15 01:01:00.000   30.531675664  114.357270532    27.4457   6  15   0.1482   0.1884   0.2453   0.0681  -0.0362  -0.1236   0.00    0.0
2026/01/15 01:01:30.000   30.531675675  114.357270564    27.4404   6  14   0.1478   0.1879   0.2450   0.0679  -0.0362  -0.1233   0.00    0.0
2026/01/15 01:02:00.000   30.531675693  114.357270583    27.4353   6  15   0.1475   0.1874   0.2448   0.0677  -0.0362  -0.1231   0.00    0.0
2026/01/15 01:02:30.000   30.531675662  114.357270628    27.4350   6  15   0.1471   0.1870   0.2446   0.0675  -0.0362  -0.1228   0.00    0.0
2026/01/15 01:03:00.000   30.531675648  114.357270653    27.4352   6  15   0.1468   0.1865   0.2443   0.0673  -0.0361  -0.1225   0.00    0.0
2026/01/15 01:03:30.000   30.531675638  114.357270669    27.4323   6  14   0.1465   0.1860   0.2440   0.0671  -0.0361  -0.1223   0.00    0.0
2026/01/15 01:04:00.000   30.531675612  114.357270684    27.4322   6  15   0.1461   0.1855   0.2438   0.0669  -0.0360  -0.1220   0.00    0.0
2026/01/15 01:04:30.000   30.531675617  114.357270691    27.4320   6  16   0.1457   0.1850   0.2435   0.0666  -0.0360  -0.1217   0.00    0.0
2026/01/15 01:05:00.000   30.531675611  114.357270697    27.4301   6   8   0.1454   0.1845   0.2433   0.0664  -0.0359  -0.1214   0.00    0.0
2026/01/15 01:05:30.000   30.531675626  114.357270726    27.4279   6  15   0.1450   0.1840   0.2430   0.0662  -0.0359  -0.1211   0.00    0.0
2026/01/15 01:06:00.000   30.531675625  114.357270736    27.4259   6   8   0.1447   0.1835   0.2427   0.0660  -0.0358  -0.1209   0.00    0.0
2026/01/15 01:06:30.000   30.531675644  114.357270757    27.4239   6  15   0.1443   0.1830   0.2424   0.0658  -0.0357  -0.1205   0.00    0.0
2026/01/15 01:07:00.000   30.531675641  114.357270747    27.4232   6  15   0.1439   0.1825   0.2420   0.0655  -0.0356  -0.1202   0.00    0.0
2026/01/15 01:07:30.000   30.531675634  114.357270753    27.4191   6   8   0.1435   0.1820   0.2417   0.0653  -0.0354  -0.1200   0.00    0.0
2026/01/15 01:08:00.000   30.531675626  114.357270725    27.4162   6   8   0.1432   0.1814   0.2415   0.0650  -0.0353  -0.1197   0.00    0.0
2026/01/15 01:08:30.000   30.531675603  114.357270688    27.4132   6   7   0.1428   0.1809   0.2412   0.0648  -0.0352  -0.1194   0.00    0.0
2026/01/15 01:09:00.000   30.531675588  114.357270710    27.4106   6   8   0.1424   0.1804   0.2409   0.0645  -0.0350  -0.1191   0.00    0.0
2026/01/15 01:09:30.000   30.531675609  114.357270731    27.4080   6  15   0.1420   0.1799   0.2404   0.0643  -0.0348  -0.1187   0.00    0.0
2026/01/15 01:10:00.000   30.531675588  114.357270725    27.4063   6   8   0.1416   0.1793   0.2401   0.0640  -0.0347  -0.1184   0.00    0.0
2026/01/15 01:10:30.000   30.531675579  114.357270729    27.4073   6  15   0.1411   0.1788   0.2395   0.0637  -0.0345  -0.1180   0.00    0.0
2026/01/15 01:11:00.000   30.531675576  114.357270739    27.4053   6   9   0.1407   0.1782   0.2392   0.0634  -0.0343  -0.1177   0.00    0.0
2026/01/15 01:12:00.000   30.531675590  114.357270762    27.4008   6   8   0.1399   0.1772   0.2386   0.0629  -0.0340  -0.1171   0.00    0.0
2026/01/15 01:12:30.000   30.531675612  114.357270754    27.3983   6   8   0.1395   0.1767   0.2382   0.0626  -0.0338  -0.1168   0.00    0.0
2026/01/15 01:13:00.000   30.531675610  114.357270787    27.3996   6   8   0.1390   0.1761   0.2378   0.0623  -0.0336  -0.1165   0.00    0.0
2026/01/15 01:14:00.000   30.531675604  114.357270829    27.3930   6   8   0.1383   0.1751   0.2372   0.0618  -0.0332  -0.1160   0.00    0.0
2026/01/15 01:16:00.000   30.531675647  114.357270862    27.3757   6   4   0.1371   0.1734   0.2362   0.0610  -0.0329  -0.1150   0.00    0.0
2026/01/15 01:17:30.000   30.531675706  114.357270905    27.3680   6   8   0.1359   0.1718   0.2352   0.0602  -0.0323  -0.1142   0.00    0.0
2026/01/15 01:18:00.000   30.531675735  114.357270954    27.3706   6  15   0.1349   0.1710   0.2337   0.0597  -0.0318  -0.1132   0.00    0.0
2026/01/15 01:18:30.000   30.531675734  114.357270938    27.3698   6   8   0.1343   0.1702   0.2331   0.0592  -0.0314  -0.1128   0.00    0.0
2026/01/15 01:20:00.000   30.531675746  114.357270965    27.3621   6   6   0.1332   0.1687   0.2320   0.0583  -0.0309  -0.1118   0.00    0.0
2026/01/15 01:20:30.000   30.531675774  114.357270976    27.3625   6   8   0.1326   0.1678   0.2314   0.0577  -0.0304  -0.1115   0.00    0.0
2026/01/15 01:21:00.000   30.531675791  114.357271022    27.3582   6   4   0.1322   0.1674   0.2310   0.0575  -0.0304  -0.1112   0.00    0.0
2026/01/15 01:23:30.000   30.531675843  114.357271162    27.3404   6   4   0.1309   0.1655   0.2298   0.0565  -0.0299  -0.1101   0.00    0.0
2026/01/15 01:24:30.000   30.531675847  114.357271141    27.3346   6   4   0.1304   0.1646   0.2291   0.0561  -0.0298  -0.1096   0.00    0.0
2026/01/15 01:25:00.000   30.531675884  114.357271141    27.3431   6  14   0.1289   0.1635   0.2263   0.0555  -0.0289  -0.1077   0.00    0.0
2026/01/15 01:27:30.000   30.531675965  114.357271117    27.3404   6  15   0.1261   0.1608   0.2225   0.0540  -0.0277  -0.1053   0.00    0.0
2026/01/15 01:28:00.000   30.531675993  114.357271101    27.3462   6   9   0.1252   0.1596   0.2214   0.0532  -0.0274  -0.1048   0.00    0.0
2026/01/15 01:28:30.000   30.531676024  114.357271078    27.3526   6  13   0.1238   0.1583   0.2198   0.0527  -0.0269  -0.1036   0.00    0.0
2026/01/15 01:30:30.000   30.531676066  114.357271085    27.3538   6   8   0.1221   0.1562   0.2181   0.0514  -0.0262  -0.1027   0.00    0.0
2026/01/15 02:05:00.000   30.531676114  114.357270846    27.2291   6   5   0.1105   0.1381   0.2083   0.0447  -0.0215  -0.0955   0.00    0.0
2026/01/15 02:17:00.000   30.531676052  114.357270605    27.2166   6   6   0.1075   0.1328   0.2054   0.0430  -0.0208  -0.0938   0.00    0.0
2026/01/15 02:17:30.000   30.531676043  114.357270607    27.2186   6   7   0.1074   0.1326   0.2053   0.0429  -0.0208  -0.0937   0.00    0.0
2026/01/15 02:24:00.000   30.531675885  114.357270472    27.2249   6  13   0.1060   0.1301   0.2039   0.0421  -0.0206  -0.0930   0.00    0.0
2026/01/15 02:24:30.000   30.531675880  114.357270449    27.2256   6  13   0.1059   0.1299   0.2038   0.0420  -0.0206  -0.0929   0.00    0.0
2026/01/15 02:25:00.000   30.531675863  114.357270446    27.2277   6  14   0.1057   0.1297   0.2036   0.0420  -0.0205  -0.0928   0.00    0.0
2026/01/15 02:25:30.000   30.531675851  114.357270435    27.2276   6  14   0.1056   0.1295   0.2035   0.0419  -0.0204  -0.0927   0.00    0.0
2026/01/15 02:26:00.000   30.531675824  114.357270410    27.2289   6  14   0.1055   0.1293   0.2033   0.0418  -0.0204  -0.0927   0.00    0.0
2026/01/15 02:26:30.000   30.531675814  114.357270383    27.2308   6  15   0.1054   0.1291   0.2032   0.0418  -0.0203  -0.0926   0.00    0.0
2026/01/15 02:27:00.000   30.531675787  114.357270359    27.2330   6  15   0.1053   0.1289   0.2030   0.0417  -0.0202  -0.0925   0.00    0.0
2026/01/15 02:27:30.000   30.531675780  114.357270357    27.2334   6  15   0.1051   0.1287   0.2029   0.0416  -0.0201  -0.0924   0.00    0.0
2026/01/15 02:28:00.000   30.531675772  114.357270341    27.2355   6  18   0.1050   0.1285   0.2027   0.0415  -0.0200  -0.0923   0.00    0.0
2026/01/15 02:28:30.000   30.531675774  114.357270327    27.2366   6  19   0.1049   0.1283   0.2025   0.0415  -0.0199  -0.0922   0.00    0.0
2026/01/15 02:29:00.000   30.531675763  114.357270317    27.2405   6  19   0.1048   0.1281   0.2024   0.0414  -0.0197  -0.0921   0.00    0.0
2026/01/15 02:29:30.000   30.531675750  114.357270301    27.2428   6  19   0.1047   0.1279   0.2022   0.0413  -0.0196  -0.0920   0.00    0.0
2026/01/15 02:30:00.000   30.531675730  114.357270287    27.2444   6  19   0.1045   0.1278   0.2020   0.0412  -0.0194  -0.0919   0.00    0.0
2026/01/15 02:30:30.000   30.531675721  114.357270265    27.2466   6  19   0.1044   0.1276   0.2017   0.0411  -0.0192  -0.0918   0.00    0.0
2026/01/15 02:31:00.000   30.531675708  114.357270246    27.2485   6  19   0.1042   0.1274   0.2015   0.0410  -0.0190  -0.0916   0.00    0.0
2026/01/15 02:31:30.000   30.531675691  114.357270227    27.2516   6  15   0.1041   0.1272   0.2013   0.0409  -0.0188  -0.0915   0.00    0.0
2026/01/15 02:32:00.000   30.531675663  114.357270196    27.2537   6  16   0.1039   0.1270   0.2010   0.0408  -0.0185  -0.0914   0.00    0.0
2026/01/15 02:32:30.000   30.531675648  114.357270183    27.2560   6  16   0.1038   0.1268   0.2007   0.0407  -0.0183  -0.0912   0.00    0.0
2026/01/15 02:33:00.000   30.531675628  114.357270159    27.2602   6  16   0.1036   0.1266   0.2004   0.0406  -0.0181  -0.0910   0.00    0.0
2026/01/15 02:33:30.000   30.531675612  114.357270146    27.2631   6  11   0.1035   0.1264   0.2002   0.0405  -0.0178  -0.0909   0.00    0.0
2026/01/15 02:34:00.000   30.531675597  114.357270133    27.2661   6  16   0.1033   0.1262   0.1999   0.0403  -0.0175  -0.0907   0.00    0.0
2026/01/15 02:34:30.000   30.531675586  114.357270125    27.2690   6  16   0.1031   0.1260   0.1995   0.0402  -0.0171  -0.0906   0.00    0.0
2026/01/15 02:35:00.000   30.531675579  114.357270095    27.2721   6  15   0.1029   0.1258   0.1991   0.0401  -0.0167  -0.0904   0.00    0.0
2026/01/15 02:35:30.000   30.531675573  114.357270078    27.2744   6  17   0.1027   0.1256   0.1987   0.0399  -0.0163  -0.0901   0.00    0.0
2026/01/15 02:36:00.000   30.531675559  114.357270055    27.2778   6  16   0.1025   0.1254   0.1983   0.0397  -0.0159  -0.0899   0.00    0.0
2026/01/15 02:36:30.000   30.531675558  114.357270032    27.2822   6  16   0.1023   0.1252   0.1979   0.0396  -0.0154  -0.0897   0.00    0.0
2026/01/15 02:37:00.000   30.531675542  114.357269994    27.2848   6   9   0.1021   0.1250   0.1976   0.0395  -0.0149  -0.0895   0.00    0.0
2026/01/15 02:37:30.000   30.531675523  114.357269964    27.2903   6  16   0.1019   0.1247   0.1971   0.0393  -0.0144  -0.0893   0.00    0.0
2026/01/15 02:38:00.000   30.531675506  114.357269928    27.2946   6  16   0.1016   0.1245   0.1966   0.0391  -0.0137  -0.0890   0.00    0.0
2026/01/15 02:38:30.000   30.531675496  114.357269896    27.2979   6  16   0.1014   0.1243   0.1960   0.0389  -0.0131  -0.0887   0.00    0.0
2026/01/15 02:39:00.000   30.531675481  114.357269874    27.3024   6  16   0.1011   0.1241   0.1955   0.0387  -0.0123  -0.0884   0.00    0.0
2026/01/15 02:39:30.000   30.531675477  114.357269866    27.3066   6  16   0.1009   0.1239   0.1949   0.0385  -0.0115  -0.0881   0.00    0.0
2026/01/15 02:40:00.000   30.531675463  114.357269830    27.3116   6  16   0.1006   0.1237   0.1943   0.0382  -0.0106  -0.0878   0.00    0.0
2026/01/15 02:40:30.000   30.531675454  114.357269802    27.3161   6  16   0.1003   0.1234   0.1936   0.0380  -0.0095  -0.0874   0.00    0.0
2026/01/15 02:41:00.000   30.531675450  114.357269791    27.3207   6  16   0.1000   0.1232   0.1930   0.0378  -0.0083  -0.0871   0.00    0.0
2026/01/15 02:41:30.000   30.531675448  114.357269792    27.3242   6  18   0.0997   0.1230   0.1923   0.0375  -0.0067  -0.0867   0.00    0.0
2026/01/15 02:42:00.000   30.531675437  114.357269777    27.3295   6  19   0.0994   0.1228   0.1916   0.0373  -0.0047  -0.0863   0.00    0.0
2026/01/15 02:42:30.000   30.531675425  114.357269768    27.3345   6  16   0.0991   0.1225   0.1909   0.0370   0.0015  -0.0860   0.00    0.0
2026/01/15 02:43:00.000   30.531675407  114.357269745    27.3401   6  16   0.0987   0.1223   0.1902   0.0367   0.0052  -0.0856   0.00    0.0
2026/01/15 02:43:30.000   30.531675402  114.357269735    27.3445   6  15   0.0984   0.1221   0.1894   0.0365   0.0073  -0.0851   0.00    0.0
2026/01/15 02:44:00.000   30.531675386  114.357269712    27.3492   6  16   0.0980   0.1218   0.1886   0.0362   0.0089  -0.0847   0.00    0.0
2026/01/15 02:44:30.000   30.531675379  114.357269693    27.3543   6  20   0.0977   0.1216   0.1878   0.0359   0.0103  -0.0843   0.00    0.0
2026/01/15 02:45:00.000   30.531675377  114.357269673    27.3598   6  20   0.0973   0.1213   0.1870   0.0355   0.0116  -0.0839   0.00    0.0
2026/01/15 02:45:30.000   30.531675362  114.357269644    27.3655   6  20   0.0969   0.1211   0.1862   0.0352   0.0128  -0.0834   0.00    0.0
2026/01/15 02:46:00.000   30.531675354  114.357269618    27.3683   6  16   0.0966   0.1208   0.1853   0.0349   0.0138  -0.0829   0.00    0.0
2026/01/15 02:46:30.000   30.531675344  114.357269593    27.3725   6  20   0.0962   0.1206   0.1844   0.0346   0.0149  -0.0825   0.00    0.0
2026/01/15 02:47:00.000   30.531675349  114.357269583    27.3779   6  20   0.0958   0.1203   0.1835   0.0342   0.0158  -0.0820   0.00    0.0
2026/01/15 02:47:30.000   30.531675346  114.357269565    27.3828   6  16   0.0954   0.1201   0.1826   0.0338   0.0168  -0.0815   0.00    0.0
2026/01/15 02:48:00.000   30.531675338  114.357269536    27.3894   6  21   0.0950   0.1198   0.1817   0.0335   0.0177  -0.0810   0.00    0.0
2026/01/15 02:48:30.000   30.531675340  114.357269515    27.3949   6  21   0.0945   0.1196   0.1807   0.0331   0.0185  -0.0805   0.00    0.0
2026/01/15 02:49:00.000   30.531675340  114.357269501    27.3993   6  21   0.0941   0.1193   0.1797   0.0327   0.0194  -0.0799   0.00    0.0
2026/01/15 02:49:30.000   30.531675336  114.357269484    27.4051   6  21   0.0937   0.1190   0.1787   0.0323   0.0202  -0.0794   0.00    0.0
2026/01/15 02:50:00.000   30.531675329  114.357269465    27.4101   6  21   0.0932   0.1188   0.1777   0.0319   0.0210  -0.0789   0.00    0.0
2026/01/15 02:50:30.000   30.531675333  114.357269460    27.4158   6  21   0.0927   0.1185   0.1766   0.0314   0.0218  -0.0783   0.00    0.0
2026/01/15 02:51:00.000   30.531675335  114.357269444    27.4197   6  21   0.0923   0.1182   0.1756   0.0310   0.0225  -0.0777   0.00    0.0
2026/01/15 02:51:30.000   30.531675335  114.357269417    27.4247   6  21   0.0918   0.1179   0.1745   0.0306   0.0233  -0.0772   0.00    0.0
2026/01/15 02:52:00.000   30.531675336  114.357269382    27.4298   6  21   0.0913   0.1176   0.1734   0.0301   0.0240  -0.0766   0.00    0.0
2026/01/15 02:52:30.000   30.531675348  114.357269372    27.4345   6  21   0.0908   0.1173   0.1723   0.0296   0.0247  -0.0760   0.00    0.0
2026/01/15 02:53:00.000   30.531675363  114.357269347    27.4380   6  21   0.0903   0.1171   0.1712   0.0291   0.0254  -0.0754   0.00    0.0
2026/01/15 02:53:30.000   30.531675366  114.357269335    27.4424   6  22   0.0898   0.1168   0.1701   0.0287   0.0260  -0.0748   0.00    0.0
2026/01/15 02:54:00.000   30.531675368  114.357269309    27.4469   6  22   0.0893   0.1164   0.1689   0.0282   0.0266  -0.0742   0.00    0.0
2026/01/15 02:54:30.000   30.531675368  114.357269295    27.4517   6  22   0.0888   0.1161   0.1678   0.0277   0.0272  -0.0736   0.00    0.0
2026/01/15 02:55:00.000   30.531675370  114.357269286    27.4577   6  22   0.0883   0.1158   0.1666   0.0272   0.0278  -0.0730   0.00    0.0
2026/01/15 02:55:30.000   30.531675376  114.357269291    27.4629   6  21   0.0878   0.1155   0.1655   0.0267   0.0285  -0.0724   0.00    0.0
2026/01/15 02:56:00.000   30.531675382  114.357269277    27.4688   6  21   0.0873   0.1152   0.1644   0.0262   0.0292  -0.0717   0.00    0.0
2026/01/15 02:56:30.000   30.531675390  114.357269262    27.4736   6  21   0.0867   0.1149   0.1633   0.0257   0.0298  -0.0711   0.00    0.0
2026/01/15 02:57:00.000   30.531675392  114.357269236    27.4783   6  21   0.0862   0.1146   0.1621   0.0252   0.0304  -0.0704   0.00    0.0
2026/01/15 02:57:30.000   30.531675391  114.357269219    27.4857   6  21   0.0857   0.1143   0.1610   0.0246   0.0310  -0.0697   0.00    0.0
2026/01/15 02:58:00.000   30.531675400  114.357269197    27.4908   6  21   0.0851   0.1139   0.1598   0.0241   0.0316  -0.0691   0.00    0.0
2026/01/15 02:58:30.000   30.531675406  114.357269186    27.4970   6  21   0.0846   0.1136   0.1587   0.0235   0.0322  -0.0684   0.00    0.0
2026/01/15 02:59:00.000   30.531675407  114.357269194    27.5020   6  21   0.0840   0.1133   0.1575   0.0230   0.0328  -0.0678   0.00    0.0
2026/01/15 02:59:30.000   30.531675417  114.357269177    27.5085   6  21   0.0835   0.1129   0.1563   0.0224   0.0333  -0.0671   0.00    0.0
2026/01/15 03:00:00.000   30.531675427  114.357269160    27.5147   6  21   0.0829   0.1126   0.1551   0.0218   0.0338  -0.0665   0.00    0.0
2026/01/15 03:00:30.000   30.531675437  114.357269152    27.5207   6  21   0.0824   0.1122   0.1540   0.0212   0.0343  -0.0658   0.00    0.0
2026/01/15 03:01:00.000   30.531675452  114.357269144    27.5258   6  21   0.0818   0.1119   0.1528   0.0206   0.0348  -0.0651   0.00    0.0
2026/01/15 03:01:30.000   30.531675460  114.357269124    27.5309   6  21   0.0812   0.1115   0.1516   0.0199   0.0353  -0.0645   0.00    0.0
2026/01/15 03:02:00.000   30.531675471  114.357269108    27.5373   6  21   0.0807   0.1112   0.1504   0.0193   0.0357  -0.0639   0.00    0.0
2026/01/15 03:02:30.000   30.531675485  114.357269091    27.5427   6  21   0.0801   0.1108   0.1492   0.0186   0.0362  -0.0632   0.00    0.0
2026/01/15 03:03:00.000   30.531675503  114.357269080    27.5475   6  21   0.0795   0.1104   0.1480   0.0179   0.0366  -0.0626   0.00    0.0
2026/01/15 03:03:30.000   30.531675525  114.357269068    27.5506   6  21   0.0790   0.1101   0.1469   0.0172   0.0370  -0.0619   0.00    0.0
2026/01/15 03:04:00.000   30.531675548  114.357269061    27.5535   6  21   0.0784   0.1097   0.1457   0.0165   0.0374  -0.0613   0.00    0.0
2026/01/15 03:04:30.000   30.531675567  114.357269049    27.5578   6  21   0.0778   0.1093   0.1445   0.0157   0.0377  -0.0607   0.00    0.0
2026/01/15 03:05:00.000   30.531675585  114.357269034    27.5629   6  21   0.0772   0.1089   0.1433   0.0149   0.0381  -0.0601   0.00    0.0
2026/01/15 03:05:30.000   30.531675605  114.357269025    27.5665   6  21   0.0767   0.1085   0.1421   0.0141   0.0384  -0.0595   0.00    0.0
2026/01/15 03:06:00.000   30.531675619  114.357269028    27.5700   6  22   0.0761   0.1081   0.1410   0.0132   0.0387  -0.0589   0.00    0.0
2026/01/15 03:06:30.000   30.531675641  114.357269019    27.5719   6  22   0.0755   0.1077   0.1398   0.0123   0.0390  -0.0583   0.00    0.0
2026/01/15 03:07:00.000   30.531675651  114.357269013    27.5770   6  22   0.0750   0.1073   0.1386   0.0114   0.0393  -0.0577   0.00    0.0
2026/01/15 03:07:30.000   30.531675664  114.357269023    27.5814   6  21   0.0744   0.1069   0.1375   0.0104   0.0396  -0.0571   0.00    0.0
2026/01/15 03:08:00.000   30.531675672  114.357269015    27.5865   6  21   0.0738   0.1065   0.1363   0.0092   0.0399  -0.0565   0.00    0.0
2026/01/15 03:08:30.000   30.531675689  114.357269017    27.5907   6  21   0.0732   0.1061   0.1352   0.0080   0.0401  -0.0560   0.00    0.0
2026/01/15 03:09:00.000   30.531675708  114.357269003    27.5938   6  21   0.0727   0.1057   0.1342   0.0065   0.0406  -0.0554   0.00    0.0
2026/01/15 03:09:30.000   30.531675718  114.357268987    27.5983   6  20   0.0721   0.1053   0.1332   0.0046   0.0411  -0.0549   0.00    0.0
2026/01/15 03:10:00.000   30.531675736  114.357268976    27.6027   6  20   0.0715   0.1049   0.1323   0.0005   0.0415  -0.0544   0.00    0.0
2026/01/15 03:10:30.000   30.531675758  114.357268972    27.6073   6  20   0.0710   0.1045   0.1313  -0.0045   0.0419  -0.0538   0.00    0.0
2026/01/15 03:11:00.000   30.531675785  114.357268973    27.6119   6  20   0.0704   0.1041   0.1304  -0.0063   0.0423  -0.0533   0.00    0.0
2026/01/15 03:11:30.000   30.531675805  114.357268962    27.6162   6  21   0.0699   0.1037   0.1294  -0.0077   0.0426  -0.0528   0.00    0.0
2026/01/15 03:12:00.000   30.531675825  114.357268959    27.6197   6  21   0.0693   0.1033   0.1285  -0.0089   0.0430  -0.0523   0.00    0.0
2026/01/15 03:12:30.000   30.531675848  114.357268969    27.6229   6  21   0.0687   0.1029   0.1275  -0.0098   0.0433  -0.0518   0.00    0.0
2026/01/15 03:13:00.000   30.531675868  114.357268952    27.6260   6  21   0.0682   0.1025   0.1266  -0.0107   0.0436  -0.0513   0.00    0.0
2026/01/15 03:13:30.000   30.531675892  114.357268922    27.6277   6  21   0.0676   0.1021   0.1257  -0.0115   0.0439  -0.0509   0.00    0.0
2026/01/15 03:14:00.000   30.531675910  114.357268906    27.6304   6  20   0.0671   0.1017   0.1247  -0.0122   0.0442  -0.0504   0.00    0.0
2026/01/15 03:14:30.000   30.531675935  114.357268892    27.6326   6  20   0.0666   0.1012   0.1238  -0.0129   0.0445  -0.0499   0.00    0.0
2026/01/15 03:15:00.000   30.531675955  114.357268868    27.6359   6  20   0.0660   0.1008   0.1229  -0.0135   0.0447  -0.0495   0.00    0.0
2026/01/15 03:15:30.000   30.531675975  114.357268860    27.6392   6  20   0.0655   0.1004   0.1220  -0.0141   0.0449  -0.0490   0.00    0.0
2026/01/15 03:16:00.000   30.531675995  114.357268839    27.6424   6  20   0.0649   0.1000   0.1211  -0.0146   0.0451  -0.0486   0.00    0.0
2026/01/15 03:16:30.000   30.531676014  114.357268816    27.6448   6  20   0.0644   0.0995   0.1202  -0.0151   0.0454  -0.0482   0.00    0.0
2026/01/15 03:17:00.000   30.531676031  114.357268797    27.6478   6  20   0.0639   0.0991   0.1193  -0.0156   0.0455  -0.0478   0.00    0.0
2026/01/15 03:17:30.000   30.531676047  114.357268790    27.6506   6  20   0.0634   0.0987   0.1184  -0.0160   0.0457  -0.0473   0.00    0.0
2026/01/15 03:18:00.000   30.531676050  114.357268782    27.6520   6  12   0.0631   0.0984   0.1180  -0.0161   0.0457  -0.0471   0.00    0.0
2026/01/15 03:18:30.000   30.531676072  114.357268763    27.6540   6  21   0.0625   0.0979   0.1171  -0.0165   0.0458  -0.0467   0.00    0.0
2026/01/15 03:19:00.000   30.531676093  114.357268764    27.6561   6  22   0.0620   0.0975   0.1162  -0.0169   0.0460  -0.0463   0.00    0.0
2026/01/15 03:19:30.000   30.531676103  114.357268760    27.6562   6  20   0.0615   0.0970   0.1155  -0.0173   0.0461  -0.0457   0.00    0.0
2026/01/15 03:20:00.000   30.531676124  114.357268733    27.6581   6  22   0.0610   0.0966   0.1146  -0.0177   0.0462  -0.0454   0.00    0.0
2026/01/15 03:20:30.000   30.531676145  114.357268718    27.6605   6  22   0.0605   0.0961   0.1138  -0.0180   0.0463  -0.0450   0.00    0.0
2026/01/15 03:21:00.000   30.531676167  114.357268700    27.6638   6  22   0.0600   0.0956   0.1129  -0.0183   0.0464  -0.0446   0.00    0.0
2026/01/15 03:21:30.000   30.531676190  114.357268680    27.6660   6  22   0.0595   0.0952   0.1120  -0.0186   0.0465  -0.0443   0.00    0.0
2026/01/15 03:22:00.000   30.531676217  114.357268659    27.6679   6  22   0.0590   0.0947   0.1111  -0.0189   0.0466  -0.0439   0.00    0.0
2026/01/15 03:22:30.000   30.531676230  114.357268645    27.6684   6  13   0.0587   0.0944   0.1108  -0.0189   0.0465  -0.0437   0.00    0.0
2026/01/15 03:23:00.000   30.531676255  114.357268628    27.6700   6  22   0.0582   0.0939   0.1099  -0.0191   0.0465  -0.0434   0.00    0.0
2026/01/15 03:23:30.000   30.531676277  114.357268618    27.6712   6  22   0.0577   0.0935   0.1091  -0.0194   0.0466  -0.0430   0.00    0.0
2026/01/15 03:24:00.000   30.531676303  114.357268607    27.6732   6  21   0.0572   0.0930   0.1083  -0.0196   0.0467  -0.0426   0.00    0.0
2026/01/15 03:24:30.000   30.531676313  114.357268615    27.6731   6  13   0.0569   0.0927   0.1080  -0.0196   0.0467  -0.0424   0.00    0.0
2026/01/15 03:25:00.000   30.531676330  114.357268626    27.6756   6  21   0.0565   0.0922   0.1073  -0.0197   0.0468  -0.0420   0.00    0.0
2026/01/15 03:25:30.000   30.531676352  114.357268626    27.6785   6  21   0.0560   0.0918   0.1066  -0.0199   0.0470  -0.0416   0.00    0.0
2026/01/15 03:26:00.000   30.531676352  114.357268624    27.6789   6   6   0.0559   0.0915   0.1064  -0.0198   0.0468  -0.0416   0.00    0.0
2026/01/15 03:26:30.000   30.531676365  114.357268635    27.6796   6  12   0.0556   0.0912   0.1061  -0.0198   0.0467  -0.0414   0.00    0.0
2026/01/15 03:27:00.000   30.531676384  114.357268628    27.6824   6  21   0.0551   0.0907   0.1054  -0.0199   0.0468  -0.0410   0.00    0.0
2026/01/15 03:27:30.000   30.531676380  114.357268625    27.6833   6  10   0.0550   0.0904   0.1050  -0.0199   0.0467  -0.0408   0.00    0.0
2026/01/15 03:28:00.000   30.531676379  114.357268624    27.6841   6   6   0.0549   0.0901   0.1049  -0.0198   0.0465  -0.0408   0.00    0.0
2026/01/15 03:28:30.000   30.531676382  114.357268620    27.6842   6   5   0.0548   0.0899   0.1048  -0.0198   0.0464  -0.0408   0.00    0.0
2026/01/15 03:29:00.000   30.531676386  114.357268620    27.6846   6   5   0.0547   0.0896   0.1047  -0.0197   0.0462  -0.0408   0.00    0.0
2026/01/15 03:29:30.000   30.531676389  114.357268607    27.6845   6   5   0.0546   0.0893   0.1046  -0.0196   0.0460  -0.0407   0.00    0.0
2026/01/15 03:31:30.000   30.531676382  114.357268579    27.6860   6   5   0.0545   0.0888   0.1044  -0.0195   0.0457  -0.0407   0.00    0.0
2026/01/15 03:40:00.000   30.531676302  114.357268391    27.6947   6   5   0.0540   0.0873   0.1040  -0.0193   0.0450  -0.0404   0.00    0.0
2026/01/15 03:45:00.000   30.531676259  114.357268281    27.7015   6  18   0.0538   0.0864   0.1037  -0.0196   0.0448  -0.0405   0.00    0.0
2026/01/15 03:45:30.000   30.531676262  114.357268291    27.7044   6  18   0.0536   0.0860   0.1036  -0.0198   0.0448  -0.0406   0.00    0.0
2026/01/15 03:46:00.000   30.531676270  114.357268304    27.7066   6  18   0.0535   0.0856   0.1034  -0.0201   0.0448  -0.0408   0.00    0.0
2026/01/15 03:46:30.000   30.531676281  114.357268325    27.7094   6  18   0.0534   0.0853   0.1033  -0.0203   0.0447  -0.0410   0.00    0.0
2026/01/15 03:47:00.000   30.531676291  114.357268336    27.7119   6  18   0.0533   0.0849   0.1031  -0.0205   0.0447  -0.0411   0.00    0.0
2026/01/15 03:47:30.000   30.531676299  114.357268349    27.7142   6  18   0.0531   0.0845   0.1030  -0.0207   0.0447  -0.0413   0.00    0.0
2026/01/15 03:48:00.000   30.531676306  114.357268363    27.7174   6  18   0.0530   0.0842   0.1029  -0.0209   0.0446  -0.0414   0.00    0.0
2026/01/15 03:48:30.000   30.531676314  114.357268370    27.7198   6  18   0.0529   0.0838   0.1027  -0.0211   0.0446  -0.0416   0.00    0.0
2026/01/15 03:49:00.000   30.531676326  114.357268372    27.7220   6  18   0.0528   0.0835   0.1026  -0.0213   0.0446  -0.0417   0.00    0.0
2026/01/15 03:49:30.000   30.531676331  114.357268375    27.7241   6  18   0.0527   0.0831   0.1024  -0.0215   0.0445  -0.0419   0.00    0.0
2026/01/15 03:50:00.000   30.531676337  114.357268390    27.7267   6  18   0.0525   0.0828   0.1023  -0.0217   0.0445  -0.0420   0.00    0.0
2026/01/15 03:50:30.000   30.531676342  114.357268402    27.7293   6  18   0.0524   0.0825   0.1021  -0.0218   0.0444  -0.0421   0.00    0.0
2026/01/15 03:51:00.000   30.531676348  114.357268408    27.7314   6  18   0.0523   0.0821   0.1020  -0.0220   0.0444  -0.0423   0.00    0.0
2026/01/15 03:51:30.000   30.531676357  114.357268401    27.7333   6  18   0.0522   0.0818   0.1019  -0.0221   0.0444  -0.0424   0.00    0.0
2026/01/15 03:52:00.000   30.531676365  114.357268415    27.7355   6  18   0.0521   0.0815   0.1017  -0.0222   0.0443  -0.0425   0.00    0.0
2026/01/15 03:52:30.000   30.531676368  114.357268422    27.7377   6  18   0.0520   0.0811   0.1016  -0.0224   0.0443  -0.0426   0.00    0.0
2026/01/15 03:53:00.000   30.531676375  114.357268427    27.7398   6  18   0.0518   0.0808   0.1014  -0.0225   0.0442  -0.0428   0.00    0.0
2026/01/15 03:53:30.000   30.531676383  114.357268439    27.7416   6  19   0.0517   0.0805   0.1013  -0.0226   0.0442  -0.0429   0.00    0.0
2026/01/15 03:54:00.000   30.531676390  114.357268444    27.7436   6  19   0.0516   0.0802   0.1011  -0.0227   0.0442  -0.0430   0.00    0.0
2026/01/15 03:54:30.000   30.531676398  114.357268448    27.7450   6  19   0.0515   0.0798   0.1010  -0.0228   0.0441  -0.0431   0.00    0.0
2026/01/15 03:55:00.000   30.531676405  114.357268456    27.7470   6  19   0.0514   0.0795   0.1008  -0.0229   0.0441  -0.0432   0.00    0.0
2026/01/15 03:55:30.000   30.531676413  114.357268461    27.7489   6  19   0.0513   0.0792   0.1007  -0.0230   0.0440  -0.0433   0.00    0.0
2026/01/15 03:56:00.000   30.531676419  114.357268465    27.7514   6  19   0.0511   0.0789   0.1005  -0.0231   0.0440  -0.0434   0.00    0.0
2026/01/15 03:56:30.000   30.531676423  114.357268464    27.7541   6  19   0.0510   0.0786   0.1004  -0.0232   0.0440  -0.0435   0.00    0.0
2026/01/15 03:57:00.000   30.531676431  114.357268462    27.7565   6  19   0.0509   0.0783   0.1002  -0.0233   0.0439  -0.0436   0.00    0.0
2026/01/15 03:57:30.000   30.531676437  114.357268466    27.7584   6  19   0.0508   0.0779   0.1001  -0.0234   0.0439  -0.0437   0.00    0.0
2026/01/15 03:58:00.000   30.531676444  114.357268471    27.7603   6  19   0.0507   0.0776   0.0999  -0.0234   0.0438  -0.0438   0.00    0.0
2026/01/15 03:58:30.000   30.531676448  114.357268469    27.7629   6  19   0.0506   0.0773   0.0998  -0.0235   0.0438  -0.0439   0.00    0.0
2026/01/15 03:59:00.000   30.531676454  114.357268476    27.7655   6  19   0.0504   0.0770   0.0996  -0.0236   0.0437  -0.0440   0.00    0.0
2026/01/15 03:59:30.000   30.531676458  114.357268485    27.7680   6  19   0.0503   0.0767   0.0995  -0.0236   0.0437  -0.0441   0.00    0.0
2026/01/15 04:00:00.000   30.531676466  114.357268489    27.7707   6  19   0.0502   0.0764   0.0993  -0.0237   0.0436  -0.0442   0.00    0.0
2026/01/15 04:00:30.000   30.531676474  114.357268488    27.7725   6  20   0.0501   0.0761   0.0992  -0.0237   0.0436  -0.0443   0.00    0.0
2026/01/15 04:01:00.000   30.531676480  114.357268495    27.7746   6  20   0.0500   0.0758   0.0990  -0.0238   0.0435  -0.0443   0.00    0.0
2026/01/15 04:01:30.000   30.531676487  114.357268505    27.7766   6  20   0.0498   0.0755   0.0988  -0.0238   0.0435  -0.0444   0.00    0.0
2026/01/15 04:02:00.000   30.531676493  114.357268510    27.7786   6  20   0.0497   0.0752   0.0987  -0.0239   0.0434  -0.0445   0.00    0.0
2026/01/15 04:02:30.000   30.531676500  114.357268516    27.7810   6  20   0.0496   0.0749   0.0985  -0.0239   0.0434  -0.0445   0.00    0.0
2026/01/15 04:03:00.000   30.531676506  114.357268517    27.7828   6  20   0.0495   0.0746   0.0984  -0.0239   0.0433  -0.0446   0.00    0.0
2026/01/15 04:03:30.000   30.531676515  114.357268519    27.7844   6  20   0.0494   0.0743   0.0982  -0.0240   0.0433  -0.0447   0.00    0.0
2026/01/15 04:04:00.000   30.531676525  114.357268525    27.7863   6  20   0.0492   0.0740   0.0980  -0.0240   0.0432  -0.0447   0.00    0.0
2026/01/15 04:04:30.000   30.531676536  114.357268536    27.7875   6  20   0.0491   0.0737   0.0978  -0.0240   0.0432  -0.0448   0.00    0.0
2026/01/15 04:05:00.000   30.531676544  114.357268542    27.7890   6  20   0.0490   0.0734   0.0977  -0.0240   0.0431  -0.0448   0.00    0.0
2026/01/15 04:05:30.000   30.531676553  114.357268550    27.7907   6  20   0.0489   0.0731   0.0975  -0.0241   0.0431  -0.0449   0.00    0.0
2026/01/15 04:06:00.000   30.531676558  114.357268550    27.7922   6  20   0.0487   0.0728   0.0973  -0.0241   0.0430  -0.0449   0.00    0.0
2026/01/15 04:06:30.000   30.531676564  114.357268547    27.7940   6  20   0.0486   0.0725   0.0971  -0.0241   0.0429  -0.0450   0.00    0.0
2026/01/15 04:07:00.000   30.531676568  114.357268548    27.7958   6  20   0.0485   0.0722   0.0970  -0.0241   0.0429  -0.0450   0.00    0.0
2026/01/15 04:07:30.000   30.531676574  114.357268553    27.7978   6  20   0.0484   0.0719   0.0968  -0.0241   0.0428  -0.0450   0.00    0.0
2026/01/15 04:08:00.000   30.531676580  114.357268554    27.7996   6  20   0.0482   0.0716   0.0966  -0.0241   0.0427  -0.0451   0.00    0.0
2026/01/15 04:08:30.000   30.531676585  114.357268560    27.8018   6  20   0.0481   0.0713   0.0964  -0.0241   0.0427  -0.0451   0.00    0.0
2026/01/15 04:09:00.000   30.531676593  114.357268561    27.8037   6  20   0.0480   0.0710   0.0962  -0.0241   0.0426  -0.0451   0.00    0.0
2026/01/15 04:09:30.000   30.531676596  114.357268563    27.8060   6  20   0.0478   0.0708   0.0960  -0.0241   0.0425  -0.0451   0.00    0.0
2026/01/15 04:10:00.000   30.531676602  114.357268567    27.8078   6  20   0.0477   0.0705   0.0959  -0.0241   0.0425  -0.0452   0.00    0.0
2026/01/15 04:10:30.000   30.531676607  114.357268566    27.8094   6  20   0.0476   0.0702   0.0957  -0.0241   0.0424  -0.0452   0.00    0.0
2026/01/15 04:11:00.000   30.531676613  114.357268570    27.8112   6  20   0.0474   0.0699   0.0955  -0.0241   0.0423  -0.0452   0.00    0.0
2026/01/15 04:11:30.000   30.531676619  114.357268555    27.8127   6  20   0.0473   0.0696   0.0953  -0.0240   0.0423  -0.0452   0.00    0.0
2026/01/15 04:12:00.000   30.531676627  114.357268556    27.8142   6  20   0.0472   0.0693   0.0951  -0.0240   0.0422  -0.0452   0.00    0.0
2026/01/15 04:12:30.000   30.531676630  114.357268555    27.8161   6  20   0.0470   0.0690   0.0949  -0.0240   0.0421  -0.0452   0.00    0.0
2026/01/15 04:13:00.000   30.531676637  114.357268551    27.8172   6  20   0.0469   0.0687   0.0947  -0.0240   0.0420  -0.0452   0.00    0.0
2026/01/15 04:13:30.000   30.531676641  114.357268545    27.8185   6  20   0.0468   0.0685   0.0945  -0.0239   0.0419  -0.0452   0.00    0.0
2026/01/15 04:14:00.000   30.531676646  114.357268551    27.8204   6  20   0.0466   0.0682   0.0943  -0.0239   0.0419  -0.0452   0.00    0.0
2026/01/15 04:14:30.000   30.531676651  114.357268549    27.8223   6  20   0.0465   0.0679   0.0941  -0.0239   0.0418  -0.0452   0.00    0.0
2026/01/15 04:15:00.000   30.531676656  114.357268547    27.8242   6  20   0.0463   0.0676   0.0939  -0.0239   0.0417  -0.0452   0.00    0.0
2026/01/15 04:15:30.000   30.531676662  114.357268548    27.8258   6  20   0.0462   0.0673   0.0936  -0.0238   0.0416  -0.0452   0.00    0.0
2026/01/15 04:16:00.000   30.531676666  114.357268550    27.8272   6  20   0.0460   0.0670   0.0934  -0.0238   0.0415  -0.0451   0.00    0.0
2026/01/15 04:16:30.000   30.531676673  114.357268554    27.8284   6  20   0.0459   0.0668   0.0932  -0.0237   0.0414  -0.0451   0.00    0.0
2026/01/15 04:17:00.000   30.531676679  114.357268553    27.8296   6  20   0.0458   0.0665   0.0930  -0.0237   0.0413  -0.0451   0.00    0.0
2026/01/15 04:17:30.000   30.531676686  114.357268559    27.8304   6  20   0.0456   0.0662   0.0928  -0.0236   0.0412  -0.0451   0.00    0.0
2026/01/15 04:18:00.000   30.531676691  114.357268565    27.8314   6  20   0.0455   0.0659   0.0926  -0.0236   0.0411  -0.0450   0.00    0.0
2026/01/15 04:18:30.000   30.531676698  114.357268572    27.8325   6  20   0.0453   0.0656   0.0923  -0.0235   0.0410  -0.0450   0.00    0.0
2026/01/15 04:19:00.000   30.531676706  114.357268575    27.8335   6  20   0.0452   0.0654   0.0921  -0.0235   0.0409  -0.0450   0.00    0.0
2026/01/15 04:19:30.000   30.531676712  114.357268575    27.8349   6  20   0.0450   0.0651   0.0919  -0.0234   0.0408  -0.0449   0.00    0.0
2026/01/15 04:20:00.000   30.531676720  114.357268577    27.8353   6  20   0.0449   0.0648   0.0917  -0.0234   0.0407  -0.0449   0.00    0.0
2026/01/15 04:20:30.000   30.531676728  114.357268583    27.8360   6  20   0.0447   0.0645   0.0914  -0.0233   0.0406  -0.0448   0.00    0.0
2026/01/15 04:21:00.000   30.531676734  114.357268587    27.8370   6  20   0.0446   0.0643   0.0912  -0.0233   0.0405  -0.0448   0.00    0.0
2026/01/15 04:21:30.000   30.531676743  114.357268583    27.8374   6  20   0.0444   0.0640   0.0910  -0.0232   0.0404  -0.0447   0.00    0.0
2026/01/15 04:22:00.000   30.531676750  114.357268581    27.8380   6  20   0.0442   0.0637   0.0907  -0.0231   0.0403  -0.0447   0.00    0.0
2026/01/15 04:22:30.000   30.531676755  114.357268580    27.8387   6  20   0.0441   0.0634   0.0905  -0.0231   0.0402  -0.0446   0.00    0.0
2026/01/15 04:23:00.000   30.531676761  114.357268584    27.8397   6  20   0.0439   0.0632   0.0902  -0.0230   0.0401  -0.0445   0.00    0.0
2026/01/15 04:23:30.000   30.531676768  114.357268583    27.8403   6  20   0.0438   0.0629   0.0900  -0.0229   0.0400  -0.0445   0.00    0.0
2026/01/15 04:24:00.000   30.531676776  114.357268582    27.8408   6  20   0.0436   0.0626   0.0898  -0.0228   0.0398  -0.0444   0.00    0.0
2026/01/15 04:24:30.000   30.531676783  114.357268582    27.8412   6  20   0.0435   0.0624   0.0895  -0.0228   0.0397  -0.0443   0.00    0.0
2026/01/15 04:25:00.000   30.531676789  114.357268583    27.8414   6  20   0.0433   0.0621   0.0893  -0.0227   0.0396  -0.0443   0.00    0.0
2026/01/15 04:25:30.000   30.531676798  114.357268583    27.8413   6  20   0.0431   0.0618   0.0890  -0.0226   0.0395  -0.0442   0.00    0.0
2026/01/15 04:26:00.000   30.531676805  114.357268587    27.8418   6  20   0.0430   0.0616   0.0888  -0.0225   0.0394  -0.0441   0.00    0.0
2026/01/15 04:26:30.000   30.531676813  114.357268597    27.8424   6  20   0.0428   0.0613   0.0885  -0.0224   0.0392  -0.0440   0.00    0.0
2026/01/15 04:27:00.000   30.531676818  114.357268593    27.8428   6  20   0.0427   0.0610   0.0882  -0.0224   0.0391  -0.0439   0.00    0.0
2026/01/15 04:27:30.000   30.531676827  114.357268592    27.8427   6  21   0.0425   0.0608   0.0880  -0.0223   0.0390  -0.0438   0.00    0.0
2026/01/15 04:28:00.000   30.531676834  114.357268596    27.8432   6  21   0.0423   0.0605   0.0877  -0.0222   0.0388  -0.0438   0.00    0.0
2026/01/15 04:28:30.000   30.531676840  114.357268589    27.8431   6  21   0.0422   0.0602   0.0875  -0.0221   0.0387  -0.0437   0.00    0.0
2026/01/15 04:29:00.000   30.531676848  114.357268588    27.8429   6  21   0.0420   0.0600   0.0872  -0.0220   0.0386  -0.0436   0.00    0.0
2026/01/15 04:29:30.000   30.531676857  114.357268588    27.8426   6  21   0.0418   0.0597   0.0869  -0.0219   0.0384  -0.0435   0.00    0.0
2026/01/15 04:30:00.000   30.531676866  114.357268591    27.8422   6  22   0.0417   0.0594   0.0867  -0.0218   0.0383  -0.0434   0.00    0.0
2026/01/15 04:30:30.000   30.531676875  114.357268588    27.8420   6  22   0.0415   0.0592   0.0864  -0.0217   0.0381  -0.0433   0.00    0.0
2026/01/15 04:31:00.000   30.531676883  114.357268594    27.8416   6  22   0.0413   0.0589   0.0861  -0.0216   0.0380  -0.0432   0.00    0.0
2026/01/15 04:31:30.000   30.531676888  114.357268600    27.8413   6  22   0.0412   0.0587   0.0860  -0.0215   0.0379  -0.0430   0.00    0.0
2026/01/15 04:32:00.000   30.531676893  114.357268601    27.8410   6  22   0.0410   0.0584   0.0858  -0.0214   0.0379  -0.0429   0.00    0.0
2026/01/15 04:32:30.000   30.531676900  114.357268598    27.8403   6  22   0.0408   0.0582   0.0856  -0.0213   0.0378  -0.0428   0.00    0.0
2026/01/15 04:33:00.000   30.531676910  114.357268600    27.8391   6  22   0.0407   0.0580   0.0855  -0.0211   0.0377  -0.0426   0.00    0.0
2026/01/15 04:33:30.000   30.531676918  114.357268600    27.8379   6  22   0.0405   0.0577   0.0853  -0.0210   0.0377  -0.0425   0.00    0.0
2026/01/15 04:34:00.000   30.531676926  114.357268600    27.8366   6  22   0.0403   0.0575   0.0851  -0.0209   0.0376  -0.0423   0.00    0.0
2026/01/15 04:34:30.000   30.531676934  114.357268602    27.8356   6  22   0.0401   0.0572   0.0850  -0.0208   0.0375  -0.0422   0.00    0.0
2026/01/15 04:35:00.000   30.531676942  114.357268605    27.8343   6  22   0.0400   0.0570   0.0848  -0.0207   0.0374  -0.0421   0.00    0.0
2026/01/15 04:35:30.000   30.531676950  114.357268605    27.8332   6  22   0.0398   0.0568   0.0846  -0.0206   0.0373  -0.0419   0.00    0.0
2026/01/15 04:36:00.000   30.531676957  114.357268606    27.8322   6  22   0.0396   0.0565   0.0844  -0.0204   0.0373  -0.0418   0.00    0.0
2026/01/15 04:36:30.000   30.531676964  114.357268606    27.8313   6  22   0.0395   0.0563   0.0842  -0.0203   0.0372  -0.0416   0.00    0.0
2026/01/15 04:37:00.000   30.531676973  114.357268604    27.8299   6  22   0.0393   0.0561   0.0841  -0.0202   0.0371  -0.0415   0.00    0.0
2026/01/15 04:37:30.000   30.531676981  114.357268610    27.8288   6  22   0.0391   0.0558   0.0839  -0.0201   0.0370  -0.0414   0.00    0.0
2026/01/15 04:38:00.000   30.531676988  114.357268609    27.8279   6  22   0.0389   0.0556   0.0837  -0.0199   0.0369  -0.0412   0.00    0.0
2026/01/15 04:38:30.000   30.531676995  114.357268614    27.8271   6  22   0.0388   0.0554   0.0835  -0.0198   0.0368  -0.0411   0.00    0.0
2026/01/15 04:39:00.000   30.531677002  114.357268616    27.8262   6  22   0.0386   0.0551   0.0833  -0.0197   0.0367  -0.0409   0.00    0.0
2026/01/15 04:39:30.000   30.531677006  114.357268620    27.8260   6  23   0.0384   0.0549   0.0831  -0.0196   0.0366  -0.0408   0.00    0.0
2026/01/15 04:40:00.000   30.531677011  114.357268622    27.8255   6  23   0.0382   0.0547   0.0829  -0.0194   0.0365  -0.0406   0.00    0.0
2026/01/15 04:40:30.000   30.531677016  114.357268624    27.8250   6  22   0.0381   0.0544   0.0827  -0.0193   0.0364  -0.0405   0.00    0.0
2026/01/15 04:41:00.000   30.531677024  114.357268626    27.8242   6  22   0.0379   0.0542   0.0825  -0.0192   0.0363  -0.0403   0.00    0.0
2026/01/15 04:41:30.000   30.531677030  114.357268630    27.8236   6  23   0.0377   0.0540   0.0823  -0.0191   0.0362  -0.0401   0.00    0.0
2026/01/15 04:42:00.000   30.531677035  114.357268636    27.8233   6  23   0.0375   0.0538   0.0821  -0.0189   0.0361  -0.0400   0.00    0.0
2026/01/15 04:42:30.000   30.531677041  114.357268637    27.8224   6  23   0.0374   0.0536   0.0819  -0.0188   0.0360  -0.0398   0.00    0.0
2026/01/15 04:43:00.000   30.531677049  114.357268637    27.8214   6  23   0.0372   0.0533   0.0817  -0.0187   0.0359  -0.0397   0.00    0.0
2026/01/15 04:43:30.000   30.531677056  114.357268639    27.8204   6  23   0.0370   0.0531   0.0815  -0.0185   0.0358  -0.0395   0.00    0.0
2026/01/15 04:44:00.000   30.531677063  114.357268641    27.8205   6  22   0.0368   0.0529   0.0814  -0.0184   0.0357  -0.0393   0.00    0.0
2026/01/15 04:44:30.000   30.531677069  114.357268642    27.8207   6  22   0.0367   0.0527   0.0812  -0.0183   0.0356  -0.0392   0.00    0.0
2026/01/15 04:45:00.000   30.531677073  114.357268644    27.8212   6  21   0.0365   0.0525   0.0810  -0.0181   0.0355  -0.0390   0.00    0.0
2026/01/15 04:45:30.000   30.531677078  114.357268648    27.8212   6  22   0.0363   0.0522   0.0808  -0.0180   0.0354  -0.0389   0.00    0.0
2026/01/15 04:46:00.000   30.531677085  114.357268645    27.8209   6  21   0.0362   0.0520   0.0806  -0.0179   0.0353  -0.0387   0.00    0.0
2026/01/15 04:46:30.000   30.531677088  114.357268641    27.8211   6  17   0.0361   0.0520   0.0805  -0.0179   0.0352  -0.0386   0.00    0.0
2026/01/15 04:47:00.000   30.531677090  114.357268639    27.8212   6  19   0.0360   0.0519   0.0803  -0.0179   0.0352  -0.0385   0.00    0.0
2026/01/15 04:47:30.000   30.531677094  114.357268640    27.8210   6  18   0.0359   0.0519   0.0801  -0.0180   0.0352  -0.0384   0.00    0.0
2026/01/15 04:48:00.000   30.531677098  114.357268638    27.8211   6  17   0.0358   0.0518   0.0799  -0.0180   0.0351  -0.0383   0.00    0.0
2026/01/15 04:48:30.000   30.531677103  114.357268640    27.8212   6  18   0.0357   0.0518   0.0798  -0.0180   0.0351  -0.0382   0.00    0.0
2026/01/15 04:49:00.000   30.531677108  114.357268641    27.8210   6  16   0.0356   0.0517   0.0796  -0.0180   0.0351  -0.0381   0.00    0.0
2026/01/15 04:49:30.000   30.531677111  114.357268643    27.8213   6  18   0.0356   0.0516   0.0794  -0.0180   0.0350  -0.0380   0.00    0.0
2026/01/15 04:50:00.000   30.531677116  114.357268645    27.8214   6  18   0.0355   0.0516   0.0792  -0.0181   0.0350  -0.0379   0.00    0.0
2026/01/15 04:50:30.000   30.531677122  114.357268644    27.8212   6  18   0.0354   0.0515   0.0791  -0.0181   0.0350  -0.0378   0.00    0.0
2026/01/15 04:51:00.000   30.531677129  114.357268648    27.8213   6  20   0.0352   0.0513   0.0788  -0.0179   0.0348  -0.0376   0.00    0.0
2026/01/15 04:51:30.000   30.531677138  114.357268651    27.8214   6  20   0.0350   0.0511   0.0786  -0.0177   0.0347  -0.0374   0.00    0.0
2026/01/15 04:52:00.000   30.531677147  114.357268653    27.8212   6  21   0.0348   0.0508   0.0784  -0.0176   0.0345  -0.0372   0.00    0.0
2026/01/15 04:52:30.000   30.531677151  114.357268654    27.8214   6  17   0.0347   0.0508   0.0782  -0.0176   0.0345  -0.0371   0.00    0.0
2026/01/15 04:53:00.000   30.531677158  114.357268658    27.8213   6  20   0.0345   0.0505   0.0780  -0.0174   0.0343  -0.0370   0.00    0.0
2026/01/15 04:53:30.000   30.531677161  114.357268660    27.8215   6  18   0.0344   0.0505   0.0778  -0.0174   0.0343  -0.0368   0.00    0.0
2026/01/15 04:54:00.000   30.531677168  114.357268662    27.8214   6  20   0.0343   0.0502   0.0775  -0.0173   0.0341  -0.0367   0.00    0.0
2026/01/15 04:54:30.000   30.531677171  114.357268662    27.8216   6  18   0.0342   0.0502   0.0773  -0.0173   0.0341  -0.0365   0.00    0.0
2026/01/15 04:55:00.000   30.531677176  114.357268666    27.8216   6  17   0.0341   0.0501   0.0771  -0.0173   0.0340  -0.0364   0.00    0.0
2026/01/15 04:55:30.000   30.531677180  114.357268668    27.8218   6  17   0.0340   0.0500   0.0769  -0.0173   0.0340  -0.0363   0.00    0.0
2026/01/15 04:56:00.000   30.531677184  114.357268672    27.8220   6  17   0.0339   0.0500   0.0767  -0.0174   0.0339  -0.0362   0.00    0.0
2026/01/15 04:56:30.000   30.531677189  114.357268678    27.8221   6  21   0.0337   0.0497   0.0765  -0.0172   0.0337  -0.0360   0.00    0.0
2026/01/15 04:57:00.000   30.531677196  114.357268681    27.8219   6  21   0.0335   0.0495   0.0762  -0.0170   0.0336  -0.0358   0.00    0.0
2026/01/15 04:57:30.000   30.531677201  114.357268684    27.8218   6  17   0.0334   0.0494   0.0760  -0.0170   0.0335  -0.0357   0.00    0.0
2026/01/15 04:58:00.000   30.531677207  114.357268688    27.8221   6  20   0.0332   0.0492   0.0758  -0.0168   0.0333  -0.0355   0.00    0.0
2026/01/15 04:58:30.000   30.531677211  114.357268693    27.8224   6  17   0.0331   0.0491   0.0756  -0.0168   0.0333  -0.0354   0.00    0.0
2026/01/15 04:59:00.000   30.531677216  114.357268697    27.8226   6  17   0.0330   0.0491   0.0753  -0.0168   0.0332  -0.0353   0.00    0.0
2026/01/15 05:00:00.000   30.531677217  114.357268701    27.8236   6  17   0.0329   0.0490   0.0751  -0.0169   0.0332  -0.0352   0.00    0.0
2026/01/15 05:03:00.000   30.531677212  114.357268686    27.8248   6  18   0.0328   0.0489   0.0749  -0.0169   0.0331  -0.0350   0.00    0.0
2026/01/15 05:04:00.000   30.531677217  114.357268688    27.8243   6  19   0.0327   0.0488   0.0746  -0.0169   0.0330  -0.0349   0.00    0.0
2026/01/15 05:04:30.000   30.531677226  114.357268695    27.8240   6  22   0.0325   0.0485   0.0743  -0.0167   0.0328  -0.0347   0.00    0.0
2026/01/15 05:05:00.000   30.531677232  114.357268698    27.8238   6  18   0.0324   0.0484   0.0741  -0.0167   0.0328  -0.0345   0.00    0.0
2026/01/15 05:05:30.000   30.531677238  114.357268702    27.8236   6  21   0.0322   0.0482   0.0738  -0.0164   0.0326  -0.0343   0.00    0.0
2026/01/15 05:06:00.000   30.531677243  114.357268706    27.8234   6  18   0.0321   0.0481   0.0735  -0.0164   0.0325  -0.0342   0.00    0.0
2026/01/15 05:06:30.000   30.531677250  114.357268712    27.8234   6  21   0.0319   0.0479   0.0732  -0.0162   0.0323  -0.0339   0.00    0.0
2026/01/15 05:07:00.000   30.531677256  114.357268714    27.8232   6  18   0.0318   0.0478   0.0730  -0.0162   0.0323  -0.0338   0.00    0.0
