% program   : RTKLIB ver.EX 2.5.0
% inp file  : C:\PPP_PROJECT\New_Data\obs\RNXDATA\WUH200CHN_R_20260150000_01D_30S_MO.rnx
% inp file  : C:\PPP_PROJECT\New_Data\nav\BRDC00IGS_R_20260150000_01D_MN.rnx
% inp file  : C:\PPP_PROJECT\New_Data\DATA_FINAL_ANT_EXTRA\COD0MGXFIN_20260150000_01D_05M_ORB.SP3
% inp file  : C:\PPP_PROJECT\New_Data\DATA_FINAL_ANT_EXTRA\COD0MGXFIN_20260150000_01D_30S_CLK.CLK
% inp file  : C:\PPP_PROJECT\New_Data\DATA_FINAL_ANT_EXTRA\COD0MGXFIN_20260150000_01D_01D_OSB.BIA
% inp file  : .
% obs start : 2026/01/15 00:00:00.0 GPST (week2401 345600.0s)
% obs end   : 2026/01/15 23:59:30.0 GPST (week2401 431970.0s)
% pos mode  : PPP Static
% freqs     : L1+L2/E5b
% solution  : Forward
% elev mask : 15.0 deg
% dynamics  : on
% tidecorr  :
% ionos opt : Iono-Free LC
% tropo opt : Saastamoinen
% ephemeris : Precise
% navi sys  : GPS Galileo BDS
% antenna1  : JAVRINGANT_G5T  NONE  ( 0.0000  0.0000  0.1206)
%
% (lat/lon/height=WGS84/ellipsoidal,Q=1:fix,2:float,3:sbas,4:dgps,5:single,6:ppp,ns=# of satellites)
%  GPST                  latitude(deg) longitude(deg)  height(m)   Q  ns   sdn(m)   sde(m)   sdu(m)  sdne(m)  sdeu(m)  sdun(m) age(s)  ratio
2026/01/15 00:00:00.000   30.531659605  114.357261849    25.5503   6   9   2.6581   3.1535   7.4318   0.3124   1.9975  -2.5099   0.00    0.0
2026/01/15 00:00:30.000   30.531663848  114.357261652    25.6379   6  13   1.8795   2.2348   5.2706   0.2201   1.4201  -1.7774   0.00    0.0
2026/01/15 00:01:00.000   30.531663751  114.357263569    26.4136   6  13   1.5335   1.8264   4.2922   0.1865   1.1602  -1.4469   0.00    0.0
2026/01/15 00:01:30.000   30.531665160  114.357264459    26.7859   6  13   1.3260   1.5822   3.6965   0.1688   1.0018  -1.2471   0.00    0.0
2026/01/15 00:02:00.000   30.531666119  114.357266542    27.0175   6  13   1.1836   1.4149   3.2802   0.1585   0.8907  -1.1088   0.00    0.0
2026/01/15 00:02:30.000   30.531665799  114.357267414    26.9810   6  13   1.0777   1.2910   2.9649   0.1522   0.8059  -1.0053   0.00    0.0
2026/01/15 00:03:00.000   30.531666055  114.357267812    26.7480   6  13   0.9948   1.1942   2.7129   0.1484   0.7375  -0.9238   0.00    0.0
2026/01/15 00:03:30.000   30.531666959  114.357268734    26.7361   6  13   0.9274   1.1159   2.5041   0.1461   0.6801  -0.8572   0.00    0.0
2026/01/15 00:04:00.000   30.531667498  114.357268948    26.8320   6  13   0.8711   1.0507   2.3261   0.1448   0.6305  -0.8012   0.00    0.0
2026/01/15 00:04:30.000   30.531667484  114.357268616    26.8909   6  13   0.8230   0.9952   2.1715   0.1441   0.5868  -0.7533   0.00    0.0
2026/01/15 00:05:00.000   30.531668228  114.357268501    26.8726   6  13   0.7812   0.9472   2.0350   0.1439   0.5477  -0.7116   0.00    0.0
2026/01/15 00:05:30.000   30.531668523  114.357269026    26.8635   6  13   0.7444   0.9051   1.9131   0.1439   0.5122  -0.6747   0.00    0.0
2026/01/15 00:06:00.000   30.531668837  114.357269283    26.8871   6  13   0.7115   0.8677   1.8032   0.1442   0.4797  -0.6419   0.00    0.0
2026/01/15 00:06:30.000   30.531668797  114.357269076    26.8049   6  13   0.6819   0.8342   1.7035   0.1445   0.4498  -0.6124   0.00    0.0
2026/01/15 00:07:00.000   30.531668749  114.357268549    26.8035   6  13   0.6551   0.8039   1.6124   0.1449   0.4220  -0.5857   0.00    0.0
2026/01/15 00:07:30.000   30.531668821  114.357267988    26.9462   6  13   0.6304   0.7764   1.5289   0.1452   0.3961  -0.5613   0.00    0.0
2026/01/15 00:08:00.000   30.531668794  114.357268094    27.0334   6  13   0.6073   0.7501   1.4500   0.1425   0.3678  -0.5407   0.00    0.0
2026/01/15 00:08:30.000   30.531668571  114.357267952    27.1028   6  13   0.5860   0.7260   1.3776   0.1405   0.3418  -0.5214   0.00    0.0
2026/01/15 00:09:00.000   30.531668665  114.357268149    27.0837   6  13   0.5662   0.7038   1.3109   0.1389   0.3178  -0.5033   0.00    0.0
2026/01/15 00:09:30.000   30.531668622  114.357268642    27.1713   6  15   0.5471   0.6813   1.2472   0.1423   0.2853  -0.4823   0.00    0.0
2026/01/15 00:10:00.000   30.531668624  114.357268595    27.2280   6  15   0.5292   0.6607   1.1870   0.1451   0.2573  -0.4643   0.00    0.0
2026/01/15 00:10:30.000   30.531668684  114.357268453    27.2093   6  14   0.5130   0.6431   1.1346   0.1434   0.2392  -0.4499   0.00    0.0
2026/01/15 00:11:00.000   30.531668917  114.357268441    27.1969   6  14   0.4978   0.6266   1.0856   0.1421   0.2221  -0.4362   0.00    0.0
2026/01/15 00:11:30.000   30.531669076  114.357268792    27.2192   6  14   0.4833   0.6110   1.0398   0.1409   0.2058  -0.4232   0.00    0.0
2026/01/15 00:12:00.000   30.531669196  114.357269040    27.1993   6  14   0.4696   0.5963   0.9969   0.1398   0.1904  -0.4108   0.00    0.0
2026/01/15 00:12:30.000   30.531669359  114.357269164    27.2426   6  14   0.4566   0.5824   0.9565   0.1389   0.1757  -0.3989   0.00    0.0
2026/01/15 00:13:00.000   30.531669596  114.357268922    27.2849   6  15   0.4440   0.5687   0.9181   0.1372   0.1595  -0.3879   0.00    0.0
2026/01/15 00:13:30.000   30.531669951  114.357269063    27.2830   6  15   0.4321   0.5557   0.8821   0.1356   0.1442  -0.3774   0.00    0.0
2026/01/15 00:14:00.000   30.531670144  114.357268992    27.3202   6  15   0.4207   0.5433   0.8482   0.1343   0.1294  -0.3672   0.00    0.0
2026/01/15 00:14:30.000   30.531670270  114.357268834    27.3344   6  15   0.4098   0.5315   0.8163   0.1330   0.1151  -0.3575   0.00    0.0
2026/01/15 00:15:00.000   30.531670431  114.357268645    27.3469   6  15   0.3994   0.5203   0.7861   0.1318   0.1011  -0.3480   0.00    0.0
2026/01/15 00:15:30.000   30.531670687  114.357268825    27.3578   6  16   0.3891   0.5088   0.7567   0.1321   0.0810  -0.3382   0.00    0.0
2026/01/15 00:16:00.000   30.531670810  114.357268890    27.3998   6  16   0.3793   0.4978   0.7290   0.1322   0.0593  -0.3288   0.00    0.0
2026/01/15 00:16:30.000   30.531671079  114.357268788    27.3910   6  16   0.3699   0.4873   0.7030   0.1322   0.0309  -0.3199   0.00    0.0
2026/01/15 00:17:00.000   30.531671303  114.357268717    27.3866   6  15   0.3610   0.4779   0.6790   0.1309  -0.0221  -0.3120   0.00    0.0
2026/01/15 00:17:30.000   30.531671375  114.357268670    27.3978   6  15   0.3525   0.4688   0.6563   0.1296  -0.0416  -0.3044   0.00    0.0
2026/01/15 00:18:00.000   30.531671517  114.357268819    27.4011   6  16   0.3442   0.4595   0.6341   0.1293  -0.0581  -0.2965   0.00    0.0
2026/01/15 00:18:30.000   30.531671714  114.357268987    27.4052   6  16   0.3362   0.4505   0.6132   0.1288  -0.0688  -0.2890   0.00    0.0
2026/01/15 00:19:00.000   30.531671868  114.357268953    27.4112   6  16   0.3284   0.4419   0.5933   0.1283  -0.0766  -0.2818   0.00    0.0
2026/01/15 00:19:30.000   30.531672034  114.357269097    27.4144   6  15   0.3211   0.4340   0.5748   0.1269  -0.0799  -0.2752   0.00    0.0
2026/01/15 00:20:00.000   30.531672208  114.357269348    27.4195   6  16   0.3139   0.4260   0.5568   0.1263  -0.0849  -0.2686   0.00    0.0
2026/01/15 00:20:30.000   30.531672346  114.357269444    27.4394   6  16   0.3070   0.4182   0.5397   0.1255  -0.0887  -0.2622   0.00    0.0
2026/01/15 00:21:00.000   30.531672411  114.357269482    27.4514   6  16   0.3003   0.4107   0.5234   0.1247  -0.0917  -0.2560   0.00    0.0
2026/01/15 00:21:30.000   30.531672496  114.357269472    27.4609   6  16   0.2938   0.4034   0.5079   0.1239  -0.0940  -0.2501   0.00    0.0
2026/01/15 00:22:00.000   30.531672669  114.357269540    27.4487   6  16   0.2876   0.3963   0.4931   0.1230  -0.0957  -0.2444   0.00    0.0
2026/01/15 00:22:30.000   30.531672704  114.357269535    27.4403   6   8   0.2836   0.3902   0.4831   0.1210  -0.0934  -0.2409   0.00    0.0
2026/01/15 00:23:00.000   30.531672732  114.357269532    27.4333   6   8   0.2796   0.3842   0.4733   0.1192  -0.0910  -0.2375   0.00    0.0
2026/01/15 00:23:30.000   30.531672841  114.357269500    27.4355   6  16   0.2736   0.3776   0.4594   0.1184  -0.0928  -0.2319   0.00    0.0
2026/01/15 00:24:00.000   30.531672954  114.357269582    27.4382   6  16   0.2677   0.3712   0.4462   0.1176  -0.0940  -0.2266   0.00    0.0
2026/01/15 00:24:30.000   30.531672953  114.357269471    27.4389   6   9   0.2642   0.3656   0.4376   0.1158  -0.0918  -0.2236   0.00    0.0
2026/01/15 00:25:00.000   30.531673041  114.357269460    27.4466   6  16   0.2585   0.3595   0.4251   0.1150  -0.0928  -0.2184   0.00    0.0
2026/01/15 00:25:30.000   30.531673128  114.357269374    27.4336   6  14   0.2539   0.3539   0.4140   0.1143  -0.0920  -0.2128   0.00    0.0
2026/01/15 00:26:00.000   30.531673119  114.357269263    27.4296   6   9   0.2506   0.3486   0.4062   0.1128  -0.0903  -0.2100   0.00    0.0
2026/01/15 00:26:30.000   30.531673110  114.357269192    27.4171   6   8   0.2487   0.3436   0.4006   0.1120  -0.0873  -0.2072   0.00    0.0
2026/01/15 00:27:00.000   30.531673196  114.357269113    27.4150   6   9   0.2454   0.3387   0.3951   0.1106  -0.0843  -0.2045   0.00    0.0
2026/01/15 00:27:30.000   30.531673351  114.357269065    27.4063   6   9   0.2422   0.3339   0.3896   0.1092  -0.0814  -0.2018   0.00    0.0
2026/01/15 00:28:00.000   30.531673515  114.357269035    27.4108   6  16   0.2367   0.3283   0.3799   0.1087  -0.0821  -0.1969   0.00    0.0
2026/01/15 00:28:30.000   30.531673605  114.357269051    27.4177   6   9   0.2337   0.3237   0.3748   0.1073  -0.0793  -0.1944   0.00    0.0
2026/01/15 00:29:00.000   30.531673629  114.357268979    27.4247   6   8   0.2308   0.3192   0.3696   0.1059  -0.0764  -0.1919   0.00    0.0
2026/01/15 00:29:30.000   30.531673667  114.357268945    27.4344   6   9   0.2279   0.3148   0.3646   0.1045  -0.0737  -0.1894   0.00    0.0
2026/01/15 00:30:00.000   30.531673708  114.357268899    27.4449   6   8   0.2250   0.3104   0.3596   0.1032  -0.0709  -0.1870   0.00    0.0
2026/01/15 00:31:00.000   30.531673736  114.357268788    27.4541   6   8   0.2211   0.3032   0.3534   0.1014  -0.0677  -0.1836   0.00    0.0
2026/01/15 00:31:30.000   30.531673675  114.357268725    27.4604   6   7   0.2195   0.2991   0.3483   0.1007  -0.0647  -0.1811   0.00    0.0
2026/01/15 00:32:00.000   30.531673644  114.357268755    27.4614   6   7   0.2179   0.2950   0.3433   0.1000  -0.0619  -0.1787   0.00    0.0
2026/01/15 00:32:30.000   30.531673687  114.357268757    27.4656   6   8   0.2150   0.2910   0.3383   0.0986  -0.0591  -0.1765   0.00    0.0
2026/01/15 00:33:30.000   30.531673669  114.357268719    27.4589   6   7   0.2125   0.2855   0.3325   0.0973  -0.0556  -0.1732   0.00    0.0
2026/01/15 01:00:30.000   30.531673220  114.357268455    27.2929   6  12   0.1757   0.2295   0.3049   0.0757  -0.0445  -0.1431   0.00    0.0
2026/01/15 01:01:00.000   30.531673195  114.357268442    27.2916   6  12   0.1752   0.2288   0.3045   0.0754  -0.0443  -0.1427   0.00    0.0
2026/01/15 01:01:30.000   30.531673202  114.357268460    27.2835   6   6   0.1747   0.2280   0.3041   0.0751  -0.0441  -0.1423   0.00    0.0
2026/01/15 01:02:00.000   30.531673217  114.357268465    27.2760   6  14   0.1741   0.2273   0.3037   0.0748  -0.0438  -0.1419   0.00    0.0
2026/01/15 01:02:30.000   30.531673167  114.357268496    27.2745   6  14   0.1736   0.2265   0.3032   0.0744  -0.0435  -0.1415   0.00    0.0
2026/01/15 01:03:00.000   30.531673143  114.357268497    27.2743   6  14   0.1731   0.2258   0.3028   0.0741  -0.0432  -0.1411   0.00    0.0
2026/01/15 01:03:30.000   30.531673122  114.357268511    27.2704   6  14   0.1725   0.2250   0.3024   0.0738  -0.0429  -0.1407   0.00    0.0
2026/01/15 01:04:00.000   30.531673088  114.357268486    27.2686   6  14   0.1720   0.2243   0.3019   0.0734  -0.0426  -0.1403   0.00    0.0
2026/01/15 01:04:30.000   30.531673096  114.357268449    27.2674   6  14   0.1715   0.2235   0.3015   0.0731  -0.0423  -0.1399   0.00    0.0
2026/01/15 01:05:30.000   30.531673095  114.357268433    27.2607   6  14   0.1704   0.2221   0.3006   0.0724  -0.0416  -0.1391   0.00    0.0
2026/01/15 01:06:00.000   30.531673090  114.357268415    27.2579   6  14   0.1698   0.2213   0.3000   0.0720  -0.0412  -0.1387   0.00    0.0
2026/01/15 01:06:30.000   30.531673105  114.357268412    27.2553   6  14   0.1692   0.2206   0.2995   0.0716  -0.0408  -0.1382   0.00    0.0
2026/01/15 01:07:00.000   30.531673095  114.357268387    27.2550   6  14   0.1686   0.2198   0.2989   0.0713  -0.0404  -0.1378   0.00    0.0
2026/01/15 01:09:00.000   30.531673010  114.357268256    27.2330   6   6   0.1666   0.2170   0.2973   0.0699  -0.0388  -0.1363   0.00    0.0
2026/01/15 01:09:30.000   30.531673033  114.357268275    27.2310   6  14   0.1659   0.2161   0.2964   0.0695  -0.0382  -0.1357   0.00    0.0
2026/01/15 01:17:30.000   30.531673079  114.357268176    27.1775   6  14   0.1577   0.2054   0.2882   0.0641  -0.0317  -0.1296   0.00    0.0
2026/01/15 01:18:00.000   30.531673169  114.357268252    27.1857   6  14   0.1561   0.2039   0.2853   0.0632  -0.0307  -0.1282   0.00    0.0
2026/01/15 01:28:30.000   30.531673166  114.357268157    27.1028   6   5   0.1487   0.1932   0.2794   0.0579  -0.0204  -0.1234   0.00    0.0
2026/01/15 02:05:00.000   30.531673272  114.357266702    26.9339   6   4   0.1297   0.1637   0.2605   0.0467   0.0165  -0.1129   0.00    0.0
2026/01/15 02:24:00.000   30.531673167  114.357266165    26.9356   6   6   0.1229   0.1523   0.2530   0.0438   0.0123  -0.1096   0.00    0.0
2026/01/15 02:25:00.000   30.531673151  114.357266119    26.9390   6   6   0.1225   0.1518   0.2527   0.0437   0.0121  -0.1095   0.00    0.0
2026/01/15 02:26:00.000   30.531673110  114.357266068    26.9393   6   5   0.1222   0.1513   0.2523   0.0435   0.0119  -0.1093   0.00    0.0
2026/01/15 02:26:30.000   30.531673106  114.357266042    26.9413   6  11   0.1221   0.1510   0.2521   0.0435   0.0119  -0.1092   0.00    0.0
2026/01/15 02:27:00.000   30.531673075  114.357265999    26.9443   6  14   0.1219   0.1508   0.2519   0.0434   0.0119  -0.1091   0.00    0.0
2026/01/15 02:27:30.000   30.531673071  114.357265994    26.9449   6  14   0.1217   0.1505   0.2517   0.0433   0.0119  -0.1090   0.00    0.0
2026/01/15 02:28:00.000   30.531673067  114.357265978    26.9467   6  14   0.1216   0.1502   0.2515   0.0432   0.0120  -0.1089   0.00    0.0
2026/01/15 02:28:30.000   30.531673074  114.357265956    26.9487   6  14   0.1214   0.1500   0.2513   0.0431   0.0121  -0.1088   0.00    0.0
2026/01/15 02:29:00.000   30.531673069  114.357265942    26.9525   6  14   0.1212   0.1497   0.2511   0.0431   0.0122  -0.1087   0.00    0.0
2026/01/15 02:29:30.000   30.531673059  114.357265922    26.9546   6  14   0.1211   0.1495   0.2509   0.0430   0.0124  -0.1086   0.00    0.0
2026/01/15 02:30:00.000   30.531673040  114.357265907    26.9555   6  14   0.1209   0.1492   0.2507   0.0429   0.0126  -0.1085   0.00    0.0
2026/01/15 02:30:30.000   30.531673036  114.357265874    26.9581   6  14   0.1207   0.1489   0.2504   0.0428   0.0128  -0.1083   0.00    0.0
2026/01/15 02:31:00.000   30.531673025  114.357265854    26.9604   6  14   0.1205   0.1487   0.2501   0.0427   0.0130  -0.1082   0.00    0.0
2026/01/15 02:31:30.000   30.531673013  114.357265842    26.9637   6  14   0.1203   0.1484   0.2499   0.0426   0.0133  -0.1080   0.00    0.0
2026/01/15 02:32:00.000   30.531672985  114.357265821    26.9653   6  14   0.1201   0.1482   0.2495   0.0424   0.0135  -0.1079   0.00    0.0
2026/01/15 02:32:30.000   30.531672971  114.357265805    26.9672   6   4   0.1200   0.1479   0.2494   0.0424   0.0135  -0.1078   0.00    0.0
2026/01/15 02:33:00.000   30.531672956  114.357265783    26.9714   6  15   0.1198   0.1477   0.2490   0.0422   0.0139  -0.1076   0.00    0.0
2026/01/15 02:34:00.000   30.531672934  114.357265748    26.9767   6  15   0.1194   0.1472   0.2484   0.0420   0.0144  -0.1073   0.00    0.0
2026/01/15 02:35:00.000   30.531672930  114.357265703    26.9826   6  14   0.1190   0.1466   0.2476   0.0417   0.0151  -0.1070   0.00    0.0
2026/01/15 02:35:30.000   30.531672924  114.357265680    26.9844   6   4   0.1188   0.1464   0.2474   0.0416   0.0152  -0.1069   0.00    0.0
2026/01/15 02:36:00.000   30.531672915  114.357265650    26.9903   6  15   0.1185   0.1461   0.2468   0.0414   0.0159  -0.1066   0.00    0.0
2026/01/15 02:36:30.000   30.531672927  114.357265629    26.9960   6  15   0.1182   0.1458   0.2461   0.0412   0.0165  -0.1062   0.00    0.0
2026/01/15 02:37:30.000   30.531672901  114.357265548    27.0057   6  15   0.1177   0.1453   0.2451   0.0408   0.0174  -0.1058   0.00    0.0
2026/01/15 02:38:00.000   30.531672891  114.357265503    27.0120   6  15   0.1174   0.1450   0.2443   0.0405   0.0182  -0.1054   0.00    0.0
2026/01/15 02:38:30.000   30.531672894  114.357265466    27.0165   6  15   0.1170   0.1448   0.2435   0.0403   0.0189  -0.1049   0.00    0.0
2026/01/15 02:39:00.000   30.531672887  114.357265445    27.0231   6  15   0.1166   0.1445   0.2426   0.0400   0.0196  -0.1045   0.00    0.0
2026/01/15 02:39:30.000   30.531672897  114.357265445    27.0289   6  15   0.1163   0.1442   0.2417   0.0396   0.0204  -0.1040   0.00    0.0
2026/01/15 02:40:00.000   30.531672894  114.357265410    27.0360   6  15   0.1159   0.1439   0.2408   0.0393   0.0211  -0.1036   0.00    0.0
2026/01/15 02:40:30.000   30.531672895  114.357265378    27.0425   6  15   0.1155   0.1436   0.2399   0.0390   0.0218  -0.1031   0.00    0.0
2026/01/15 02:41:00.000   30.531672903  114.357265372    27.0490   6  15   0.1151   0.1433   0.2389   0.0387   0.0225  -0.1026   0.00    0.0
2026/01/15 02:41:30.000   30.531672914  114.357265378    27.0539   6  15   0.1147   0.1430   0.2380   0.0383   0.0232  -0.1021   0.00    0.0
2026/01/15 02:42:00.000   30.531672916  114.357265360    27.0607   6  15   0.1143   0.1427   0.2369   0.0379   0.0239  -0.1016   0.00    0.0
2026/01/15 02:42:30.000   30.531672914  114.357265354    27.0678   6  15   0.1139   0.1425   0.2359   0.0376   0.0246  -0.1011   0.00    0.0
2026/01/15 02:43:00.000   30.531672908  114.357265330    27.0755   6  15   0.1135   0.1422   0.2348   0.0372   0.0253  -0.1005   0.00    0.0
2026/01/15 02:43:30.000   30.531672920  114.357265326    27.0814   6  15   0.1130   0.1419   0.2337   0.0368   0.0260  -0.1000   0.00    0.0
2026/01/15 02:44:00.000   30.531672917  114.357265308    27.0878   6  15   0.1126   0.1416   0.2326   0.0364   0.0266  -0.0994   0.00    0.0
2026/01/15 02:44:30.000   30.531672927  114.357265287    27.0956   6  15   0.1121   0.1413   0.2315   0.0360   0.0273  -0.0988   0.00    0.0
2026/01/15 02:45:00.000   30.531672938  114.357265271    27.1038   6  15   0.1116   0.1410   0.2303   0.0355   0.0280  -0.0982   0.00    0.0
2026/01/15 02:45:30.000   30.531672941  114.357265246    27.1117   6  15   0.1112   0.1407   0.2291   0.0351   0.0286  -0.0976   0.00    0.0
2026/01/15 02:46:00.000   30.531672948  114.357265230    27.1155   6  15   0.1107   0.1404   0.2279   0.0346   0.0293  -0.0970   0.00    0.0
2026/01/15 02:46:30.000   30.531672952  114.357265215    27.1210   6  15   0.1102   0.1401   0.2266   0.0341   0.0299  -0.0964   0.00    0.0
2026/01/15 02:47:00.000   30.531672976  114.357265221    27.1278   6  15   0.1097   0.1398   0.2253   0.0337   0.0306  -0.0957   0.00    0.0
2026/01/15 02:47:30.000   30.531672993  114.357265209    27.1346   6  15   0.1092   0.1395   0.2240   0.0332   0.0312  -0.0951   0.00    0.0
2026/01/15 02:48:00.000   30.531673001  114.357265191    27.1428   6  15   0.1087   0.1392   0.2227   0.0326   0.0318  -0.0944   0.00    0.0
2026/01/15 02:48:30.000   30.531673024  114.357265179    27.1509   6  15   0.1081   0.1388   0.2213   0.0321   0.0324  -0.0937   0.00    0.0
2026/01/15 02:49:00.000   30.531673044  114.357265171    27.1574   6  15   0.1076   0.1385   0.2199   0.0315   0.0331  -0.0930   0.00    0.0
2026/01/15 02:49:30.000   30.531673058  114.357265157    27.1660   6  15   0.1071   0.1382   0.2185   0.0310   0.0337  -0.0923   0.00    0.0
2026/01/15 02:50:00.000   30.531673069  114.357265138    27.1736   6  15   0.1065   0.1379   0.2171   0.0304   0.0343  -0.0916   0.00    0.0
2026/01/15 02:50:30.000   30.531673093  114.357265141    27.1822   6  15   0.1060   0.1376   0.2156   0.0298   0.0349  -0.0909   0.00    0.0
2026/01/15 02:51:00.000   30.531673118  114.357265125    27.1886   6  15   0.1054   0.1373   0.2141   0.0292   0.0355  -0.0901   0.00    0.0
2026/01/15 02:51:30.000   30.531673141  114.357265104    27.1955   6  15   0.1048   0.1370   0.2126   0.0285   0.0361  -0.0894   0.00    0.0
2026/01/15 02:52:00.000   30.531673166  114.357265074    27.2025   6  15   0.1042   0.1366   0.2111   0.0279   0.0367  -0.0887   0.00    0.0
2026/01/15 02:52:30.000   30.531673203  114.357265073    27.2087   6  15   0.1037   0.1363   0.2096   0.0272   0.0372  -0.0879   0.00    0.0
2026/01/15 02:53:00.000   30.531673246  114.357265058    27.2138   6  15   0.1031   0.1360   0.2080   0.0265   0.0378  -0.0872   0.00    0.0
2026/01/15 02:53:30.000   30.531673276  114.357265057    27.2196   6  16   0.1025   0.1357   0.2065   0.0258   0.0383  -0.0864   0.00    0.0
2026/01/15 02:54:00.000   30.531673303  114.357265034    27.2256   6  16   0.1018   0.1353   0.2049   0.0251   0.0388  -0.0856   0.00    0.0
2026/01/15 02:54:30.000   30.531673326  114.357265024    27.2321   6  16   0.1012   0.1350   0.2033   0.0244   0.0392  -0.0848   0.00    0.0
2026/01/15 02:55:00.000   30.531673353  114.357265028    27.2400   6  16   0.1006   0.1347   0.2016   0.0237   0.0397  -0.0840   0.00    0.0
2026/01/15 02:55:30.000   30.531673379  114.357265032    27.2473   6  15   0.1000   0.1343   0.2001   0.0229   0.0403  -0.0832   0.00    0.0
2026/01/15 02:56:00.000   30.531673408  114.357265021    27.2550   6  15   0.0994   0.1340   0.1986   0.0222   0.0410  -0.0823   0.00    0.0
2026/01/15 02:56:30.000   30.531673440  114.357265007    27.2610   6  15   0.0988   0.1337   0.1970   0.0214   0.0416  -0.0815   0.00    0.0
2026/01/15 02:57:00.000   30.531673466  114.357264978    27.2663   6  15   0.0981   0.1334   0.1954   0.0207   0.0422  -0.0807   0.00    0.0
2026/01/15 02:57:30.000   30.531673491  114.357264974    27.2750   6  15   0.0975   0.1331   0.1939   0.0198   0.0428  -0.0798   0.00    0.0
2026/01/15 02:58:00.000   30.531673525  114.357264959    27.2812   6  15   0.0969   0.1327   0.1923   0.0190   0.0433  -0.0790   0.00    0.0
2026/01/15 02:58:30.000   30.531673553  114.357264952    27.2894   6  15   0.0962   0.1324   0.1907   0.0181   0.0439  -0.0782   0.00    0.0
2026/01/15 02:59:00.000   30.531673576  114.357264973    27.2957   6  15   0.0956   0.1321   0.1891   0.0171   0.0444  -0.0773   0.00    0.0
2026/01/15 02:59:30.000   30.531673612  114.357264970    27.3032   6  15   0.0949   0.1317   0.1876   0.0161   0.0449  -0.0765   0.00    0.0
2026/01/15 03:00:00.000   30.531673645  114.357264965    27.3105   6  15   0.0943   0.1314   0.1860   0.0150   0.0454  -0.0757   0.00    0.0
2026/01/15 03:00:30.000   30.531673681  114.357264971    27.3176   6  15   0.0936   0.1311   0.1844   0.0139   0.0459  -0.0748   0.00    0.0
2026/01/15 03:01:00.000   30.531673718  114.357264968    27.3240   6  15   0.0930   0.1307   0.1828   0.0126   0.0463  -0.0740   0.00    0.0
2026/01/15 03:01:30.000   30.531673751  114.357264947    27.3307   6  15   0.0924   0.1304   0.1812   0.0113   0.0468  -0.0732   0.00    0.0
2026/01/15 03:02:00.000   30.531673788  114.357264934    27.3376   6  15   0.0917   0.1300   0.1796   0.0097   0.0472  -0.0724   0.00    0.0
2026/01/15 03:02:30.000   30.531673824  114.357264917    27.3446   6  15   0.0911   0.1297   0.1780   0.0079   0.0477  -0.0716   0.00    0.0
2026/01/15 03:03:00.000   30.531673870  114.357264913    27.3509   6  15   0.0904   0.1293   0.1764   0.0055   0.0481  -0.0708   0.00    0.0
2026/01/15 03:03:30.000   30.531673919  114.357264913    27.3551   6  15   0.0898   0.1290   0.1749  -0.0015   0.0485  -0.0700   0.00    0.0
2026/01/15 03:04:00.000   30.531673966  114.357264916    27.3596   6  15   0.0891   0.1286   0.1733  -0.0058   0.0488  -0.0692   0.00    0.0
2026/01/15 03:04:30.000   30.531674011  114.357264906    27.3654   6  15   0.0885   0.1283   0.1717  -0.0081   0.0492  -0.0685   0.00    0.0
2026/01/15 03:05:00.000   30.531674056  114.357264895    27.3718   6  15   0.0878   0.1279   0.1702  -0.0098   0.0495  -0.0677   0.00    0.0
2026/01/15 03:05:30.000   30.531674103  114.357264891    27.3766   6  15   0.0872   0.1276   0.1686  -0.0113   0.0499  -0.0670   0.00    0.0
2026/01/15 03:06:00.000   30.531674145  114.357264907    27.3811   6  15   0.0865   0.1272   0.1671  -0.0126   0.0502  -0.0662   0.00    0.0
2026/01/15 03:06:30.000   30.531674187  114.357264915    27.3857   6  15   0.0859   0.1268   0.1655  -0.0137   0.0505  -0.0655   0.00    0.0
2026/01/15 03:07:00.000   30.531674221  114.357264920    27.3922   6  15   0.0852   0.1265   0.1640  -0.0148   0.0508  -0.0648   0.00    0.0
2026/01/15 03:07:30.000   30.531674258  114.357264941    27.3986   6  15   0.0846   0.1261   0.1625  -0.0158   0.0511  -0.0641   0.00    0.0
2026/01/15 03:08:00.000   30.531674292  114.357264941    27.4052   6  15   0.0839   0.1257   0.1609  -0.0167   0.0513  -0.0634   0.00    0.0
2026/01/15 03:08:30.000   30.531674334  114.357264952    27.4115   6  15   0.0833   0.1254   0.1594  -0.0175   0.0516  -0.0627   0.00    0.0
2026/01/15 03:09:00.000   30.531674379  114.357264941    27.4150   6  15   0.0827   0.1250   0.1582  -0.0183   0.0521  -0.0620   0.00    0.0
2026/01/15 03:09:30.000   30.531674414  114.357264931    27.4197   6  14   0.0820   0.1247   0.1570  -0.0191   0.0527  -0.0614   0.00    0.0
2026/01/15 03:45:00.000   30.531674250  114.357263507    27.4406   6  11   0.0790   0.1157   0.1547  -0.0193   0.0520  -0.0588   0.00    0.0
2026/01/15 03:46:00.000   30.531674230  114.357263449    27.4426   6   6   0.0789   0.1155   0.1547  -0.0194   0.0520  -0.0588   0.00    0.0
2026/01/15 03:47:30.000   30.531674220  114.357263405    27.4441   6  12   0.0788   0.1152   0.1546  -0.0196   0.0521  -0.0587   0.00    0.0
2026/01/15 03:48:30.000   30.531674205  114.357263356    27.4479   6   5   0.0787   0.1149   0.1545  -0.0197   0.0521  -0.0586   0.00    0.0
2026/01/15 03:49:00.000   30.531674207  114.357263327    27.4478   6  12   0.0786   0.1148   0.1545  -0.0198   0.0521  -0.0585   0.00    0.0
2026/01/15 03:49:30.000   30.531674200  114.357263301    27.4483   6   5   0.0786   0.1147   0.1544  -0.0198   0.0521  -0.0585   0.00    0.0
2026/01/15 03:50:00.000   30.531674195  114.357263289    27.4489   6  12   0.0786   0.1146   0.1544  -0.0199   0.0521  -0.0585   0.00    0.0
2026/01/15 03:50:30.000   30.531674188  114.357263271    27.4497   6   5   0.0785   0.1145   0.1544  -0.0200   0.0521  -0.0584   0.00    0.0
2026/01/15 03:51:00.000   30.531674180  114.357263245    27.4495   6  12   0.0785   0.1144   0.1543  -0.0200   0.0522  -0.0584   0.00    0.0
2026/01/15 03:51:30.000   30.531674177  114.357263200    27.4495   6   6   0.0784   0.1142   0.1543  -0.0201   0.0522  -0.0584   0.00    0.0
2026/01/15 03:52:00.000   30.531674174  114.357263187    27.4495   6   6   0.0784   0.1141   0.1543  -0.0201   0.0522  -0.0583   0.00    0.0
2026/01/15 03:52:30.000   30.531674165  114.357263165    27.4500   6   6   0.0783   0.1140   0.1542  -0.0202   0.0522  -0.0583   0.00    0.0
2026/01/15 03:53:00.000   30.531674161  114.357263135    27.4501   6   6   0.0783   0.1139   0.1542  -0.0203   0.0522  -0.0582   0.00    0.0
2026/01/15 03:53:30.000   30.531674164  114.357263127    27.4495   6  13   0.0782   0.1138   0.1541  -0.0204   0.0522  -0.0582   0.00    0.0
2026/01/15 03:54:00.000   30.531674164  114.357263104    27.4496   6  13   0.0782   0.1137   0.1541  -0.0205   0.0523  -0.0582   0.00    0.0
2026/01/15 03:54:30.000   30.531674164  114.357263088    27.4487   6  13   0.0781   0.1135   0.1540  -0.0205   0.0523  -0.0581   0.00    0.0
2026/01/15 03:55:00.000   30.531674162  114.357263068    27.4481   6  13   0.0780   0.1134   0.1539  -0.0206   0.0523  -0.0581   0.00    0.0
2026/01/15 03:55:30.000   30.531674164  114.357263047    27.4479   6  13   0.0780   0.1133   0.1539  -0.0207   0.0523  -0.0580   0.00    0.0
2026/01/15 03:56:00.000   30.531674159  114.357263018    27.4490   6  13   0.0779   0.1132   0.1538  -0.0208   0.0524  -0.0580   0.00    0.0
2026/01/15 03:56:30.000   30.531674154  114.357262980    27.4496   6  13   0.0779   0.1131   0.1538  -0.0209   0.0524  -0.0579   0.00    0.0
2026/01/15 03:57:00.000   30.531674149  114.357262948    27.4503   6  13   0.0778   0.1129   0.1537  -0.0210   0.0524  -0.0579   0.00    0.0
2026/01/15 03:57:30.000   30.531674146  114.357262918    27.4502   6  13   0.0777   0.1128   0.1536  -0.0211   0.0525  -0.0578   0.00    0.0
2026/01/15 03:58:00.000   30.531674142  114.357262902    27.4506   6  13   0.0777   0.1127   0.1536  -0.0212   0.0525  -0.0578   0.00    0.0
2026/01/15 03:58:30.000   30.531674134  114.357262866    27.4517   6  13   0.0776   0.1126   0.1535  -0.0213   0.0525  -0.0578   0.00    0.0
2026/01/15 03:59:00.000   30.531674129  114.357262845    27.4530   6  13   0.0775   0.1125   0.1534  -0.0214   0.0525  -0.0577   0.00    0.0
2026/01/15 03:59:30.000   30.531674121  114.357262822    27.4540   6  11   0.0775   0.1123   0.1533  -0.0216   0.0526  -0.0576   0.00    0.0
2026/01/15 04:00:00.000   30.531674122  114.357262798    27.4556   6  13   0.0774   0.1122   0.1533  -0.0217   0.0526  -0.0576   0.00    0.0
2026/01/15 04:00:30.000   30.531674126  114.357262776    27.4560   6  14   0.0773   0.1121   0.1532  -0.0218   0.0526  -0.0576   0.00    0.0
2026/01/15 04:01:00.000   30.531674127  114.357262759    27.4568   6  14   0.0772   0.1120   0.1531  -0.0219   0.0527  -0.0575   0.00    0.0
2026/01/15 04:01:30.000   30.531674129  114.357262746    27.4574   6  14   0.0771   0.1118   0.1530  -0.0220   0.0527  -0.0575   0.00    0.0
2026/01/15 04:02:00.000   30.531674131  114.357262721    27.4580   6  14   0.0770   0.1117   0.1529  -0.0222   0.0528  -0.0574   0.00    0.0
2026/01/15 04:02:30.000   30.531674134  114.357262700    27.4591   6  14   0.0770   0.1116   0.1528  -0.0223   0.0528  -0.0574   0.00    0.0
2026/01/15 04:03:00.000   30.531674137  114.357262678    27.4596   6  14   0.0769   0.1114   0.1527  -0.0224   0.0528  -0.0573   0.00    0.0
2026/01/15 04:03:30.000   30.531674146  114.357262659    27.4597   6  14   0.0768   0.1113   0.1525  -0.0226   0.0529  -0.0573   0.00    0.0
2026/01/15 04:04:00.000   30.531674160  114.357262650    27.4600   6  14   0.0767   0.1112   0.1524  -0.0227   0.0529  -0.0572   0.00    0.0
2026/01/15 04:04:30.000   30.531674176  114.357262649    27.4591   6  14   0.0766   0.1110   0.1523  -0.0229   0.0530  -0.0572   0.00    0.0
2026/01/15 04:05:00.000   30.531674185  114.357262646    27.4585   6  14   0.0765   0.1109   0.1522  -0.0230   0.0530  -0.0571   0.00    0.0
2026/01/15 04:05:30.000   30.531674195  114.357262638    27.4587   6  14   0.0764   0.1108   0.1520  -0.0232   0.0531  -0.0571   0.00    0.0
2026/01/15 04:06:00.000   30.531674200  114.357262625    27.4592   6  14   0.0762   0.1106   0.1519  -0.0233   0.0531  -0.0570   0.00    0.0
2026/01/15 04:06:30.000   30.531674205  114.357262595    27.4600   6  14   0.0761   0.1105   0.1518  -0.0235   0.0532  -0.0569   0.00    0.0
2026/01/15 04:07:00.000   30.531674211  114.357262582    27.4604   6  14   0.0760   0.1103   0.1516  -0.0236   0.0532  -0.0569   0.00    0.0
2026/01/15 04:07:30.000   30.531674219  114.357262563    27.4611   6  14   0.0759   0.1102   0.1515  -0.0238   0.0532  -0.0568   0.00    0.0
2026/01/15 04:08:00.000   30.531674229  114.357262545    27.4618   6  14   0.0758   0.1100   0.1513  -0.0240   0.0533  -0.0568   0.00    0.0
2026/01/15 04:08:30.000   30.531674237  114.357262526    27.4628   6  14   0.0756   0.1099   0.1511  -0.0241   0.0533  -0.0567   0.00    0.0
2026/01/15 04:09:00.000   30.531674252  114.357262508    27.4638   6  14   0.0755   0.1097   0.1510  -0.0243   0.0534  -0.0567   0.00    0.0
2026/01/15 04:09:30.000   30.531674257  114.357262486    27.4654   6  14   0.0754   0.1096   0.1508  -0.0245   0.0534  -0.0566   0.00    0.0
2026/01/15 04:10:00.000   30.531674266  114.357262481    27.4659   6  14   0.0752   0.1094   0.1506  -0.0247   0.0535  -0.0565   0.00    0.0
2026/01/15 04:10:30.000   30.531674275  114.357262457    27.4664   6  14   0.0751   0.1093   0.1504  -0.0249   0.0535  -0.0565   0.00    0.0
2026/01/15 04:11:00.000   30.531674288  114.357262453    27.4674   6  14   0.0749   0.1091   0.1502  -0.0250   0.0536  -0.0564   0.00    0.0
2026/01/15 04:11:30.000   30.531674300  114.357262412    27.4686   6  14   0.0748   0.1090   0.1500  -0.0252   0.0536  -0.0564   0.00    0.0
2026/01/15 04:12:00.000   30.531674314  114.357262399    27.4692   6  14   0.0746   0.1088   0.1498  -0.0254   0.0536  -0.0563   0.00    0.0
2026/01/15 04:12:30.000   30.531674323  114.357262381    27.4710   6  14   0.0745   0.1087   0.1496  -0.0256   0.0537  -0.0562   0.00    0.0
2026/01/15 04:13:00.000   30.531674340  114.357262364    27.4716   6  14   0.0743   0.1085   0.1494  -0.0258   0.0537  -0.0562   0.00    0.0
2026/01/15 04:13:30.000   30.531674352  114.357262357    27.4732   6  14   0.0741   0.1083   0.1492  -0.0260   0.0538  -0.0561   0.00    0.0
2026/01/15 04:14:00.000   30.531674369  114.357262359    27.4749   6  13   0.0740   0.1082   0.1490  -0.0262   0.0538  -0.0561   0.00    0.0
2026/01/15 04:14:30.000   30.531674383  114.357262343    27.4767   6  14   0.0738   0.1080   0.1487  -0.0264   0.0538  -0.0560   0.00    0.0
2026/01/15 04:15:00.000   30.531674398  114.357262330    27.4783   6  14   0.0736   0.1078   0.1485  -0.0266   0.0539  -0.0559   0.00    0.0
2026/01/15 04:15:30.000   30.531674416  114.357262316    27.4796   6  14   0.0734   0.1076   0.1483  -0.0268   0.0539  -0.0559   0.00    0.0
2026/01/15 04:16:00.000   30.531674433  114.357262313    27.4803   6  14   0.0732   0.1075   0.1480  -0.0270   0.0539  -0.0558   0.00    0.0
2026/01/15 04:16:30.000   30.531674457  114.357262312    27.4813   6  14   0.0731   0.1073   0.1478  -0.0272   0.0540  -0.0557   0.00    0.0
2026/01/15 04:17:00.000   30.531674478  114.357262309    27.4830   6  14   0.0729   0.1071   0.1475  -0.0274   0.0540  -0.0557   0.00    0.0
2026/01/15 04:17:30.000   30.531674503  114.357262321    27.4836   6  14   0.0727   0.1069   0.1472  -0.0276   0.0540  -0.0556   0.00    0.0
2026/01/15 04:18:00.000   30.531674521  114.357262325    27.4844   6  14   0.0725   0.1068   0.1470  -0.0278   0.0541  -0.0555   0.00    0.0
2026/01/15 04:18:30.000   30.531674544  114.357262333    27.4856   6  14   0.0723   0.1066   0.1467  -0.0280   0.0541  -0.0555   0.00    0.0
2026/01/15 04:19:00.000   30.531674566  114.357262339    27.4869   6  14   0.0721   0.1064   0.1464  -0.0282   0.0541  -0.0554   0.00    0.0
2026/01/15 04:19:30.000   30.531674588  114.357262334    27.4890   6  14   0.0719   0.1062   0.1461  -0.0284   0.0541  -0.0553   0.00    0.0
2026/01/15 04:20:00.000   30.531674614  114.357262335    27.4889   6  14   0.0717   0.1060   0.1458  -0.0286   0.0541  -0.0553   0.00    0.0
2026/01/15 04:20:30.000   30.531674642  114.357262351    27.4901   6  14   0.0714   0.1058   0.1455  -0.0288   0.0542  -0.0552   0.00    0.0
2026/01/15 04:21:00.000   30.531674668  114.357262354    27.4920   6  14   0.0712   0.1056   0.1452  -0.0290   0.0542  -0.0551   0.00    0.0
2026/01/15 04:21:30.000   30.531674699  114.357262351    27.4928   6  14   0.0710   0.1054   0.1449  -0.0292   0.0542  -0.0551   0.00    0.0
2026/01/15 04:22:00.000   30.531674724  114.357262353    27.4941   6  14   0.0708   0.1052   0.1446  -0.0294   0.0542  -0.0550   0.00    0.0
2026/01/15 04:22:30.000   30.531674746  114.357262350    27.4959   6  14   0.0705   0.1051   0.1443  -0.0296   0.0542  -0.0549   0.00    0.0
2026/01/15 04:23:00.000   30.531674771  114.357262357    27.4978   6  14   0.0703   0.1049   0.1440  -0.0298   0.0542  -0.0548   0.00    0.0
2026/01/15 04:23:30.000   30.531674798  114.357262366    27.4993   6  14   0.0701   0.1046   0.1436  -0.0300   0.0542  -0.0548   0.00    0.0
2026/01/15 04:24:00.000   30.531674828  114.357262377    27.5008   6  14   0.0699   0.1044   0.1433  -0.0302   0.0542  -0.0547   0.00    0.0
2026/01/15 04:24:30.000   30.531674855  114.357262389    27.5018   6  14   0.0696   0.1042   0.1429  -0.0304   0.0542  -0.0546   0.00    0.0
2026/01/15 04:25:00.000   30.531674882  114.357262397    27.5034   6  14   0.0694   0.1040   0.1426  -0.0305   0.0542  -0.0546   0.00    0.0
2026/01/15 04:25:30.000   30.531674915  114.357262411    27.5043   6  14   0.0691   0.1038   0.1422  -0.0307   0.0542  -0.0545   0.00    0.0
2026/01/15 04:26:00.000   30.531674945  114.357262429    27.5058   6  14   0.0689   0.1036   0.1419  -0.0309   0.0541  -0.0544   0.00    0.0
2026/01/15 04:26:30.000   30.531674973  114.357262458    27.5073   6  14   0.0686   0.1034   0.1415  -0.0311   0.0541  -0.0543   0.00    0.0
2026/01/15 04:27:00.000   30.531675003  114.357262461    27.5093   6  14   0.0684   0.1032   0.1411  -0.0313   0.0541  -0.0543   0.00    0.0
2026/01/15 04:27:30.000   30.531675038  114.357262468    27.5104   6  15   0.0681   0.1030   0.1408  -0.0315   0.0541  -0.0542   0.00    0.0
2026/01/15 04:28:00.000   30.531675069  114.357262481    27.5120   6  15   0.0679   0.1028   0.1404  -0.0316   0.0541  -0.0541   0.00    0.0
2026/01/15 04:28:30.000   30.531675100  114.357262495    27.5136   6  15   0.0676   0.1025   0.1400  -0.0318   0.0540  -0.0540   0.00    0.0
2026/01/15 04:29:00.000   30.531675134  114.357262506    27.5145   6  15   0.0674   0.1023   0.1396  -0.0320   0.0540  -0.0540   0.00    0.0
2026/01/15 04:29:30.000   30.531675168  114.357262526    27.5159   6  15   0.0671   0.1021   0.1392  -0.0321   0.0539  -0.0539   0.00    0.0
2026/01/15 04:30:00.000   30.531675204  114.357262548    27.5170   6  16   0.0668   0.1019   0.1388  -0.0323   0.0539  -0.0538   0.00    0.0
2026/01/15 04:30:30.000   30.531675240  114.357262552    27.5181   6  16   0.0666   0.1016   0.1384  -0.0324   0.0538  -0.0537   0.00    0.0
2026/01/15 04:31:00.000   30.531675276  114.357262579    27.5194   6  16   0.0663   0.1014   0.1379  -0.0326   0.0538  -0.0536   0.00    0.0
2026/01/15 04:31:30.000   30.531675303  114.357262611    27.5216   6  16   0.0660   0.1012   0.1375  -0.0327   0.0537  -0.0535   0.00    0.0
2026/01/15 04:32:00.000   30.531675332  114.357262627    27.5239   6  16   0.0658   0.1009   0.1371  -0.0329   0.0536  -0.0535   0.00    0.0
2026/01/15 04:32:30.000   30.531675362  114.357262632    27.5253   6  16   0.0655   0.1007   0.1367  -0.0330   0.0535  -0.0534   0.00    0.0
2026/01/15 04:33:00.000   30.531675398  114.357262655    27.5259   6  16   0.0652   0.1004   0.1362  -0.0331   0.0535  -0.0533   0.00    0.0
2026/01/15 04:33:30.000   30.531675432  114.357262676    27.5262   6  16   0.0650   0.1002   0.1358  -0.0333   0.0534  -0.0532   0.00    0.0
2026/01/15 04:34:00.000   30.531675464  114.357262702    27.5265   6  16   0.0647   0.0999   0.1353  -0.0334   0.0533  -0.0531   0.00    0.0
2026/01/15 04:34:30.000   30.531675495  114.357262726    27.5271   6  16   0.0644   0.0997   0.1349  -0.0335   0.0532  -0.0530   0.00    0.0
2026/01/15 04:35:00.000   30.531675529  114.357262752    27.5273   6  16   0.0641   0.0994   0.1344  -0.0336   0.0531  -0.0529   0.00    0.0
2026/01/15 04:35:30.000   30.531675561  114.357262781    27.5281   6  16   0.0638   0.0992   0.1339  -0.0338   0.0530  -0.0528   0.00    0.0
2026/01/15 04:36:00.000   30.531675593  114.357262804    27.5290   6  16   0.0636   0.0989   0.1335  -0.0339   0.0529  -0.0527   0.00    0.0
2026/01/15 04:36:30.000   30.531675625  114.357262829    27.5302   6  16   0.0633   0.0987   0.1330  -0.0340   0.0528  -0.0526   0.00    0.0
2026/01/15 04:37:00.000   30.531675661  114.357262846    27.5306   6  16   0.0630   0.0984   0.1325  -0.0341   0.0527  -0.0525   0.00    0.0
2026/01/15 04:37:30.000   30.531675692  114.357262879    27.5313   6  16   0.0627   0.0982   0.1320  -0.0342   0.0526  -0.0524   0.00    0.0
2026/01/15 04:38:00.000   30.531675721  114.357262900    27.5325   6  16   0.0624   0.0979   0.1315  -0.0343   0.0524  -0.0523   0.00    0.0
2026/01/15 04:38:30.000   30.531675752  114.357262931    27.5337   6  16   0.0622   0.0977   0.1310  -0.0344   0.0523  -0.0522   0.00    0.0
2026/01/15 04:39:00.000   30.531675783  114.357262953    27.5350   6  16   0.0619   0.0974   0.1305  -0.0345   0.0522  -0.0521   0.00    0.0
2026/01/15 04:39:30.000   30.531675808  114.357262984    27.5376   6  17   0.0616   0.0971   0.1300  -0.0346   0.0521  -0.0520   0.00    0.0
2026/01/15 04:40:00.000   30.531675833  114.357263012    27.5399   6  17   0.0613   0.0969   0.1295  -0.0346   0.0519  -0.0518   0.00    0.0
2026/01/15 04:40:30.000   30.531675856  114.357263028    27.5411   6  17   0.0610   0.0966   0.1290  -0.0347   0.0519  -0.0517   0.00    0.0
2026/01/15 04:41:00.000   30.531675886  114.357263048    27.5419   6  17   0.0607   0.0964   0.1286  -0.0348   0.0518  -0.0516   0.00    0.0
2026/01/15 04:41:30.000   30.531675912  114.357263077    27.5430   6  17   0.0605   0.0961   0.1281  -0.0348   0.0517  -0.0514   0.00    0.0
2026/01/15 04:42:00.000   30.531675936  114.357263101    27.5446   6  17   0.0602   0.0959   0.1276  -0.0348   0.0517  -0.0513   0.00    0.0
2026/01/15 04:42:30.000   30.531675963  114.357263122    27.5452   6  17   0.0599   0.0956   0.1272  -0.0349   0.0516  -0.0511   0.00    0.0
2026/01/15 04:43:00.000   30.531675992  114.357263140    27.5459   6  17   0.0596   0.0954   0.1267  -0.0349   0.0515  -0.0510   0.00    0.0
2026/01/15 04:43:30.000   30.531676020  114.357263161    27.5460   6  17   0.0593   0.0952   0.1262  -0.0350   0.0515  -0.0508   0.00    0.0
2026/01/15 04:44:00.000   30.531676047  114.357263186    27.5487   6  16   0.0590   0.0949   0.1258  -0.0350   0.0514  -0.0507   0.00    0.0
2026/01/15 04:44:30.000   30.531676075  114.357263207    27.5513   6  16   0.0588   0.0947   0.1253  -0.0351   0.0513  -0.0505   0.00    0.0
2026/01/15 04:45:00.000   30.531676098  114.357263227    27.5545   6  15   0.0585   0.0944   0.1249  -0.0351   0.0512  -0.0503   0.00    0.0
2026/01/15 04:45:30.000   30.531676124  114.357263255    27.5565   6  16   0.0582   0.0942   0.1244  -0.0351   0.0511  -0.0502   0.00    0.0
2026/01/15 04:46:00.000   30.531676152  114.357263263    27.5582   6  16   0.0579   0.0939   0.1240  -0.0352   0.0510  -0.0500   0.00    0.0
2026/01/15 04:46:30.000   30.531676180  114.357263274    27.5603   6  15   0.0576   0.0937   0.1235  -0.0352   0.0509  -0.0499   0.00    0.0
2026/01/15 04:47:00.000   30.531676205  114.357263292    27.5622   6  16   0.0574   0.0934   0.1231  -0.0352   0.0508  -0.0497   0.00    0.0
2026/01/15 04:47:30.000   30.531676231  114.357263316    27.5634   6  15   0.0571   0.0932   0.1226  -0.0352   0.0507  -0.0495   0.00    0.0
2026/01/15 04:48:00.000   30.531676259  114.357263331    27.5653   6  16   0.0568   0.0929   0.1221  -0.0353   0.0506  -0.0493   0.00    0.0
2026/01/15 04:48:30.000   30.531676287  114.357263361    27.5673   6  16   0.0565   0.0927   0.1217  -0.0353   0.0504  -0.0492   0.00    0.0
2026/01/15 04:49:00.000   30.531676318  114.357263379    27.5686   6  15   0.0563   0.0924   0.1212  -0.0353   0.0503  -0.0490   0.00    0.0
2026/01/15 04:49:30.000   30.531676342  114.357263412    27.5713   6  15   0.0560   0.0922   0.1207  -0.0353   0.0502  -0.0488   0.00    0.0
2026/01/15 04:50:00.000   30.531676371  114.357263436    27.5732   6  16   0.0557   0.0919   0.1202  -0.0353   0.0501  -0.0487   0.00    0.0
2026/01/15 04:50:30.000   30.531676401  114.357263454    27.5748   6  16   0.0554   0.0917   0.1197  -0.0353   0.0500  -0.0485   0.00    0.0
2026/01/15 04:51:00.000   30.531676428  114.357263477    27.5773   6  15   0.0552   0.0914   0.1192  -0.0353   0.0498  -0.0483   0.00    0.0
2026/01/15 04:51:30.000   30.531676455  114.357263504    27.5799   6  15   0.0549   0.0911   0.1187  -0.0353   0.0497  -0.0481   0.00    0.0
2026/01/15 04:52:00.000   30.531676482  114.357263529    27.5820   6  15   0.0546   0.0909   0.1182  -0.0353   0.0496  -0.0480   0.00    0.0
2026/01/15 04:52:30.000   30.531676507  114.357263553    27.5841   6  15   0.0543   0.0906   0.1177  -0.0353   0.0494  -0.0478   0.00    0.0
2026/01/15 04:53:00.000   30.531676532  114.357263581    27.5862   6  15   0.0541   0.0904   0.1172  -0.0353   0.0493  -0.0476   0.00    0.0
2026/01/15 04:53:30.000   30.531676555  114.357263604    27.5882   6  15   0.0538   0.0901   0.1167  -0.0353   0.0491  -0.0474   0.00    0.0
2026/01/15 04:54:00.000   30.531676580  114.357263627    27.5903   6  15   0.0535   0.0899   0.1162  -0.0353   0.0490  -0.0472   0.00    0.0
2026/01/15 04:54:30.000   30.531676601  114.357263650    27.5924   6  15   0.0533   0.0896   0.1157  -0.0353   0.0488  -0.0470   0.00    0.0
2026/01/15 04:55:00.000   30.531676625  114.357263687    27.5943   6  15   0.0530   0.0893   0.1152  -0.0353   0.0487  -0.0469   0.00    0.0
2026/01/15 04:55:30.000   30.531676648  114.357263708    27.5963   6  15   0.0527   0.0891   0.1146  -0.0353   0.0485  -0.0467   0.00    0.0
2026/01/15 04:56:00.000   30.531676672  114.357263737    27.5983   6  15   0.0525   0.0888   0.1141  -0.0352   0.0484  -0.0465   0.00    0.0
2026/01/15 04:56:30.000   30.531676691  114.357263771    27.6008   6  15   0.0522   0.0885   0.1136  -0.0352   0.0482  -0.0463   0.00    0.0
2026/01/15 04:57:00.000   30.531676711  114.357263798    27.6028   6  15   0.0519   0.0883   0.1130  -0.0352   0.0481  -0.0461   0.00    0.0
2026/01/15 04:57:30.000   30.531676732  114.357263827    27.6043   6  15   0.0517   0.0880   0.1125  -0.0352   0.0479  -0.0459   0.00    0.0
2026/01/15 04:58:00.000   30.531676753  114.357263848    27.6067   6  15   0.0514   0.0878   0.1120  -0.0351   0.0477  -0.0457   0.00    0.0
2026/01/15 04:58:30.000   30.531676773  114.357263879    27.6089   6  15   0.0512   0.0875   0.1114  -0.0351   0.0476  -0.0455   0.00    0.0
2026/01/15 04:59:00.000   30.531676795  114.357263907    27.6109   6  15   0.0509   0.0872   0.1109  -0.0351   0.0474  -0.0453   0.00    0.0
2026/01/15 05:03:00.000   30.531676797  114.357263867    27.6149   6  16   0.0505   0.0866   0.1102  -0.0349   0.0471  -0.0450   0.00    0.0
2026/01/15 05:04:00.000   30.531676820  114.357263901    27.6150   6  16   0.0502   0.0862   0.1096  -0.0349   0.0470  -0.0448   0.00    0.0
2026/01/15 05:04:30.000   30.531676845  114.357263936    27.6163   6  16   0.0499   0.0859   0.1090  -0.0348   0.0469  -0.0446   0.00    0.0
2026/01/15 05:05:00.000   30.531676870  114.357263968    27.6176   6  16   0.0496   0.0856   0.1084  -0.0348   0.0467  -0.0443   0.00    0.0
2026/01/15 05:05:30.000   30.531676894  114.357264005    27.6190   6  16   0.0493   0.0854   0.1078  -0.0347   0.0466  -0.0441   0.00    0.0
2026/01/15 05:06:00.000   30.531676915  114.357264039    27.6203   6  16   0.0490   0.0851   0.1073  -0.0347   0.0465  -0.0439   0.00    0.0
2026/01/15 05:06:30.000   30.531676937  114.357264070    27.6220   6  16   0.0487   0.0848   0.1067  -0.0346   0.0463  -0.0437   0.00    0.0
2026/01/15 05:07:00.000   30.531676959  114.357264104    27.6236   6  16   0.0484   0.0845   0.1061  -0.0345   0.0462  -0.0434   0.00    0.0
2026/01/15 05:07:30.000   30.531676980  114.357264133    27.6251   6  16   0.0481   0.0842   0.1055  -0.0345   0.0460  -0.0432   0.00    0.0
2026/01/15 05:08:00.000   30.531677000  114.357264165    27.6263   6  16   0.0478   0.0839   0.1049  -0.0344   0.0459  -0.0430   0.00    0.0
2026/01/15 05:08:30.000   30.531677021  114.357264203    27.6277   6  16   0.0475   0.0836   0.1044  -0.0344   0.0458  -0.0428   0.00    0.0
2026/01/15 05:09:00.000   30.531677040  114.357264236    27.6292   6  16   0.0472   0.0833   0.1038  -0.0343   0.0456  -0.0426   0.00    0.0
2026/01/15 05:09:30.000   30.531677061  114.357264262    27.6302   6  16   0.0470   0.0831   0.1032  -0.0342   0.0454  -0.0423   0.00    0.0
2026/01/15 05:10:00.000   30.531677083  114.357264296    27.6314   6  16   0.0467   0.0828   0.1027  -0.0341   0.0453  -0.0421   0.00    0.0
2026/01/15 05:10:30.000   30.531677101  114.357264328    27.6329   6  16   0.0464   0.0825   0.1021  -0.0341   0.0451  -0.0419   0.00    0.0
2026/01/15 05:11:00.000   30.531677120  114.357264360    27.6342   6  16   0.0461   0.0822   0.1015  -0.0340   0.0450  -0.0417   0.00    0.0
2026/01/15 05:11:30.000   30.531677137  114.357264397    27.6361   6  16   0.0459   0.0819   0.1009  -0.0339   0.0448  -0.0415   0.00    0.0
2026/01/15 05:12:00.000   30.531677156  114.357264431    27.6379   6  16   0.0456   0.0816   0.1004  -0.0338   0.0447  -0.0412   0.00    0.0
2026/01/15 05:12:30.000   30.531677172  114.357264470    27.6403   6  16   0.0454   0.0814   0.0998  -0.0338   0.0445  -0.0410   0.00    0.0
2026/01/15 05:13:00.000   30.531677189  114.357264503    27.6423   6  16   0.0451   0.0811   0.0992  -0.0337   0.0443  -0.0408   0.00    0.0
2026/01/15 05:13:30.000   30.531677204  114.357264541    27.6441   6  16   0.0448   0.0808   0.0987  -0.0336   0.0442  -0.0406   0.00    0.0
2026/01/15 05:14:00.000   30.531677219  114.357264582    27.6462   6  16   0.0446   0.0805   0.0981  -0.0335   0.0440  -0.0404   0.00    0.0
2026/01/15 05:14:30.000   30.531677235  114.357264620    27.6479   6  16   0.0443   0.0802   0.0975  -0.0334   0.0438  -0.0402   0.00    0.0
2026/01/15 05:15:00.000   30.531677250  114.357264655    27.6499   6  16   0.0441   0.0800   0.0970  -0.0334   0.0437  -0.0399   0.00    0.0
2026/01/15 05:15:30.000   30.531677264  114.357264693    27.6522   6  16   0.0438   0.0797   0.0964  -0.0333   0.0435  -0.0397   0.00    0.0
2026/01/15 05:16:00.000   30.531677280  114.357264723    27.6538   6  15   0.0436   0.0794   0.0959  -0.0332   0.0433  -0.0395   0.00    0.0
2026/01/15 05:16:30.000   30.531677294  114.357264756    27.6554   6  16   0.0433   0.0791   0.0953  -0.0331   0.0431  -0.0393   0.00    0.0
2026/01/15 05:17:00.000   30.531677308  114.357264795    27.6573   6  16   0.0431   0.0788   0.0948  -0.0330   0.0430  -0.0391   0.00    0.0
2026/01/15 05:17:30.000   30.531677320  114.357264825    27.6589   6  16   0.0428   0.0786   0.0942  -0.0329   0.0428  -0.0389   0.00    0.0
2026/01/15 05:18:00.000   30.531677334  114.357264852    27.6602   6  16   0.0426   0.0783   0.0937  -0.0328   0.0426  -0.0387   0.00    0.0
2026/01/15 05:18:30.000   30.531677346  114.357264881    27.6615   6  16   0.0424   0.0780   0.0931  -0.0327   0.0424  -0.0385   0.00    0.0
2026/01/15 05:19:00.000   30.531677360  114.357264914    27.6631   6  16   0.0421   0.0778   0.0926  -0.0326   0.0422  -0.0382   0.00    0.0
2026/01/15 05:19:30.000   30.531677371  114.357264945    27.6647   6  16   0.0419   0.0775   0.0920  -0.0325   0.0421  -0.0380   0.00    0.0
2026/01/15 05:20:00.000   30.531677383  114.357264976    27.6662   6  16   0.0417   0.0772   0.0915  -0.0324   0.0419  -0.0378   0.00    0.0
2026/01/15 05:20:30.000   30.531677394  114.357265010    27.6682   6  16   0.0414   0.0769   0.0909  -0.0323   0.0417  -0.0376   0.00    0.0
2026/01/15 05:21:00.000   30.531677405  114.357265042    27.6700   6  16   0.0412   0.0767   0.0904  -0.0323   0.0415  -0.0374   0.00    0.0
2026/01/15 05:21:30.000   30.531677417  114.357265074    27.6718   6  15   0.0410   0.0764   0.0898  -0.0322   0.0413  -0.0372   0.00    0.0
2026/01/15 05:22:00.000   30.531677428  114.357265103    27.6731   6  16   0.0408   0.0761   0.0893  -0.0321   0.0412  -0.0370   0.00    0.0
2026/01/15 05:22:30.000   30.531677440  114.357265140    27.6743   6  16   0.0406   0.0759   0.0888  -0.0320   0.0410  -0.0368   0.00    0.0
2026/01/15 05:23:00.000   30.531677451  114.357265169    27.6756   6  16   0.0403   0.0756   0.0882  -0.0319   0.0408  -0.0366   0.00    0.0
2026/01/15 05:23:30.000   30.531677459  114.357265198    27.6772   6  16   0.0401   0.0753   0.0877  -0.0318   0.0406  -0.0364   0.00    0.0
2026/01/15 05:24:00.000   30.531677468  114.357265231    27.6785   6  16   0.0399   0.0751   0.0872  -0.0317   0.0404  -0.0362   0.00    0.0
2026/01/15 05:24:30.000   30.531677477  114.357265264    27.6797   6  16   0.0397   0.0748   0.0866  -0.0316   0.0402  -0.0360   0.00    0.0
2026/01/15 05:25:00.000   30.531677485  114.357265302    27.6813   6  16   0.0395   0.0745   0.0861  -0.0315   0.0400  -0.0358   0.00    0.0
2026/01/15 05:25:30.000   30.531677494  114.357265328    27.6823   6  16   0.0393   0.0743   0.0856  -0.0314   0.0399  -0.0356   0.00    0.0
2026/01/15 05:26:00.000   30.531677502  114.357265351    27.6833   6  16   0.0391   0.0740   0.0851  -0.0313   0.0397  -0.0354   0.00    0.0
2026/01/15 05:26:30.000   30.531677509  114.357265384    27.6846   6  16   0.0389   0.0738   0.0846  -0.0312   0.0395  -0.0352   0.00    0.0
2026/01/15 05:27:00.000   30.531677516  114.357265415    27.6859   6  16   0.0387   0.0735   0.0840  -0.0311   0.0393  -0.0350   0.00    0.0
2026/01/15 05:27:30.000   30.531677523  114.357265447    27.6874   6  16   0.0385   0.0733   0.0835  -0.0309   0.0391  -0.0348   0.00    0.0
2026/01/15 05:28:00.000   30.531677530  114.357265481    27.6885   6  16   0.0383   0.0730   0.0830  -0.0308   0.0389  -0.0346   0.00    0.0
2026/01/15 05:28:30.000   30.531677536  114.357265511    27.6894   6  16   0.0381   0.0727   0.0825  -0.0307   0.0387  -0.0344   0.00    0.0
2026/01/15 05:29:00.000   30.531677541  114.357265546    27.6904   6  16   0.0379   0.0725   0.0820  -0.0306   0.0386  -0.0342   0.00    0.0
2026/01/15 05:29:30.000   30.531677548  114.357265574    27.6911   6  16   0.0377   0.0722   0.0815  -0.0305   0.0384  -0.0340   0.00    0.0
2026/01/15 05:30:00.000   30.531677555  114.357265600    27.6915   6  16   0.0375   0.0720   0.0810  -0.0304   0.0382  -0.0338   0.00    0.0
2026/01/15 05:30:30.000   30.531677561  114.357265626    27.6921   6  16   0.0373   0.0717   0.0805  -0.0303   0.0380  -0.0336   0.00    0.0
2026/01/15 05:31:00.000   30.531677568  114.357265650    27.6925   6  16   0.0371   0.0715   0.0800  -0.0302   0.0378  -0.0334   0.00    0.0
2026/01/15 05:31:30.000   30.531677574  114.357265680    27.6934   6  16   0.0369   0.0712   0.0795  -0.0301   0.0376  -0.0332   0.00    0.0
2026/01/15 05:32:00.000   30.531677584  114.357265696    27.6943   6  15   0.0367   0.0710   0.0790  -0.0300   0.0374  -0.0330   0.00    0.0
2026/01/15 05:32:30.000   30.531677595  114.357265711    27.6949   6  15   0.0365   0.0708   0.0785  -0.0299   0.0372  -0.0328   0.00    0.0
2026/01/15 05:33:00.000   30.531677603  114.357265734    27.6958   6  15   0.0363   0.0705   0.0780  -0.0298   0.0370  -0.0326   0.00    0.0
2026/01/15 05:33:30.000   30.531677611  114.357265758    27.6967   6  15   0.0362   0.0703   0.0775  -0.0298   0.0369  -0.0325   0.00    0.0
2026/01/15 05:34:00.000   30.531677622  114.357265777    27.6972   6  15   0.0360   0.0701   0.0771  -0.0297   0.0367  -0.0323   0.00    0.0
2026/01/15 05:34:30.000   30.531677630  114.357265800    27.6980   6  15   0.0358   0.0699   0.0766  -0.0296   0.0365  -0.0321   0.00    0.0
2026/01/15 05:35:00.000   30.531677637  114.357265818    27.6982   6  15   0.0356   0.0697   0.0762  -0.0295   0.0363  -0.0319   0.00    0.0
2026/01/15 05:35:30.000   30.531677644  114.357265841    27.6985   6  14   0.0355   0.0694   0.0758  -0.0294   0.0362  -0.0317   0.00    0.0
2026/01/15 05:36:00.000   30.531677650  114.357265862    27.6991   6  15   0.0353   0.0692   0.0754  -0.0293   0.0360  -0.0315   0.00    0.0
2026/01/15 05:36:30.000   30.531677658  114.357265877    27.6992   6  16   0.0351   0.0690   0.0749  -0.0292   0.0359  -0.0312   0.00    0.0
2026/01/15 05:37:00.000   30.531677665  114.357265894    27.6995   6  16   0.0350   0.0688   0.0745  -0.0291   0.0357  -0.0310   0.00    0.0
2026/01/15 05:37:30.000   30.531677671  114.357265911    27.6999   6  16   0.0348   0.0686   0.0741  -0.0290   0.0356  -0.0308   0.00    0.0
2026/01/15 05:38:00.000   30.531677677  114.357265922    27.7000   6  16   0.0346   0.0684   0.0737  -0.0289   0.0354  -0.0306   0.00    0.0
2026/01/15 05:38:30.000   30.531677684  114.357265939    27.7003   6  16   0.0345   0.0681   0.0733  -0.0288   0.0353  -0.0304   0.00    0.0
2026/01/15 05:39:00.000   30.531677690  114.357265950    27.7005   6  16   0.0343   0.0679   0.0729  -0.0287   0.0351  -0.0302   0.00    0.0
2026/01/15 05:39:30.000   30.531677697  114.357265965    27.7008   6  16   0.0342   0.0677   0.0725  -0.0286   0.0350  -0.0301   0.00    0.0
2026/01/15 05:40:00.000   30.531677704  114.357265981    27.7011   6  15   0.0340   0.0675   0.0721  -0.0285   0.0348  -0.0299   0.00    0.0
2026/01/15 05:40:30.000   30.531677711  114.357266000    27.7012   6  16   0.0338   0.0673   0.0717  -0.0284   0.0347  -0.0297   0.00    0.0
2026/01/15 05:41:00.000   30.531677718  114.357266018    27.7015   6  16   0.0337   0.0671   0.0713  -0.0283   0.0345  -0.0295   0.00    0.0
2026/01/15 05:41:30.000   30.531677724  114.357266040    27.7021   6  15   0.0335   0.0669   0.0709  -0.0282   0.0344  -0.0293   0.00    0.0
2026/01/15 05:42:00.000   30.531677731  114.357266055    27.7022   6  15   0.0334   0.0667   0.0705  -0.0281   0.0342  -0.0291   0.00    0.0
2026/01/15 05:42:30.000   30.531677738  114.357266071    27.7024   6  15   0.0332   0.0665   0.0701  -0.0280   0.0341  -0.0289   0.00    0.0
2026/01/15 05:43:00.000   30.531677745  114.357266084    27.7024   6  16   0.0331   0.0662   0.0697  -0.0279   0.0340  -0.0287   0.00    0.0
2026/01/15 05:43:30.000   30.531677751  114.357266099    27.7026   6  15   0.0329   0.0660   0.0694  -0.0278   0.0338  -0.0286   0.00    0.0
2026/01/15 05:44:00.000   30.531677757  114.357266113    27.7028   6  17   0.0328   0.0658   0.0690  -0.0277   0.0337  -0.0284   0.00    0.0
2026/01/15 05:44:30.000   30.531677764  114.357266122    27.7026   6  17   0.0326   0.0656   0.0686  -0.0276   0.0335  -0.0282   0.00    0.0
2026/01/15 05:45:00.000   30.531677771  114.357266136    27.7023   6  17   0.0325   0.0654   0.0682  -0.0275   0.0334  -0.0280   0.00    0.0
2026/01/15 05:45:30.000   30.531677779  114.357266145    27.7021   6  17   0.0323   0.0652   0.0678  -0.0274   0.0332  -0.0278   0.00    0.0
2026/01/15 05:46:00.000   30.531677785  114.357266154    27.7019   6  17   0.0322   0.0650   0.0674  -0.0273   0.0331  -0.0277   0.00    0.0
2026/01/15 05:46:30.000   30.531677791  114.357266170    27.7017   6  16   0.0320   0.0648   0.0671  -0.0272   0.0329  -0.0275   0.00    0.0
2026/01/15 05:47:00.000   30.531677797  114.357266186    27.7014   6  17   0.0319   0.0646   0.0667  -0.0271   0.0328  -0.0273   0.00    0.0
2026/01/15 05:47:30.000   30.531677803  114.357266205    27.7012   6  17   0.0317   0.0644   0.0663  -0.0270   0.0327  -0.0271   0.00    0.0
2026/01/15 05:48:00.000   30.531677809  114.357266221    27.7012   6  17   0.0316   0.0642   0.0659  -0.0269   0.0325  -0.0270   0.00    0.0
2026/01/15 05:48:30.000   30.531677814  114.357266239    27.7011   6  17   0.0315   0.0640   0.0656  -0.0268   0.0324  -0.0268   0.00    0.0
2026/01/15 05:49:00.000   30.531677820  114.357266253    27.7006   6  17   0.0313   0.0638   0.0652  -0.0267   0.0322  -0.0266   0.00    0.0
2026/01/15 05:49:30.000   30.531677827  114.357266264    27.6999   6  17   0.0312   0.0636   0.0648  -0.0266   0.0321  -0.0265   0.00    0.0
2026/01/15 05:50:00.000   30.531677833  114.357266280    27.6992   6  17   0.0311   0.0634   0.0645  -0.0266   0.0320  -0.0263   0.00    0.0
2026/01/15 05:50:30.000   30.531677839  114.357266297    27.6986   6  17   0.0309   0.0632   0.0641  -0.0265   0.0318  -0.0262   0.00    0.0
2026/01/15 05:51:00.000   30.531677845  114.357266314    27.6979   6  17   0.0308   0.0630   0.0637  -0.0264   0.0317  -0.0260   0.00    0.0
2026/01/15 05:51:30.000   30.531677850  114.357266329    27.6973   6  17   0.0306   0.0628   0.0634  -0.0263   0.0315  -0.0258   0.00    0.0
2026/01/15 05:52:00.000   30.531677856  114.357266340    27.6965   6  17   0.0305   0.0626   0.0630  -0.0262   0.0314  -0.0257   0.00    0.0
2026/01/15 05:52:30.000   30.531677862  114.357266353    27.6960   6  17   0.0304   0.0624   0.0627  -0.0261   0.0313  -0.0255   0.00    0.0
2026/01/15 05:53:00.000   30.531677866  114.357266368    27.6956   6  16   0.0302   0.0622   0.0623  -0.0260   0.0311  -0.0254   0.00    0.0
