% program   : RTKPOST ver.demo5 b34d
% inp file  : C:\Users\tevin\Desktop\GNSS - MASTA\SPRING SEM\4.SAT NAV DATA PROCESSING\TEAM PROJECT\SNDP-PROJECT\DATA(Tevin USE)\obs\RNXDATA\KIRU00SWE_R_20260150000_01D_30S_MO.obs
% inp file  : C:\Users\tevin\Desktop\GNSS - MASTA\SPRING SEM\4.SAT NAV DATA PROCESSING\TEAM PROJECT\SNDP-PROJECT\DATA(Tevin USE)\nav\BRDC00IGS_R_20260150000_01D_MN.nav
% inp file  : C:\Users\tevin\Desktop\GNSS - MASTA\SPRING SEM\4.SAT NAV DATA PROCESSING\TEAM PROJECT\SNDP-PROJECT\DATA(Tevin USE)\DATA_FINAL_ANT_EXTRA\COD0MGXFIN_20260150000_01D_30S_CLK.CLK
% inp file  : C:\Users\tevin\Desktop\GNSS - MASTA\SPRING SEM\4.SAT NAV DATA PROCESSING\TEAM PROJECT\SNDP-PROJECT\DATA(Tevin USE)\DATA_FINAL_ANT_EXTRA\COD0MGXFIN_20260150000_01D_05M_ORB.SP3
% obs start : 2026/01/15 00:00:00.0 GPST (week2401 345600.0s)
% obs end   : 2026/01/15 23:59:30.0 GPST (week2401 431970.0s)
% pos mode  : PPP Static
% solution  : Forward
% elev mask : 15.0 deg
% dynamics  : on
% tidecorr  : off
% tropo opt : Saastamoinen
% ephemeris : Precise
% navi sys  : GPS
% antenna1  :                       ( 0.0000  0.0000  0.0000)
%
% (lat/lon/height=WGS84/ellipsoidal,Q=1:fix,2:float,3:sbas,4:dgps,5:single,6:ppp,ns=# of satellites)
%  GPST                  latitude(deg) longitude(deg)  height(m)   Q  ns   sdn(m)   sde(m)   sdu(m)  sdne(m)  sdeu(m)  sdun(m) age(s)  ratio
2026/01/15 00:00:00.000   67.857334709   20.968482912   375.5803   6  10   1.5762   1.2902   3.5092  -0.3556  -0.9626   1.3439   0.00    0.0
2026/01/15 00:00:30.000   67.857335977   20.968482743   375.2280   6  10   1.1164   0.9135   2.4890  -0.2548  -0.6852   0.9542   0.00    0.0
2026/01/15 00:01:00.000   67.857334986   20.968484068   375.2171   6  10   0.9123   0.7463   2.0364  -0.2107  -0.5625   0.7820   0.00    0.0
2026/01/15 00:01:30.000   67.857335015   20.968483972   375.2345   6  10   0.7907   0.6467   1.7671  -0.1844  -0.4898   0.6793   0.00    0.0
2026/01/15 00:02:00.000   67.857335426   20.968484696   375.1595   6  10   0.7077   0.5788   1.5835  -0.1667  -0.4403   0.6095   0.00    0.0
2026/01/15 00:02:30.000   67.857335378   20.968484840   375.0964   6  10   0.6465   0.5286   1.4484  -0.1537  -0.4040   0.5582   0.00    0.0
2026/01/15 00:03:00.000   67.857335109   20.968484715   375.0227   6  10   0.5989   0.4896   1.3432  -0.1437  -0.3758   0.5183   0.00    0.0
2026/01/15 00:03:30.000   67.857335037   20.968484902   374.9447   6  10   0.5605   0.4581   1.2583  -0.1358  -0.3530   0.4862   0.00    0.0
2026/01/15 00:04:00.000   67.857335349   20.968485191   375.0214   6  11   0.5261   0.4319   1.1801  -0.1317  -0.3368   0.4519   0.00    0.0
2026/01/15 00:04:30.000   67.857335727   20.968485809   375.0416   6  11   0.4974   0.4097   1.1153  -0.1277  -0.3227   0.4241   0.00    0.0
2026/01/15 00:05:00.000   67.857335600   20.968486179   374.9769   6  11   0.4730   0.3907   1.0604  -0.1241  -0.3103   0.4009   0.00    0.0
2026/01/15 00:05:30.000   67.857335624   20.968486589   374.9385   6  11   0.4519   0.3741   1.0131  -0.1208  -0.2993   0.3813   0.00    0.0
2026/01/15 00:06:00.000   67.857335502   20.968486922   374.9264   6  11   0.4335   0.3594   0.9719  -0.1177  -0.2895   0.3645   0.00    0.0
2026/01/15 00:06:30.000   67.857335404   20.968487352   374.8997   6  11   0.4171   0.3464   0.9355  -0.1149  -0.2807   0.3498   0.00    0.0
2026/01/15 00:07:00.000   67.857335449   20.968487735   374.8936   6  11   0.4025   0.3348   0.9030  -0.1123  -0.2727   0.3368   0.00    0.0
2026/01/15 00:07:30.000   67.857335499   20.968488093   374.8815   6  11   0.3894   0.3242   0.8739  -0.1099  -0.2654   0.3253   0.00    0.0
2026/01/15 00:08:00.000   67.857335404   20.968488761   374.8842   6  11   0.3774   0.3146   0.8475  -0.1077  -0.2588   0.3150   0.00    0.0
2026/01/15 00:08:30.000   67.857335319   20.968489307   374.8677   6  11   0.3665   0.3058   0.8235  -0.1057  -0.2527   0.3056   0.00    0.0
2026/01/15 00:09:00.000   67.857335335   20.968489576   374.8655   6  11   0.3565   0.2977   0.8014  -0.1038  -0.2470   0.2971   0.00    0.0
2026/01/15 00:09:30.000   67.857335233   20.968490075   374.8820   6  10   0.3479   0.2902   0.7817  -0.1024  -0.2415   0.2882   0.00    0.0
2026/01/15 00:10:00.000   67.857335058   20.968490586   374.9222   6  10   0.3399   0.2833   0.7634  -0.1011  -0.2363   0.2801   0.00    0.0
2026/01/15 00:10:30.000   67.857334938   20.968490754   374.9615   6  10   0.3324   0.2768   0.7465  -0.0998  -0.2315   0.2727   0.00    0.0
2026/01/15 00:11:00.000   67.857334760   20.968491203   374.9568   6  10   0.3254   0.2708   0.7307  -0.0985  -0.2271   0.2659   0.00    0.0
2026/01/15 00:11:30.000   67.857334515   20.968491552   374.9439   6  10   0.3188   0.2652   0.7159  -0.0974  -0.2229   0.2595   0.00    0.0
2026/01/15 00:12:00.000   67.857334402   20.968491923   374.9568   6  10   0.3127   0.2599   0.7020  -0.0962  -0.2189   0.2537   0.00    0.0
2026/01/15 00:12:30.000   67.857334208   20.968492220   374.9640   6  10   0.3068   0.2549   0.6890  -0.0951  -0.2152   0.2482   0.00    0.0
2026/01/15 00:13:00.000   67.857334106   20.968492500   374.9789   6  10   0.3013   0.2502   0.6767  -0.0941  -0.2116   0.2431   0.00    0.0
2026/01/15 00:13:30.000   67.857334036   20.968492709   374.9909   6  10   0.2961   0.2458   0.6650  -0.0931  -0.2083   0.2384   0.00    0.0
2026/01/15 00:14:00.000   67.857333968   20.968493164   375.0067   6  10   0.2911   0.2415   0.6540  -0.0921  -0.2051   0.2339   0.00    0.0
2026/01/15 00:14:30.000   67.857333907   20.968493484   375.0293   6  10   0.2864   0.2375   0.6435  -0.0911  -0.2020   0.2297   0.00    0.0
2026/01/15 00:15:00.000   67.857333839   20.968493791   375.0381   6  10   0.2819   0.2337   0.6335  -0.0902  -0.1991   0.2257   0.00    0.0
2026/01/15 00:15:30.000   67.857333765   20.968494069   375.0612   6  10   0.2776   0.2300   0.6239  -0.0893  -0.1963   0.2219   0.00    0.0
2026/01/15 00:16:00.000   67.857333759   20.968494375   375.0724   6  10   0.2735   0.2265   0.6148  -0.0885  -0.1936   0.2184   0.00    0.0
2026/01/15 00:16:30.000   67.857333719   20.968494552   375.0868   6  10   0.2696   0.2232   0.6062  -0.0877  -0.1910   0.2150   0.00    0.0
2026/01/15 00:17:00.000   67.857333665   20.968494740   375.1047   6  10   0.2659   0.2200   0.5978  -0.0868  -0.1885   0.2118   0.00    0.0
2026/01/15 00:17:30.000   67.857333596   20.968494903   375.1184   6  10   0.2623   0.2170   0.5899  -0.0861  -0.1861   0.2087   0.00    0.0
2026/01/15 00:18:00.000   67.857333554   20.968495155   375.1268   6  10   0.2588   0.2140   0.5823  -0.0853  -0.1838   0.2058   0.00    0.0
2026/01/15 00:18:30.000   67.857333528   20.968495426   375.1533   6  10   0.2555   0.2112   0.5750  -0.0845  -0.1816   0.2030   0.00    0.0
2026/01/15 00:19:00.000   67.857333487   20.968495556   375.1663   6  10   0.2523   0.2085   0.5679  -0.0838  -0.1795   0.2003   0.00    0.0
2026/01/15 00:19:30.000   67.857333474   20.968495643   375.1834   6  10   0.2492   0.2059   0.5611  -0.0831  -0.1774   0.1977   0.00    0.0
2026/01/15 00:20:00.000   67.857333519   20.968495696   375.2065   6  10   0.2462   0.2034   0.5546  -0.0824  -0.1754   0.1952   0.00    0.0
2026/01/15 00:20:30.000   67.857333575   20.968495848   375.2295   6  10   0.2434   0.2009   0.5483  -0.0817  -0.1734   0.1929   0.00    0.0
2026/01/15 00:21:00.000   67.857333564   20.968496149   375.2500   6  10   0.2406   0.1986   0.5422  -0.0810  -0.1715   0.1907   0.00    0.0
2026/01/15 00:21:30.000   67.857333514   20.968496434   375.2636   6  10   0.2380   0.1963   0.5363  -0.0803  -0.1696   0.1885   0.00    0.0
2026/01/15 00:22:00.000   67.857333500   20.968496621   375.2751   6  10   0.2354   0.1941   0.5307  -0.0797  -0.1678   0.1864   0.00    0.0
2026/01/15 00:22:30.000   67.857333522   20.968496865   375.2854   6  10   0.2329   0.1920   0.5252  -0.0791  -0.1661   0.1844   0.00    0.0
2026/01/15 00:23:00.000   67.857333576   20.968497046   375.2985   6  10   0.2305   0.1899   0.5198  -0.0785  -0.1643   0.1824   0.00    0.0
2026/01/15 00:23:30.000   67.857333559   20.968497345   375.3030   6  10   0.2282   0.1879   0.5147  -0.0778  -0.1626   0.1806   0.00    0.0
2026/01/15 00:24:00.000   67.857333542   20.968497687   375.3058   6  10   0.2259   0.1860   0.5096  -0.0772  -0.1610   0.1787   0.00    0.0
2026/01/15 00:24:30.000   67.857333559   20.968497910   375.3043   6  10   0.2237   0.1841   0.5047  -0.0766  -0.1593   0.1769   0.00    0.0
2026/01/15 00:25:00.000   67.857333607   20.968498115   375.3215   6  10   0.2216   0.1823   0.4999  -0.0761  -0.1577   0.1752   0.00    0.0
2026/01/15 00:25:30.000   67.857333659   20.968498408   375.3463   6   9   0.2196   0.1805   0.4957  -0.0754  -0.1559   0.1738   0.00    0.0
2026/01/15 00:26:00.000   67.857333730   20.968498659   375.3703   6   9   0.2176   0.1788   0.4916  -0.0747  -0.1542   0.1725   0.00    0.0
2026/01/15 00:26:30.000   67.857333816   20.968498876   375.3961   6   9   0.2157   0.1772   0.4876  -0.0741  -0.1525   0.1712   0.00    0.0
2026/01/15 00:27:00.000   67.857333901   20.968498979   375.4299   6   9   0.2139   0.1756   0.4836  -0.0734  -0.1508   0.1699   0.00    0.0
2026/01/15 00:27:30.000   67.857333993   20.968499143   375.4662   6   9   0.2120   0.1740   0.4798  -0.0728  -0.1492   0.1686   0.00    0.0
2026/01/15 00:28:00.000   67.857334060   20.968499272   375.5034   6   9   0.2103   0.1725   0.4760  -0.0722  -0.1476   0.1674   0.00    0.0
2026/01/15 00:28:30.000   67.857334152   20.968499304   375.5528   6   9   0.2086   0.1710   0.4724  -0.0716  -0.1460   0.1662   0.00    0.0
2026/01/15 00:29:00.000   67.857334242   20.968499411   375.5992   6   9   0.2069   0.1695   0.4687  -0.0711  -0.1445   0.1650   0.00    0.0
2026/01/15 00:29:30.000   67.857334348   20.968499417   375.6479   6   9   0.2052   0.1681   0.4652  -0.0705  -0.1430   0.1638   0.00    0.0
2026/01/15 00:30:00.000   67.857334461   20.968499409   375.6985   6   9   0.2036   0.1667   0.4617  -0.0699  -0.1415   0.1626   0.00    0.0
2026/01/15 00:30:30.000   67.857334572   20.968499499   375.7386   6   8   0.2023   0.1653   0.4590  -0.0696  -0.1403   0.1623   0.00    0.0
2026/01/15 00:31:00.000   67.857334685   20.968499614   375.7754   6   8   0.2010   0.1640   0.4564  -0.0693  -0.1392   0.1618   0.00    0.0
2026/01/15 00:31:30.000   67.857334772   20.968499732   375.8209   6   8   0.1997   0.1628   0.4538  -0.0690  -0.1381   0.1614   0.00    0.0
2026/01/15 00:32:00.000   67.857334899   20.968499884   375.8593   6   8   0.1984   0.1615   0.4512  -0.0687  -0.1370   0.1610   0.00    0.0
2026/01/15 00:32:30.000   67.857335035   20.968499900   375.9055   6   8   0.1972   0.1603   0.4487  -0.0684  -0.1359   0.1605   0.00    0.0
2026/01/15 00:33:00.000   67.857335167   20.968499934   375.9538   6   8   0.1960   0.1591   0.4461  -0.0681  -0.1348   0.1601   0.00    0.0
2026/01/15 00:33:30.000   67.857335277   20.968500017   375.9947   6   8   0.1948   0.1579   0.4437  -0.0678  -0.1337   0.1596   0.00    0.0
2026/01/15 00:34:00.000   67.857335341   20.968500097   376.0358   6   8   0.1937   0.1568   0.4412  -0.0675  -0.1327   0.1592   0.00    0.0
2026/01/15 00:34:30.000   67.857335407   20.968500181   376.0821   6   8   0.1925   0.1557   0.4388  -0.0673  -0.1316   0.1587   0.00    0.0
2026/01/15 00:35:00.000   67.857335489   20.968500196   376.1332   6   8   0.1914   0.1546   0.4364  -0.0670  -0.1306   0.1582   0.00    0.0
2026/01/15 00:35:30.000   67.857335590   20.968500303   376.1848   6   8   0.1903   0.1535   0.4340  -0.0667  -0.1295   0.1577   0.00    0.0
2026/01/15 00:36:00.000   67.857335702   20.968500474   376.2257   6   8   0.1892   0.1524   0.4316  -0.0664  -0.1285   0.1572   0.00    0.0
2026/01/15 00:36:30.000   67.857335845   20.968500612   376.2706   6   8   0.1882   0.1514   0.4293  -0.0661  -0.1275   0.1567   0.00    0.0
2026/01/15 00:37:00.000   67.857335950   20.968500727   376.3182   6   8   0.1871   0.1503   0.4269  -0.0658  -0.1264   0.1562   0.00    0.0
2026/01/15 00:37:30.000   67.857336046   20.968500794   376.3696   6   8   0.1861   0.1493   0.4246  -0.0655  -0.1254   0.1556   0.00    0.0
2026/01/15 00:38:00.000   67.857336170   20.968500904   376.4185   6   8   0.1851   0.1483   0.4223  -0.0652  -0.1244   0.1550   0.00    0.0
2026/01/15 00:38:30.000   67.857336308   20.968501031   376.4693   6   8   0.1841   0.1474   0.4201  -0.0649  -0.1234   0.1545   0.00    0.0
2026/01/15 00:39:00.000   67.857336461   20.968501096   376.5234   6   8   0.1831   0.1464   0.4178  -0.0646  -0.1223   0.1539   0.00    0.0
2026/01/15 00:39:30.000   67.857336605   20.968501187   376.5766   6   8   0.1822   0.1455   0.4155  -0.0643  -0.1213   0.1533   0.00    0.0
2026/01/15 00:40:00.000   67.857336723   20.968501254   376.6368   6   8   0.1812   0.1445   0.4133  -0.0640  -0.1203   0.1527   0.00    0.0
2026/01/15 00:40:30.000   67.857336853   20.968501309   376.6950   6   8   0.1803   0.1436   0.4110  -0.0637  -0.1193   0.1520   0.00    0.0
2026/01/15 00:41:00.000   67.857337003   20.968501374   376.7602   6   8   0.1793   0.1427   0.4088  -0.0634  -0.1183   0.1514   0.00    0.0
2026/01/15 00:41:30.000   67.857337148   20.968501391   376.8291   6   8   0.1784   0.1418   0.4066  -0.0631  -0.1172   0.1508   0.00    0.0
2026/01/15 00:42:00.000   67.857337295   20.968501376   376.9012   6   8   0.1775   0.1410   0.4044  -0.0628  -0.1162   0.1501   0.00    0.0
2026/01/15 00:42:30.000   67.857337453   20.968501364   376.9667   6   8   0.1766   0.1401   0.4023  -0.0625  -0.1152   0.1495   0.00    0.0
2026/01/15 00:43:00.000   67.857337635   20.968501322   377.0363   6   8   0.1757   0.1393   0.4001  -0.0622  -0.1142   0.1488   0.00    0.0
2026/01/15 00:43:30.000   67.857337821   20.968501382   377.1083   6   8   0.1749   0.1385   0.3979  -0.0619  -0.1132   0.1482   0.00    0.0
2026/01/15 00:44:00.000   67.857338004   20.968501345   377.1767   6   8   0.1740   0.1376   0.3958  -0.0615  -0.1122   0.1475   0.00    0.0
2026/01/15 00:44:30.000   67.857338261   20.968501275   377.2350   6   9   0.1731   0.1368   0.3936  -0.0612  -0.1113   0.1469   0.00    0.0
2026/01/15 00:45:00.000   67.857338504   20.968501141   377.2994   6   9   0.1722   0.1360   0.3913  -0.0608  -0.1104   0.1464   0.00    0.0
2026/01/15 00:45:30.000   67.857338751   20.968501033   377.3639   6   9   0.1714   0.1352   0.3891  -0.0604  -0.1095   0.1458   0.00    0.0
2026/01/15 00:46:00.000   67.857339014   20.968501010   377.4264   6   9   0.1705   0.1344   0.3869  -0.0600  -0.1086   0.1452   0.00    0.0
2026/01/15 00:46:30.000   67.857339287   20.968500923   377.4871   6   9   0.1697   0.1336   0.3847  -0.0596  -0.1077   0.1446   0.00    0.0
2026/01/15 00:47:00.000   67.857339577   20.968500857   377.5533   6   9   0.1688   0.1329   0.3826  -0.0592  -0.1069   0.1440   0.00    0.0
2026/01/15 00:47:30.000   67.857339878   20.968500719   377.6179   6   9   0.1680   0.1321   0.3804  -0.0589  -0.1060   0.1434   0.00    0.0
2026/01/15 00:48:00.000   67.857340179   20.968500603   377.6893   6   9   0.1672   0.1314   0.3783  -0.0585  -0.1051   0.1428   0.00    0.0
2026/01/15 00:48:30.000   67.857340505   20.968500412   377.7637   6   9   0.1664   0.1306   0.3762  -0.0581  -0.1042   0.1422   0.00    0.0
2026/01/15 00:49:00.000   67.857340838   20.968500158   377.8426   6   9   0.1656   0.1299   0.3741  -0.0577  -0.1033   0.1416   0.00    0.0
2026/01/15 00:49:30.000   67.857341202   20.968499902   377.9193   6   9   0.1648   0.1292   0.3720  -0.0574  -0.1024   0.1409   0.00    0.0
2026/01/15 00:50:00.000   67.857341557   20.968499655   377.9918   6   9   0.1640   0.1285   0.3699  -0.0570  -0.1016   0.1403   0.00    0.0
2026/01/15 00:50:30.000   67.857341907   20.968499403   378.0676   6   9   0.1633   0.1278   0.3678  -0.0566  -0.1007   0.1397   0.00    0.0
2026/01/15 00:51:00.000   67.857342265   20.968499203   378.1454   6   9   0.1625   0.1271   0.3658  -0.0562  -0.0998   0.1390   0.00    0.0
2026/01/15 00:51:30.000   67.857342616   20.968499010   378.2245   6   9   0.1617   0.1265   0.3637  -0.0559  -0.0989   0.1384   0.00    0.0
2026/01/15 00:52:00.000   67.857342959   20.968498761   378.3069   6   9   0.1610   0.1258   0.3617  -0.0555  -0.0981   0.1377   0.00    0.0
2026/01/15 00:52:30.000   67.857343309   20.968498465   378.3871   6   9   0.1603   0.1251   0.3597  -0.0552  -0.0972   0.1371   0.00    0.0
2026/01/15 00:53:00.000   67.857343662   20.968498229   378.4670   6   9   0.1595   0.1245   0.3577  -0.0548  -0.0964   0.1364   0.00    0.0
2026/01/15 00:53:30.000   67.857344011   20.968498047   378.5434   6   9   0.1588   0.1239   0.3558  -0.0545  -0.0955   0.1358   0.00    0.0
2026/01/15 00:54:00.000   67.857344353   20.968497872   378.6217   6   9   0.1581   0.1232   0.3538  -0.0541  -0.0947   0.1351   0.00    0.0
2026/01/15 00:54:30.000   67.857344710   20.968497692   378.6986   6   9   0.1574   0.1226   0.3518  -0.0537  -0.0938   0.1345   0.00    0.0
2026/01/15 00:55:00.000   67.857345042   20.968497621   378.7725   6   9   0.1567   0.1220   0.3499  -0.0534  -0.0930   0.1338   0.00    0.0
2026/01/15 00:55:30.000   67.857345372   20.968497497   378.8500   6   9   0.1560   0.1214   0.3480  -0.0530  -0.0921   0.1331   0.00    0.0
2026/01/15 00:56:00.000   67.857345704   20.968497409   378.9285   6   9   0.1553   0.1208   0.3460  -0.0527  -0.0913   0.1325   0.00    0.0
2026/01/15 00:56:30.000   67.857346033   20.968497281   379.0067   6   9   0.1547   0.1202   0.3442  -0.0524  -0.0905   0.1318   0.00    0.0
2026/01/15 00:57:00.000   67.857346396   20.968497141   379.0792   6   8   0.1541   0.1196   0.3424  -0.0520  -0.0896   0.1310   0.00    0.0
2026/01/15 00:57:30.000   67.857346784   20.968496999   379.1683   6   7   0.1535   0.1191   0.3407  -0.0517  -0.0887   0.1303   0.00    0.0
2026/01/15 00:58:00.000   67.857347160   20.968496930   379.2536   6   7   0.1529   0.1185   0.3391  -0.0513  -0.0878   0.1297   0.00    0.0
2026/01/15 00:58:30.000   67.857347527   20.968496917   379.3384   6   7   0.1523   0.1180   0.3375  -0.0509  -0.0868   0.1290   0.00    0.0
2026/01/15 00:59:00.000   67.857347884   20.968496924   379.4250   6   7   0.1517   0.1174   0.3359  -0.0506  -0.0859   0.1283   0.00    0.0
2026/01/15 00:59:30.000   67.857348248   20.968496885   379.5148   6   7   0.1511   0.1169   0.3344  -0.0502  -0.0850   0.1276   0.00    0.0
2026/01/15 01:00:00.000   67.857348513   20.968496846   379.5754   6   7   0.1506   0.1164   0.3330  -0.0499  -0.0840   0.1271   0.00    0.0
2026/01/15 01:00:30.000   67.857348744   20.968496763   379.6403   6   7   0.1501   0.1159   0.3316  -0.0495  -0.0831   0.1267   0.00    0.0
2026/01/15 01:01:00.000   67.857348991   20.968496634   379.7089   6   7   0.1496   0.1154   0.3302  -0.0492  -0.0822   0.1262   0.00    0.0
2026/01/15 01:01:30.000   67.857349250   20.968496565   379.7744   6   7   0.1492   0.1149   0.3288  -0.0488  -0.0812   0.1258   0.00    0.0
2026/01/15 01:02:00.000   67.857349511   20.968496502   379.8404   6   7   0.1487   0.1144   0.3275  -0.0485  -0.0803   0.1253   0.00    0.0
2026/01/15 01:02:30.000   67.857349771   20.968496422   379.9084   6   7   0.1482   0.1139   0.3261  -0.0481  -0.0794   0.1248   0.00    0.0
2026/01/15 01:03:00.000   67.857350036   20.968496304   379.9910   6   8   0.1477   0.1134   0.3246  -0.0478  -0.0783   0.1244   0.00    0.0
2026/01/15 01:03:30.000   67.857350306   20.968496191   380.0716   6   8   0.1473   0.1129   0.3231  -0.0474  -0.0772   0.1239   0.00    0.0
2026/01/15 01:04:00.000   67.857350579   20.968496088   380.1521   6   8   0.1468   0.1124   0.3216  -0.0470  -0.0761   0.1234   0.00    0.0
2026/01/15 01:04:30.000   67.857350855   20.968495940   380.2340   6   8   0.1463   0.1119   0.3201  -0.0467  -0.0750   0.1229   0.00    0.0
2026/01/15 01:05:00.000   67.857351141   20.968495822   380.3142   6   8   0.1459   0.1114   0.3186  -0.0463  -0.0740   0.1224   0.00    0.0
2026/01/15 01:05:30.000   67.857351419   20.968495706   380.3958   6   8   0.1454   0.1109   0.3171  -0.0460  -0.0729   0.1219   0.00    0.0
2026/01/15 01:06:00.000   67.857351706   20.968495619   380.4767   6   8   0.1450   0.1104   0.3157  -0.0456  -0.0719   0.1214   0.00    0.0
2026/01/15 01:06:30.000   67.857351988   20.968495499   380.5579   6   8   0.1445   0.1099   0.3142  -0.0453  -0.0708   0.1209   0.00    0.0
2026/01/15 01:07:00.000   67.857352289   20.968495352   380.6418   6   8   0.1441   0.1095   0.3128  -0.0450  -0.0698   0.1205   0.00    0.0
2026/01/15 01:07:30.000   67.857352582   20.968495211   380.7247   6   8   0.1437   0.1090   0.3114  -0.0446  -0.0687   0.1200   0.00    0.0
2026/01/15 01:08:00.000   67.857352890   20.968495094   380.8092   6   8   0.1432   0.1086   0.3099  -0.0443  -0.0677   0.1195   0.00    0.0
2026/01/15 01:08:30.000   67.857353194   20.968494965   380.8913   6   8   0.1428   0.1081   0.3085  -0.0440  -0.0667   0.1190   0.00    0.0
2026/01/15 01:09:00.000   67.857353498   20.968494872   380.9718   6   8   0.1424   0.1077   0.3071  -0.0437  -0.0657   0.1186   0.00    0.0
2026/01/15 01:09:30.000   67.857353785   20.968494797   381.0506   6   8   0.1420   0.1072   0.3057  -0.0433  -0.0647   0.1181   0.00    0.0
2026/01/15 01:10:00.000   67.857354081   20.968494674   381.1336   6   8   0.1415   0.1068   0.3044  -0.0430  -0.0637   0.1176   0.00    0.0
2026/01/15 01:10:30.000   67.857354376   20.968494541   381.2186   6   8   0.1411   0.1064   0.3030  -0.0427  -0.0627   0.1171   0.00    0.0
2026/01/15 01:11:00.000   67.857354668   20.968494450   381.3010   6   8   0.1407   0.1060   0.3016  -0.0424  -0.0617   0.1167   0.00    0.0
2026/01/15 01:11:30.000   67.857354963   20.968494342   381.3826   6   8   0.1403   0.1055   0.3003  -0.0421  -0.0607   0.1162   0.00    0.0
2026/01/15 01:12:00.000   67.857355277   20.968494262   381.4619   6   8   0.1399   0.1051   0.2989  -0.0418  -0.0597   0.1157   0.00    0.0
2026/01/15 01:12:30.000   67.857355569   20.968494164   381.5456   6   8   0.1395   0.1047   0.2976  -0.0415  -0.0588   0.1153   0.00    0.0
2026/01/15 01:13:00.000   67.857355864   20.968494083   381.6293   6   8   0.1391   0.1043   0.2963  -0.0412  -0.0578   0.1148   0.00    0.0
2026/01/15 01:13:30.000   67.857356159   20.968493988   381.7143   6   8   0.1387   0.1040   0.2950  -0.0409  -0.0569   0.1144   0.00    0.0
2026/01/15 01:14:00.000   67.857356448   20.968493918   381.7975   6   8   0.1383   0.1036   0.2937  -0.0407  -0.0559   0.1139   0.00    0.0
2026/01/15 01:14:30.000   67.857356739   20.968493831   381.8788   6   8   0.1379   0.1032   0.2924  -0.0404  -0.0550   0.1135   0.00    0.0
2026/01/15 01:15:00.000   67.857357036   20.968493766   381.9592   6   8   0.1375   0.1028   0.2911  -0.0401  -0.0540   0.1130   0.00    0.0
2026/01/15 01:15:30.000   67.857357327   20.968493672   382.0394   6   8   0.1371   0.1024   0.2898  -0.0399  -0.0531   0.1126   0.00    0.0
2026/01/15 01:16:00.000   67.857357615   20.968493597   382.1229   6   8   0.1367   0.1021   0.2885  -0.0396  -0.0522   0.1121   0.00    0.0
2026/01/15 01:16:30.000   67.857357899   20.968493555   382.2026   6   8   0.1363   0.1017   0.2873  -0.0393  -0.0513   0.1117   0.00    0.0
2026/01/15 01:17:00.000   67.857358193   20.968493486   382.2847   6   8   0.1360   0.1013   0.2860  -0.0391  -0.0504   0.1112   0.00    0.0
2026/01/15 01:17:30.000   67.857358474   20.968493426   382.3657   6   8   0.1356   0.1010   0.2848  -0.0388  -0.0495   0.1108   0.00    0.0
2026/01/15 01:18:00.000   67.857358766   20.968493351   382.4465   6   8   0.1352   0.1006   0.2836  -0.0386  -0.0486   0.1103   0.00    0.0
2026/01/15 01:18:30.000   67.857359052   20.968493300   382.5256   6   8   0.1348   0.1003   0.2824  -0.0383  -0.0477   0.1099   0.00    0.0
2026/01/15 01:19:00.000   67.857359329   20.968493240   382.6031   6   8   0.1345   0.1000   0.2812  -0.0381  -0.0468   0.1095   0.00    0.0
2026/01/15 01:19:30.000   67.857359612   20.968493221   382.6816   6   8   0.1341   0.0996   0.2800  -0.0379  -0.0460   0.1090   0.00    0.0
2026/01/15 01:20:00.000   67.857359897   20.968493182   382.7598   6   8   0.1337   0.0993   0.2788  -0.0376  -0.0451   0.1086   0.00    0.0
2026/01/15 01:20:30.000   67.857360182   20.968493142   382.8376   6   8   0.1334   0.0989   0.2776  -0.0374  -0.0442   0.1082   0.00    0.0
2026/01/15 01:21:00.000   67.857360457   20.968493115   382.9119   6   8   0.1330   0.0986   0.2764  -0.0372  -0.0434   0.1077   0.00    0.0
2026/01/15 01:21:30.000   67.857360745   20.968493076   382.9871   6   8   0.1326   0.0983   0.2753  -0.0370  -0.0426   0.1073   0.00    0.0
2026/01/15 01:22:00.000   67.857361016   20.968493043   383.0611   6   8   0.1323   0.0980   0.2741  -0.0368  -0.0417   0.1069   0.00    0.0
2026/01/15 01:22:30.000   67.857361301   20.968493001   383.1354   6   8   0.1319   0.0977   0.2730  -0.0366  -0.0409   0.1065   0.00    0.0
2026/01/15 01:23:00.000   67.857361583   20.968492968   383.2080   6   8   0.1316   0.0974   0.2718  -0.0364  -0.0401   0.1060   0.00    0.0
2026/01/15 01:23:30.000   67.857361858   20.968492952   383.2801   6   8   0.1312   0.0971   0.2707  -0.0362  -0.0392   0.1056   0.00    0.0
2026/01/15 01:24:00.000   67.857362124   20.968492915   383.3523   6   8   0.1309   0.0967   0.2696  -0.0360  -0.0384   0.1052   0.00    0.0
2026/01/15 01:24:30.000   67.857362388   20.968492877   383.4245   6   8   0.1305   0.0964   0.2685  -0.0358  -0.0376   0.1048   0.00    0.0
2026/01/15 01:25:00.000   67.857362639   20.968492814   383.5013   6   7   0.1302   0.0962   0.2674  -0.0356  -0.0369   0.1043   0.00    0.0
2026/01/15 01:25:30.000   67.857362880   20.968492806   383.5745   6   7   0.1299   0.0959   0.2664  -0.0354  -0.0361   0.1039   0.00    0.0
2026/01/15 01:26:00.000   67.857363131   20.968492770   383.6498   6   7   0.1296   0.0956   0.2653  -0.0352  -0.0354   0.1034   0.00    0.0
2026/01/15 01:26:30.000   67.857363371   20.968492751   383.7224   6   7   0.1293   0.0953   0.2643  -0.0350  -0.0347   0.1030   0.00    0.0
2026/01/15 01:27:00.000   67.857363616   20.968492731   383.7957   6   7   0.1289   0.0950   0.2633  -0.0348  -0.0339   0.1025   0.00    0.0
2026/01/15 01:27:30.000   67.857363843   20.968492706   383.8658   6   7   0.1286   0.0947   0.2623  -0.0346  -0.0332   0.1021   0.00    0.0
2026/01/15 01:28:00.000   67.857364079   20.968492659   383.9363   6   7   0.1283   0.0945   0.2613  -0.0344  -0.0325   0.1016   0.00    0.0
2026/01/15 01:28:30.000   67.857364306   20.968492638   384.0055   6   7   0.1280   0.0942   0.2603  -0.0342  -0.0318   0.1012   0.00    0.0
2026/01/15 01:29:00.000   67.857364538   20.968492600   384.0761   6   7   0.1277   0.0939   0.2593  -0.0341  -0.0311   0.1007   0.00    0.0
2026/01/15 01:29:30.000   67.857364769   20.968492563   384.1446   6   7   0.1274   0.0936   0.2583  -0.0339  -0.0304   0.1003   0.00    0.0
2026/01/15 01:30:00.000   67.857364990   20.968492536   384.2128   6   7   0.1271   0.0934   0.2573  -0.0337  -0.0297   0.0999   0.00    0.0
2026/01/15 01:30:30.000   67.857365213   20.968492504   384.2798   6   7   0.1268   0.0931   0.2564  -0.0336  -0.0290   0.0994   0.00    0.0
2026/01/15 01:31:00.000   67.857365425   20.968492535   384.3420   6   7   0.1264   0.0929   0.2554  -0.0334  -0.0283   0.0990   0.00    0.0
2026/01/15 01:31:30.000   67.857365646   20.968492524   384.4051   6   7   0.1261   0.0926   0.2545  -0.0333  -0.0276   0.0986   0.00    0.0
2026/01/15 01:32:00.000   67.857365873   20.968492495   384.4715   6   7   0.1258   0.0924   0.2535  -0.0331  -0.0269   0.0982   0.00    0.0
2026/01/15 01:32:30.000   67.857366091   20.968492489   384.5349   6   7   0.1255   0.0921   0.2526  -0.0330  -0.0262   0.0977   0.00    0.0
2026/01/15 01:33:00.000   67.857366306   20.968492481   384.5964   6   7   0.1252   0.0919   0.2517  -0.0329  -0.0256   0.0973   0.00    0.0
2026/01/15 01:33:30.000   67.857366524   20.968492450   384.6586   6   7   0.1249   0.0916   0.2507  -0.0327  -0.0249   0.0969   0.00    0.0
2026/01/15 01:34:00.000   67.857366738   20.968492441   384.7199   6   7   0.1246   0.0914   0.2498  -0.0326  -0.0242   0.0965   0.00    0.0
2026/01/15 01:34:30.000   67.857366946   20.968492450   384.7809   6   7   0.1244   0.0911   0.2489  -0.0325  -0.0236   0.0961   0.00    0.0
2026/01/15 01:35:00.000   67.857367146   20.968492425   384.8413   6   7   0.1241   0.0909   0.2480  -0.0324  -0.0229   0.0957   0.00    0.0
2026/01/15 01:35:30.000   67.857367338   20.968492444   384.8997   6   7   0.1238   0.0906   0.2471  -0.0323  -0.0222   0.0953   0.00    0.0
2026/01/15 01:36:00.000   67.857367536   20.968492430   384.9597   6   7   0.1235   0.0904   0.2462  -0.0322  -0.0216   0.0949   0.00    0.0
2026/01/15 01:36:30.000   67.857367738   20.968492407   385.0191   6   7   0.1232   0.0902   0.2453  -0.0321  -0.0210   0.0945   0.00    0.0
2026/01/15 01:37:00.000   67.857367936   20.968492377   385.0773   6   7   0.1229   0.0899   0.2444  -0.0320  -0.0203   0.0941   0.00    0.0
2026/01/15 01:37:30.000   67.857368131   20.968492344   385.1339   6   7   0.1226   0.0897   0.2436  -0.0319  -0.0197   0.0937   0.00    0.0
2026/01/15 01:38:00.000   67.857368324   20.968492339   385.1922   6   7   0.1223   0.0895   0.2427  -0.0318  -0.0190   0.0933   0.00    0.0
2026/01/15 01:38:30.000   67.857368508   20.968492313   385.2487   6   7   0.1220   0.0893   0.2418  -0.0317  -0.0184   0.0929   0.00    0.0
2026/01/15 01:39:00.000   67.857368685   20.968492296   385.3060   6   7   0.1218   0.0890   0.2410  -0.0316  -0.0178   0.0926   0.00    0.0
2026/01/15 01:39:30.000   67.857368864   20.968492258   385.3601   6   7   0.1215   0.0888   0.2401  -0.0315  -0.0171   0.0922   0.00    0.0
2026/01/15 01:40:00.000   67.857369056   20.968492241   385.4136   6   7   0.1212   0.0886   0.2393  -0.0315  -0.0165   0.0918   0.00    0.0
2026/01/15 01:40:30.000   67.857369239   20.968492197   385.4669   6   7   0.1209   0.0884   0.2385  -0.0314  -0.0159   0.0914   0.00    0.0
2026/01/15 01:41:00.000   67.857369417   20.968492184   385.5175   6   7   0.1207   0.0882   0.2376  -0.0313  -0.0152   0.0910   0.00    0.0
2026/01/15 01:41:30.000   67.857369586   20.968492173   385.5708   6   7   0.1204   0.0879   0.2368  -0.0313  -0.0146   0.0907   0.00    0.0
2026/01/15 01:42:00.000   67.857369754   20.968492145   385.6221   6   7   0.1201   0.0877   0.2360  -0.0312  -0.0140   0.0903   0.00    0.0
2026/01/15 01:42:30.000   67.857369915   20.968492116   385.6717   6   7   0.1198   0.0875   0.2352  -0.0311  -0.0133   0.0899   0.00    0.0
2026/01/15 01:43:00.000   67.857370078   20.968492088   385.7226   6   7   0.1196   0.0873   0.2344  -0.0311  -0.0127   0.0896   0.00    0.0
2026/01/15 01:43:30.000   67.857370240   20.968492077   385.7721   6   7   0.1193   0.0871   0.2336  -0.0310  -0.0121   0.0892   0.00    0.0
2026/01/15 01:44:00.000   67.857370389   20.968492058   385.8210   6   7   0.1190   0.0869   0.2328  -0.0310  -0.0114   0.0889   0.00    0.0
2026/01/15 01:44:30.000   67.857370550   20.968492034   385.8704   6   7   0.1188   0.0867   0.2320  -0.0309  -0.0108   0.0885   0.00    0.0
2026/01/15 01:45:00.000   67.857370709   20.968492028   385.9181   6   7   0.1185   0.0865   0.2312  -0.0309  -0.0101   0.0882   0.00    0.0
2026/01/15 01:45:30.000   67.857370870   20.968492012   385.9665   6   7   0.1182   0.0863   0.2304  -0.0308  -0.0094   0.0878   0.00    0.0
2026/01/15 01:46:00.000   67.857371023   20.968492002   386.0153   6   7   0.1180   0.0861   0.2296  -0.0308  -0.0087   0.0875   0.00    0.0
2026/01/15 01:46:30.000   67.857371172   20.968491973   386.0609   6   7   0.1177   0.0859   0.2289  -0.0308  -0.0080   0.0871   0.00    0.0
2026/01/15 01:47:00.000   67.857371323   20.968491949   386.1056   6   7   0.1175   0.0857   0.2281  -0.0307  -0.0073   0.0868   0.00    0.0
2026/01/15 01:47:30.000   67.857371471   20.968491932   386.1490   6   7   0.1172   0.0855   0.2274  -0.0307  -0.0065   0.0864   0.00    0.0
2026/01/15 01:48:00.000   67.857371609   20.968491919   386.1931   6   7   0.1169   0.0853   0.2266  -0.0307  -0.0057   0.0861   0.00    0.0
2026/01/15 01:48:30.000   67.857371751   20.968491894   386.2346   6   7   0.1167   0.0851   0.2259  -0.0307  -0.0048   0.0857   0.00    0.0
2026/01/15 01:49:00.000   67.857371890   20.968491887   386.2767   6   7   0.1164   0.0849   0.2251  -0.0306  -0.0037   0.0854   0.00    0.0
2026/01/15 01:49:30.000   67.857372046   20.968491872   386.3155   6   8   0.1162   0.0848   0.2244  -0.0306  -0.0025   0.0851   0.00    0.0
2026/01/15 01:50:00.000   67.857372206   20.968491850   386.3543   6   8   0.1159   0.0846   0.2236  -0.0306   0.0008   0.0848   0.00    0.0
2026/01/15 01:50:30.000   67.857372359   20.968491850   386.3918   6   8   0.1156   0.0844   0.2228  -0.0306   0.0027   0.0846   0.00    0.0
2026/01/15 01:51:00.000   67.857372514   20.968491822   386.4295   6   8   0.1153   0.0842   0.2221  -0.0305   0.0036   0.0843   0.00    0.0
2026/01/15 01:51:30.000   67.857372665   20.968491791   386.4671   6   8   0.1151   0.0840   0.2214  -0.0305   0.0043   0.0840   0.00    0.0
2026/01/15 01:52:00.000   67.857372823   20.968491741   386.5028   6   8   0.1148   0.0838   0.2206  -0.0305   0.0049   0.0837   0.00    0.0
2026/01/15 01:52:30.000   67.857372977   20.968491715   386.5396   6   8   0.1145   0.0837   0.2199  -0.0305   0.0053   0.0835   0.00    0.0
2026/01/15 01:53:00.000   67.857373123   20.968491682   386.5747   6   8   0.1143   0.0835   0.2192  -0.0304   0.0057   0.0832   0.00    0.0
2026/01/15 01:53:30.000   67.857373264   20.968491641   386.6092   6   8   0.1140   0.0833   0.2185  -0.0304   0.0060   0.0829   0.00    0.0
2026/01/15 01:54:00.000   67.857373409   20.968491603   386.6436   6   8   0.1137   0.0831   0.2177  -0.0304   0.0063   0.0826   0.00    0.0
2026/01/15 01:54:30.000   67.857373544   20.968491545   386.6764   6   8   0.1135   0.0829   0.2170  -0.0304   0.0065   0.0824   0.00    0.0
2026/01/15 01:55:00.000   67.857373688   20.968491503   386.7099   6   8   0.1132   0.0828   0.2163  -0.0304   0.0067   0.0821   0.00    0.0
2026/01/15 01:55:30.000   67.857373828   20.968491434   386.7418   6   8   0.1130   0.0826   0.2156  -0.0304   0.0068   0.0818   0.00    0.0
2026/01/15 01:56:00.000   67.857373962   20.968491371   386.7737   6   8   0.1127   0.0824   0.2149  -0.0304   0.0069   0.0816   0.00    0.0
2026/01/15 01:56:30.000   67.857374093   20.968491315   386.8062   6   8   0.1125   0.0822   0.2142  -0.0304   0.0070   0.0813   0.00    0.0
2026/01/15 01:57:00.000   67.857374226   20.968491262   386.8368   6   8   0.1122   0.0821   0.2136  -0.0304   0.0071   0.0811   0.00    0.0
2026/01/15 01:57:30.000   67.857374369   20.968491143   386.8586   6   9   0.1119   0.0819   0.2128  -0.0303   0.0067   0.0808   0.00    0.0
2026/01/15 01:58:00.000   67.857374511   20.968491023   386.8812   6   9   0.1117   0.0817   0.2121  -0.0303   0.0063   0.0806   0.00    0.0
2026/01/15 01:58:30.000   67.857374649   20.968490902   386.9039   6   9   0.1114   0.0815   0.2114  -0.0303   0.0057   0.0804   0.00    0.0
2026/01/15 01:59:00.000   67.857374779   20.968490773   386.9254   6   9   0.1112   0.0814   0.2107  -0.0303   0.0051   0.0801   0.00    0.0
2026/01/15 01:59:30.000   67.857374913   20.968490635   386.9454   6   9   0.1109   0.0812   0.2100  -0.0302   0.0044   0.0799   0.00    0.0
2026/01/15 02:00:00.000   67.857375038   20.968490501   386.9671   6   9   0.1107   0.0810   0.2093  -0.0302   0.0036   0.0797   0.00    0.0
2026/01/15 02:00:30.000   67.857375171   20.968490359   386.9866   6   9   0.1104   0.0808   0.2086  -0.0302   0.0024   0.0794   0.00    0.0
2026/01/15 02:01:00.000   67.857375290   20.968490213   387.0068   6   9   0.1102   0.0806   0.2080  -0.0302  -0.0012   0.0792   0.00    0.0
2026/01/15 02:01:30.000   67.857375417   20.968490076   387.0261   6   9   0.1099   0.0805   0.2073  -0.0302  -0.0030   0.0790   0.00    0.0
2026/01/15 02:02:00.000   67.857375538   20.968489931   387.0456   6   9   0.1097   0.0803   0.2066  -0.0302  -0.0041   0.0788   0.00    0.0
2026/01/15 02:02:30.000   67.857375651   20.968489823   387.0575   6  10   0.1095   0.0801   0.2059  -0.0301  -0.0044   0.0785   0.00    0.0
2026/01/15 02:03:00.000   67.857375755   20.968489715   387.0702   6  10   0.1092   0.0799   0.2052  -0.0301  -0.0047   0.0783   0.00    0.0
2026/01/15 02:03:30.000   67.857375861   20.968489604   387.0823   6  10   0.1090   0.0798   0.2045  -0.0301  -0.0050   0.0780   0.00    0.0
2026/01/15 02:04:00.000   67.857375961   20.968489490   387.0927   6  10   0.1087   0.0796   0.2038  -0.0300  -0.0054   0.0778   0.00    0.0
2026/01/15 02:04:30.000   67.857376069   20.968489373   387.1057   6  10   0.1085   0.0794   0.2031  -0.0300  -0.0057   0.0776   0.00    0.0
2026/01/15 02:05:00.000   67.857376174   20.968489251   387.1187   6  10   0.1083   0.0792   0.2024  -0.0300  -0.0060   0.0773   0.00    0.0
2026/01/15 02:05:30.000   67.857376281   20.968489136   387.1290   6  10   0.1080   0.0790   0.2017  -0.0299  -0.0063   0.0771   0.00    0.0
2026/01/15 02:06:00.000   67.857376384   20.968489014   387.1399   6  10   0.1078   0.0789   0.2011  -0.0299  -0.0066   0.0769   0.00    0.0
2026/01/15 02:06:30.000   67.857376486   20.968488871   387.1491   6  10   0.1075   0.0787   0.2004  -0.0299  -0.0070   0.0766   0.00    0.0
2026/01/15 02:07:00.000   67.857376583   20.968488741   387.1607   6  10   0.1073   0.0785   0.1998  -0.0299  -0.0073   0.0764   0.00    0.0
2026/01/15 02:07:30.000   67.857376680   20.968488610   387.1731   6  10   0.1071   0.0783   0.1991  -0.0298  -0.0076   0.0762   0.00    0.0
2026/01/15 02:08:00.000   67.857376773   20.968488467   387.1838   6  10   0.1069   0.0782   0.1985  -0.0298  -0.0079   0.0760   0.00    0.0
2026/01/15 02:08:30.000   67.857376809   20.968488323   387.1828   6  11   0.1066   0.0780   0.1977  -0.0298  -0.0082   0.0757   0.00    0.0
2026/01/15 02:09:00.000   67.857376843   20.968488198   387.1808   6  11   0.1063   0.0778   0.1970  -0.0298  -0.0086   0.0753   0.00    0.0
2026/01/15 02:09:30.000   67.857376874   20.968488046   387.1765   6  11   0.1061   0.0777   0.1963  -0.0297  -0.0089   0.0750   0.00    0.0
2026/01/15 02:10:00.000   67.857376905   20.968487902   387.1748   6  11   0.1058   0.0775   0.1957  -0.0297  -0.0092   0.0747   0.00    0.0
2026/01/15 02:10:30.000   67.857376928   20.968487749   387.1694   6  11   0.1056   0.0773   0.1950  -0.0297  -0.0096   0.0744   0.00    0.0
2026/01/15 02:11:00.000   67.857376949   20.968487605   387.1657   6  11   0.1053   0.0771   0.1943  -0.0297  -0.0099   0.0741   0.00    0.0
2026/01/15 02:11:30.000   67.857376979   20.968487454   387.1641   6  11   0.1051   0.0770   0.1936  -0.0297  -0.0102   0.0738   0.00    0.0
2026/01/15 02:12:00.000   67.857376992   20.968487290   387.1522   6  10   0.1048   0.0768   0.1931  -0.0297  -0.0108   0.0737   0.00    0.0
2026/01/15 02:12:30.000   67.857377003   20.968487135   387.1420   6  10   0.1046   0.0767   0.1926  -0.0297  -0.0113   0.0735   0.00    0.0
2026/01/15 02:13:00.000   67.857377004   20.968486967   387.1322   6  10   0.1044   0.0765   0.1921  -0.0297  -0.0119   0.0734   0.00    0.0
2026/01/15 02:13:30.000   67.857377009   20.968486818   387.1222   6  10   0.1042   0.0763   0.1916  -0.0298  -0.0123   0.0732   0.00    0.0
2026/01/15 02:14:00.000   67.857377008   20.968486665   387.1117   6  10   0.1040   0.0762   0.1911  -0.0298  -0.0128   0.0731   0.00    0.0
2026/01/15 02:14:30.000   67.857377005   20.968486500   387.0999   6  10   0.1038   0.0760   0.1906  -0.0298  -0.0133   0.0729   0.00    0.0
2026/01/15 02:15:00.000   67.857377008   20.968486358   387.0894   6  10   0.1036   0.0759   0.1901  -0.0298  -0.0137   0.0728   0.00    0.0
2026/01/15 02:15:30.000   67.857377003   20.968486214   387.0800   6  10   0.1034   0.0757   0.1896  -0.0298  -0.0141   0.0726   0.00    0.0
2026/01/15 02:16:00.000   67.857376994   20.968486072   387.0703   6  10   0.1031   0.0755   0.1891  -0.0298  -0.0145   0.0724   0.00    0.0
2026/01/15 02:16:30.000   67.857376992   20.968485904   387.0599   6  10   0.1029   0.0754   0.1886  -0.0299  -0.0149   0.0723   0.00    0.0
2026/01/15 02:17:00.000   67.857376998   20.968485735   387.0493   6  10   0.1027   0.0752   0.1881  -0.0299  -0.0153   0.0721   0.00    0.0
2026/01/15 02:17:30.000   67.857377004   20.968485581   387.0408   6  10   0.1025   0.0751   0.1876  -0.0299  -0.0156   0.0719   0.00    0.0
2026/01/15 02:18:00.000   67.857377004   20.968485420   387.0330   6  10   0.1023   0.0749   0.1872  -0.0299  -0.0159   0.0718   0.00    0.0
2026/01/15 02:18:30.000   67.857377001   20.968485255   387.0235   6  10   0.1021   0.0748   0.1867  -0.0299  -0.0163   0.0716   0.00    0.0
2026/01/15 02:19:00.000   67.857376995   20.968485096   387.0131   6  10   0.1019   0.0746   0.1862  -0.0299  -0.0166   0.0714   0.00    0.0
2026/01/15 02:19:30.000   67.857376987   20.968484923   387.0028   6  10   0.1017   0.0745   0.1857  -0.0299  -0.0169   0.0713   0.00    0.0
2026/01/15 02:20:00.000   67.857376983   20.968484748   386.9929   6  10   0.1015   0.0743   0.1852  -0.0299  -0.0172   0.0711   0.00    0.0
2026/01/15 02:20:30.000   67.857376968   20.968484578   386.9825   6  10   0.1013   0.0742   0.1848  -0.0299  -0.0175   0.0709   0.00    0.0
2026/01/15 02:21:00.000   67.857376951   20.968484394   386.9715   6  10   0.1011   0.0740   0.1843  -0.0299  -0.0178   0.0708   0.00    0.0
2026/01/15 02:21:30.000   67.857376934   20.968484207   386.9618   6  10   0.1008   0.0738   0.1838  -0.0299  -0.0181   0.0706   0.00    0.0
2026/01/15 02:22:00.000   67.857376928   20.968484023   386.9533   6  10   0.1006   0.0737   0.1834  -0.0299  -0.0183   0.0704   0.00    0.0
2026/01/15 02:22:30.000   67.857376913   20.968483843   386.9439   6  10   0.1004   0.0735   0.1829  -0.0299  -0.0186   0.0702   0.00    0.0
2026/01/15 02:23:00.000   67.857376892   20.968483668   386.9336   6  10   0.1002   0.0734   0.1824  -0.0299  -0.0189   0.0701   0.00    0.0
2026/01/15 02:23:30.000   67.857376873   20.968483483   386.9244   6  10   0.1000   0.0732   0.1820  -0.0299  -0.0191   0.0699   0.00    0.0
2026/01/15 02:24:00.000   67.857376851   20.968483299   386.9163   6  10   0.0998   0.0731   0.1815  -0.0299  -0.0193   0.0697   0.00    0.0
2026/01/15 02:24:30.000   67.857376829   20.968483122   386.9091   6  10   0.0996   0.0729   0.1811  -0.0299  -0.0196   0.0695   0.00    0.0
2026/01/15 02:25:00.000   67.857376810   20.968482933   386.9017   6  10   0.0994   0.0728   0.1806  -0.0299  -0.0198   0.0694   0.00    0.0
2026/01/15 02:25:30.000   67.857376791   20.968482750   386.8939   6  10   0.0992   0.0727   0.1802  -0.0299  -0.0200   0.0692   0.00    0.0
2026/01/15 02:26:00.000   67.857376777   20.968482571   386.8864   6  10   0.0990   0.0725   0.1797  -0.0299  -0.0203   0.0690   0.00    0.0
2026/01/15 02:26:30.000   67.857376762   20.968482379   386.8786   6  10   0.0988   0.0724   0.1793  -0.0299  -0.0205   0.0689   0.00    0.0
2026/01/15 02:27:00.000   67.857376734   20.968482179   386.8742   6   9   0.0986   0.0722   0.1789  -0.0299  -0.0207   0.0687   0.00    0.0
2026/01/15 02:27:30.000   67.857376709   20.968481979   386.8695   6   9   0.0984   0.0721   0.1784  -0.0299  -0.0209   0.0685   0.00    0.0
2026/01/15 02:28:00.000   67.857376678   20.968481773   386.8644   6   9   0.0982   0.0719   0.1780  -0.0298  -0.0212   0.0683   0.00    0.0
2026/01/15 02:28:30.000   67.857376645   20.968481567   386.8597   6   9   0.0981   0.0718   0.1776  -0.0298  -0.0214   0.0681   0.00    0.0
2026/01/15 02:29:00.000   67.857376619   20.968481375   386.8551   6   9   0.0979   0.0716   0.1772  -0.0298  -0.0216   0.0679   0.00    0.0
2026/01/15 02:29:30.000   67.857376586   20.968481174   386.8512   6   9   0.0977   0.0715   0.1768  -0.0298  -0.0218   0.0677   0.00    0.0
2026/01/15 02:30:00.000   67.857376553   20.968480972   386.8480   6   9   0.0975   0.0714   0.1764  -0.0298  -0.0220   0.0675   0.00    0.0
2026/01/15 02:30:30.000   67.857376524   20.968480765   386.8432   6   9   0.0973   0.0712   0.1760  -0.0297  -0.0222   0.0673   0.00    0.0
2026/01/15 02:31:00.000   67.857376493   20.968480559   386.8401   6   9   0.0971   0.0711   0.1756  -0.0297  -0.0224   0.0671   0.00    0.0
2026/01/15 02:31:30.000   67.857376468   20.968480361   386.8370   6   9   0.0969   0.0709   0.1752  -0.0297  -0.0225   0.0670   0.00    0.0
2026/01/15 02:32:00.000   67.857376438   20.968480154   386.8339   6   9   0.0967   0.0708   0.1748  -0.0297  -0.0227   0.0668   0.00    0.0
2026/01/15 02:32:30.000   67.857376402   20.968479950   386.8303   6   9   0.0965   0.0706   0.1744  -0.0297  -0.0229   0.0666   0.00    0.0
2026/01/15 02:33:00.000   67.857376369   20.968479746   386.8276   6   9   0.0963   0.0705   0.1740  -0.0296  -0.0231   0.0664   0.00    0.0
2026/01/15 02:33:30.000   67.857376336   20.968479547   386.8254   6   9   0.0962   0.0704   0.1736  -0.0296  -0.0232   0.0662   0.00    0.0
2026/01/15 02:34:00.000   67.857376305   20.968479356   386.8244   6   9   0.0960   0.0702   0.1733  -0.0296  -0.0234   0.0660   0.00    0.0
2026/01/15 02:34:30.000   67.857376267   20.968479147   386.8222   6   9   0.0958   0.0701   0.1729  -0.0296  -0.0236   0.0659   0.00    0.0
2026/01/15 02:35:00.000   67.857376233   20.968478933   386.8205   6   9   0.0956   0.0699   0.1725  -0.0295  -0.0237   0.0657   0.00    0.0
2026/01/15 02:35:30.000   67.857376200   20.968478723   386.8189   6   9   0.0954   0.0698   0.1721  -0.0295  -0.0239   0.0655   0.00    0.0
2026/01/15 02:36:00.000   67.857376167   20.968478523   386.8170   6   9   0.0952   0.0697   0.1717  -0.0295  -0.0240   0.0653   0.00    0.0
2026/01/15 02:36:30.000   67.857376130   20.968478306   386.8156   6   9   0.0951   0.0695   0.1714  -0.0295  -0.0241   0.0651   0.00    0.0
2026/01/15 02:37:00.000   67.857376096   20.968478099   386.8136   6   9   0.0949   0.0694   0.1710  -0.0294  -0.0243   0.0650   0.00    0.0
2026/01/15 02:37:30.000   67.857376063   20.968477897   386.8125   6   9   0.0947   0.0693   0.1706  -0.0294  -0.0244   0.0648   0.00    0.0
2026/01/15 02:38:00.000   67.857376031   20.968477691   386.8122   6   9   0.0945   0.0691   0.1703  -0.0294  -0.0245   0.0646   0.00    0.0
2026/01/15 02:38:30.000   67.857375997   20.968477483   386.8118   6   9   0.0943   0.0690   0.1699  -0.0294  -0.0247   0.0644   0.00    0.0
2026/01/15 02:39:00.000   67.857375963   20.968477288   386.8118   6   9   0.0942   0.0689   0.1696  -0.0293  -0.0248   0.0643   0.00    0.0
2026/01/15 02:39:30.000   67.857375929   20.968477092   386.8118   6   9   0.0940   0.0687   0.1692  -0.0293  -0.0249   0.0641   0.00    0.0
2026/01/15 02:40:00.000   67.857375894   20.968476890   386.8119   6   9   0.0938   0.0686   0.1689  -0.0293  -0.0250   0.0639   0.00    0.0
2026/01/15 02:40:30.000   67.857375867   20.968476680   386.8121   6   9   0.0936   0.0685   0.1685  -0.0292  -0.0251   0.0638   0.00    0.0
2026/01/15 02:41:00.000   67.857375837   20.968476478   386.8124   6   9   0.0934   0.0683   0.1682  -0.0292  -0.0253   0.0636   0.00    0.0
2026/01/15 02:41:30.000   67.857375804   20.968476264   386.8123   6   9   0.0933   0.0682   0.1678  -0.0292  -0.0254   0.0634   0.00    0.0
2026/01/15 02:42:00.000   67.857375774   20.968476050   386.8124   6   9   0.0931   0.0681   0.1675  -0.0291  -0.0255   0.0633   0.00    0.0
2026/01/15 02:42:30.000   67.857375739   20.968475839   386.8126   6   9   0.0929   0.0679   0.1672  -0.0291  -0.0256   0.0631   0.00    0.0
2026/01/15 02:43:00.000   67.857375707   20.968475616   386.8132   6   9   0.0928   0.0678   0.1668  -0.0291  -0.0257   0.0629   0.00    0.0
2026/01/15 02:43:30.000   67.857375675   20.968475414   386.8141   6   9   0.0926   0.0677   0.1665  -0.0290  -0.0258   0.0628   0.00    0.0
2026/01/15 02:44:00.000   67.857375641   20.968475211   386.8157   6   9   0.0924   0.0675   0.1662  -0.0290  -0.0258   0.0626   0.00    0.0
2026/01/15 02:44:30.000   67.857375607   20.968474995   386.8168   6   9   0.0922   0.0674   0.1659  -0.0290  -0.0259   0.0625   0.00    0.0
2026/01/15 02:45:00.000   67.857375574   20.968474788   386.8176   6   9   0.0921   0.0673   0.1655  -0.0289  -0.0260   0.0623   0.00    0.0
2026/01/15 02:45:30.000   67.857375543   20.968474579   386.8200   6   9   0.0919   0.0671   0.1652  -0.0289  -0.0261   0.0621   0.00    0.0
2026/01/15 02:46:00.000   67.857375516   20.968474366   386.8224   6   9   0.0917   0.0670   0.1649  -0.0289  -0.0262   0.0620   0.00    0.0
2026/01/15 02:46:30.000   67.857375488   20.968474153   386.8259   6   9   0.0916   0.0669   0.1646  -0.0288  -0.0263   0.0618   0.00    0.0
2026/01/15 02:47:00.000   67.857375463   20.968473946   386.8283   6   9   0.0914   0.0667   0.1643  -0.0288  -0.0263   0.0617   0.00    0.0
2026/01/15 02:47:30.000   67.857375433   20.968473743   386.8302   6   9   0.0912   0.0666   0.1640  -0.0288  -0.0264   0.0615   0.00    0.0
2026/01/15 02:48:00.000   67.857375402   20.968473527   386.8328   6   9   0.0911   0.0665   0.1637  -0.0287  -0.0265   0.0614   0.00    0.0
2026/01/15 02:48:30.000   67.857375368   20.968473310   386.8353   6   9   0.0909   0.0664   0.1634  -0.0287  -0.0265   0.0612   0.00    0.0
2026/01/15 02:49:00.000   67.857375345   20.968473087   386.8380   6   9   0.0907   0.0662   0.1631  -0.0287  -0.0266   0.0611   0.00    0.0
2026/01/15 02:49:30.000   67.857375316   20.968472868   386.8416   6   9   0.0906   0.0661   0.1628  -0.0286  -0.0267   0.0609   0.00    0.0
2026/01/15 02:50:00.000   67.857375288   20.968472644   386.8441   6   9   0.0904   0.0660   0.1625  -0.0286  -0.0267   0.0608   0.00    0.0
2026/01/15 02:50:30.000   67.857375254   20.968472432   386.8474   6   9   0.0902   0.0659   0.1622  -0.0286  -0.0268   0.0606   0.00    0.0
2026/01/15 02:51:00.000   67.857375220   20.968472217   386.8517   6   9   0.0901   0.0657   0.1619  -0.0285  -0.0268   0.0605   0.00    0.0
2026/01/15 02:51:30.000   67.857375192   20.968471998   386.8549   6   9   0.0899   0.0656   0.1616  -0.0285  -0.0269   0.0603   0.00    0.0
2026/01/15 02:52:00.000   67.857375162   20.968471780   386.8583   6   9   0.0898   0.0655   0.1613  -0.0284  -0.0270   0.0602   0.00    0.0
2026/01/15 02:52:30.000   67.857375133   20.968471569   386.8629   6   9   0.0896   0.0654   0.1611  -0.0284  -0.0270   0.0601   0.00    0.0
2026/01/15 02:53:00.000   67.857375106   20.968471356   386.8675   6   9   0.0894   0.0652   0.1608  -0.0284  -0.0270   0.0599   0.00    0.0
2026/01/15 02:53:30.000   67.857375086   20.968471140   386.8721   6   9   0.0893   0.0651   0.1605  -0.0283  -0.0271   0.0598   0.00    0.0
2026/01/15 02:54:00.000   67.857375065   20.968470921   386.8775   6   9   0.0891   0.0650   0.1602  -0.0283  -0.0271   0.0596   0.00    0.0
2026/01/15 02:54:30.000   67.857375044   20.968470711   386.8820   6   9   0.0890   0.0649   0.1600  -0.0283  -0.0272   0.0595   0.00    0.0
2026/01/15 02:55:00.000   67.857375021   20.968470496   386.8867   6   9   0.0888   0.0648   0.1597  -0.0282  -0.0272   0.0594   0.00    0.0
2026/01/15 02:55:30.000   67.857375001   20.968470279   386.8924   6   9   0.0887   0.0646   0.1594  -0.0282  -0.0272   0.0592   0.00    0.0
2026/01/15 02:56:00.000   67.857374985   20.968470069   386.8978   6   9   0.0885   0.0645   0.1592  -0.0281  -0.0273   0.0591   0.00    0.0
2026/01/15 02:56:30.000   67.857374967   20.968469854   386.9035   6   9   0.0884   0.0644   0.1589  -0.0281  -0.0273   0.0590   0.00    0.0
2026/01/15 02:57:00.000   67.857374948   20.968469639   386.9097   6   9   0.0882   0.0643   0.1586  -0.0281  -0.0273   0.0588   0.00    0.0
2026/01/15 02:57:30.000   67.857374924   20.968469423   386.9158   6   9   0.0881   0.0642   0.1584  -0.0280  -0.0273   0.0587   0.00    0.0
2026/01/15 02:58:00.000   67.857374901   20.968469212   386.9215   6   9   0.0879   0.0640   0.1581  -0.0280  -0.0274   0.0586   0.00    0.0
2026/01/15 02:58:30.000   67.857374892   20.968468979   386.9262   6  10   0.0878   0.0639   0.1579  -0.0279  -0.0274   0.0585   0.00    0.0
2026/01/15 02:59:00.000   67.857374880   20.968468751   386.9314   6  10   0.0876   0.0638   0.1576  -0.0279  -0.0275   0.0584   0.00    0.0
2026/01/15 02:59:30.000   67.857374879   20.968468513   386.9364   6  10   0.0875   0.0637   0.1573  -0.0278  -0.0275   0.0582   0.00    0.0
2026/01/15 03:00:00.000   67.857374873   20.968468279   386.9423   6  10   0.0873   0.0635   0.1571  -0.0278  -0.0275   0.0581   0.00    0.0
2026/01/15 03:00:30.000   67.857374873   20.968468040   386.9485   6  10   0.0872   0.0634   0.1568  -0.0277  -0.0276   0.0580   0.00    0.0
2026/01/15 03:01:00.000   67.857374867   20.968467793   386.9537   6  10   0.0870   0.0633   0.1566  -0.0277  -0.0276   0.0579   0.00    0.0
2026/01/15 03:01:30.000   67.857374861   20.968467549   386.9592   6  10   0.0869   0.0632   0.1563  -0.0276  -0.0277   0.0578   0.00    0.0
2026/01/15 03:02:00.000   67.857374860   20.968467310   386.9646   6  10   0.0867   0.0631   0.1561  -0.0275  -0.0277   0.0577   0.00    0.0
2026/01/15 03:02:30.000   67.857374860   20.968467073   386.9707   6  10   0.0866   0.0629   0.1558  -0.0275  -0.0277   0.0576   0.00    0.0
2026/01/15 03:03:00.000   67.857374861   20.968466838   386.9767   6  10   0.0864   0.0628   0.1556  -0.0274  -0.0277   0.0575   0.00    0.0
2026/01/15 03:03:30.000   67.857374859   20.968466612   386.9833   6  10   0.0863   0.0627   0.1553  -0.0274  -0.0278   0.0574   0.00    0.0
2026/01/15 03:04:00.000   67.857374855   20.968466379   386.9903   6  10   0.0861   0.0626   0.1551  -0.0273  -0.0278   0.0573   0.00    0.0
2026/01/15 03:04:30.000   67.857374852   20.968466159   386.9979   6  10   0.0860   0.0625   0.1549  -0.0273  -0.0278   0.0572   0.00    0.0
2026/01/15 03:05:00.000   67.857374851   20.968465925   387.0056   6  10   0.0858   0.0623   0.1546  -0.0272  -0.0278   0.0571   0.00    0.0
2026/01/15 03:05:30.000   67.857374856   20.968465684   387.0136   6  10   0.0857   0.0622   0.1544  -0.0271  -0.0278   0.0570   0.00    0.0
2026/01/15 03:06:00.000   67.857374855   20.968465443   387.0217   6  10   0.0855   0.0621   0.1541  -0.0271  -0.0279   0.0569   0.00    0.0
2026/01/15 03:06:30.000   67.857374844   20.968465196   387.0268   6  11   0.0854   0.0620   0.1539  -0.0270  -0.0279   0.0567   0.00    0.0
2026/01/15 03:07:00.000   67.857374836   20.968464951   387.0319   6  11   0.0852   0.0619   0.1536  -0.0270  -0.0279   0.0566   0.00    0.0
2026/01/15 03:07:30.000   67.857374828   20.968464720   387.0387   6  11   0.0851   0.0618   0.1534  -0.0269  -0.0279   0.0565   0.00    0.0
2026/01/15 03:08:00.000   67.857374821   20.968464492   387.0460   6  11   0.0849   0.0616   0.1531  -0.0269  -0.0279   0.0563   0.00    0.0
2026/01/15 03:08:30.000   67.857374819   20.968464262   387.0530   6  11   0.0848   0.0615   0.1529  -0.0268  -0.0280   0.0562   0.00    0.0
2026/01/15 03:09:00.000   67.857374812   20.968464031   387.0599   6  11   0.0846   0.0614   0.1526  -0.0268  -0.0280   0.0561   0.00    0.0
2026/01/15 03:09:30.000   67.857374808   20.968463802   387.0665   6  11   0.0845   0.0613   0.1524  -0.0267  -0.0280   0.0559   0.00    0.0
2026/01/15 03:10:00.000   67.857374801   20.968463568   387.0727   6  11   0.0843   0.0612   0.1522  -0.0267  -0.0280   0.0558   0.00    0.0
2026/01/15 03:10:30.000   67.857374778   20.968463346   387.0757   6  10   0.0842   0.0611   0.1520  -0.0266  -0.0280   0.0557   0.00    0.0
2026/01/15 03:11:00.000   67.857374763   20.968463117   387.0797   6  10   0.0841   0.0610   0.1518  -0.0265  -0.0280   0.0557   0.00    0.0
2026/01/15 03:11:30.000   67.857374744   20.968462901   387.0838   6  10   0.0839   0.0608   0.1516  -0.0265  -0.0279   0.0556   0.00    0.0
2026/01/15 03:12:00.000   67.857374728   20.968462688   387.0880   6  10   0.0838   0.0607   0.1514  -0.0264  -0.0279   0.0555   0.00    0.0
2026/01/15 03:12:30.000   67.857374717   20.968462467   387.0928   6  10   0.0837   0.0606   0.1512  -0.0263  -0.0279   0.0555   0.00    0.0
2026/01/15 03:13:00.000   67.857374700   20.968462259   387.0979   6  10   0.0835   0.0605   0.1510  -0.0263  -0.0279   0.0554   0.00    0.0
2026/01/15 03:13:30.000   67.857374687   20.968462043   387.1035   6  10   0.0834   0.0604   0.1508  -0.0262  -0.0279   0.0553   0.00    0.0
2026/01/15 03:14:00.000   67.857374673   20.968461823   387.1091   6  10   0.0833   0.0603   0.1506  -0.0262  -0.0278   0.0552   0.00    0.0
2026/01/15 03:14:30.000   67.857374658   20.968461609   387.1154   6  10   0.0831   0.0602   0.1504  -0.0261  -0.0278   0.0552   0.00    0.0
2026/01/15 03:15:00.000   67.857374646   20.968461388   387.1217   6  10   0.0830   0.0601   0.1502  -0.0260  -0.0278   0.0551   0.00    0.0
2026/01/15 03:15:30.000   67.857374636   20.968461175   387.1276   6  10   0.0829   0.0600   0.1500  -0.0260  -0.0278   0.0550   0.00    0.0
2026/01/15 03:16:00.000   67.857374624   20.968460959   387.1342   6  10   0.0828   0.0599   0.1499  -0.0259  -0.0277   0.0549   0.00    0.0
2026/01/15 03:16:30.000   67.857374615   20.968460749   387.1418   6  10   0.0826   0.0597   0.1497  -0.0258  -0.0277   0.0549   0.00    0.0
2026/01/15 03:17:00.000   67.857374607   20.968460534   387.1493   6  10   0.0825   0.0596   0.1495  -0.0258  -0.0277   0.0548   0.00    0.0
2026/01/15 03:17:30.000   67.857374605   20.968460313   387.1560   6  10   0.0824   0.0595   0.1493  -0.0257  -0.0276   0.0547   0.00    0.0
2026/01/15 03:18:00.000   67.857374600   20.968460107   387.1638   6  10   0.0822   0.0594   0.1491  -0.0256  -0.0276   0.0546   0.00    0.0
2026/01/15 03:18:30.000   67.857374594   20.968459904   387.1712   6  10   0.0821   0.0593   0.1489  -0.0256  -0.0276   0.0546   0.00    0.0
2026/01/15 03:19:00.000   67.857374592   20.968459707   387.1796   6  10   0.0820   0.0592   0.1487  -0.0255  -0.0275   0.0545   0.00    0.0
2026/01/15 03:19:30.000   67.857374586   20.968459502   387.1880   6  10   0.0819   0.0591   0.1485  -0.0254  -0.0275   0.0544   0.00    0.0
2026/01/15 03:20:00.000   67.857374584   20.968459301   387.1968   6  10   0.0817   0.0590   0.1484  -0.0254  -0.0274   0.0543   0.00    0.0
2026/01/15 03:20:30.000   67.857374589   20.968459095   387.2058   6  10   0.0816   0.0589   0.1482  -0.0253  -0.0274   0.0542   0.00    0.0
2026/01/15 03:21:00.000   67.857374590   20.968458893   387.2151   6  10   0.0815   0.0588   0.1480  -0.0253  -0.0274   0.0542   0.00    0.0
2026/01/15 03:21:30.000   67.857374594   20.968458688   387.2245   6  10   0.0813   0.0587   0.1478  -0.0252  -0.0273   0.0541   0.00    0.0
2026/01/15 03:22:00.000   67.857374595   20.968458478   387.2342   6  10   0.0812   0.0586   0.1476  -0.0251  -0.0273   0.0540   0.00    0.0
2026/01/15 03:22:30.000   67.857374604   20.968458268   387.2439   6  10   0.0811   0.0585   0.1474  -0.0251  -0.0272   0.0539   0.00    0.0
2026/01/15 03:23:00.000   67.857374607   20.968458055   387.2544   6  10   0.0810   0.0584   0.1472  -0.0250  -0.0272   0.0538   0.00    0.0
2026/01/15 03:23:30.000   67.857374613   20.968457845   387.2656   6  10   0.0808   0.0583   0.1471  -0.0249  -0.0271   0.0538   0.00    0.0
2026/01/15 03:24:00.000   67.857374622   20.968457635   387.2768   6  10   0.0807   0.0582   0.1469  -0.0249  -0.0271   0.0537   0.00    0.0
2026/01/15 03:24:30.000   67.857374627   20.968457443   387.2873   6  10   0.0806   0.0581   0.1467  -0.0248  -0.0270   0.0536   0.00    0.0
2026/01/15 03:25:00.000   67.857374635   20.968457242   387.2985   6  10   0.0805   0.0580   0.1465  -0.0247  -0.0269   0.0535   0.00    0.0
2026/01/15 03:25:30.000   67.857374644   20.968457049   387.3093   6  10   0.0803   0.0579   0.1463  -0.0247  -0.0269   0.0534   0.00    0.0
2026/01/15 03:26:00.000   67.857374651   20.968456852   387.3215   6  10   0.0802   0.0578   0.1461  -0.0246  -0.0268   0.0533   0.00    0.0
2026/01/15 03:26:30.000   67.857374657   20.968456664   387.3343   6  10   0.0801   0.0577   0.1459  -0.0245  -0.0268   0.0533   0.00    0.0
2026/01/15 03:27:00.000   67.857374664   20.968456481   387.3463   6  10   0.0800   0.0576   0.1458  -0.0245  -0.0267   0.0532   0.00    0.0
