% program   : RTKPOST ver.demo5 b34d
% inp file  : E:\Master courses\SNDP-PROJECT\Old_data\data\HKWS00HKG_R_20260150000_01D_30S_MO.rnx
% inp file  : E:\Master courses\SNDP-PROJECT\New_Data\nav\BRDC00IGS_R_20260150000_01D_MN.rnx
% inp file  : E:\Master courses\SNDP-PROJECT\New_Data\DATA_FINAL_ANT_EXTRA\COD0MGXFIN_20260150000_01D_05M_ORB.SP3
% inp file  : E:\Master courses\SNDP-PROJECT\New_Data\DATA_FINAL_ANT_EXTRA\COD0MGXFIN_20260150000_01D_30S_CLK.CLK
% obs start : 2026/01/15 00:00:00.0 GPST (week2401 345600.0s)
% obs end   : 2026/01/15 23:59:30.0 GPST (week2401 431970.0s)
% pos mode  : PPP Static
% solution  : Forward
% elev mask : 15.0 deg
% dynamics  : off
% tidecorr  : off
% tropo opt : Saastamoinen
% ephemeris : Precise
% navi sys  : GPS
% antenna1  : LEIAR25.R4      LEIT  ( 0.0000  0.0000  0.0083)
%
% (lat/lon/height=WGS84/ellipsoidal,Q=1:fix,2:float,3:sbas,4:dgps,5:single,6:ppp,ns=# of satellites)
%  GPST                  latitude(deg) longitude(deg)  height(m)   Q  ns   sdn(m)   sde(m)   sdu(m)  sdne(m)  sdeu(m)  sdun(m) age(s)  ratio
2026/01/15 00:00:00.000   22.434284954  114.335384662    66.1343   6   8   1.2229   1.4909   3.6789  -0.6697   1.0851  -0.9109   0.00    0.0
2026/01/15 00:00:30.000   22.434284161  114.335387036    66.5000   6   8   0.8652   1.0549   2.5989  -0.4737   0.7677  -0.6443   0.00    0.0
2026/01/15 00:01:00.000   22.434283362  114.335388681    66.5995   6   8   0.7067   0.8616   2.1174  -0.3867   0.6266  -0.5259   0.00    0.0
2026/01/15 00:01:30.000   22.434283014  114.335389706    66.5843   6   8   0.6122   0.7464   1.8290  -0.3349   0.5424  -0.4553   0.00    0.0
2026/01/15 00:02:00.000   22.434283094  114.335390354    66.3632   6   8   0.5478   0.6679   1.6312  -0.2995   0.4849  -0.4071   0.00    0.0
2026/01/15 00:02:30.000   22.434283171  114.335390537    66.1720   6   8   0.5003   0.6099   1.4845  -0.2734   0.4424  -0.3716   0.00    0.0
2026/01/15 00:03:00.000   22.434283255  114.335390187    66.0441   6   8   0.4631   0.5647   1.3689  -0.2530   0.4088  -0.3438   0.00    0.0
2026/01/15 00:03:30.000   22.434283508  114.335389874    65.9010   6   8   0.4331   0.5281   1.2744  -0.2364   0.3815  -0.3213   0.00    0.0
2026/01/15 00:04:00.000   22.434283779  114.335389748    65.8438   6   8   0.4082   0.4977   1.1952  -0.2226   0.3586  -0.3026   0.00    0.0
2026/01/15 00:04:30.000   22.434283905  114.335389649    65.8117   6   8   0.3870   0.4720   1.1275  -0.2109   0.3391  -0.2868   0.00    0.0
2026/01/15 00:05:00.000   22.434283894  114.335389453    65.7712   6   8   0.3688   0.4498   1.0686  -0.2008   0.3222  -0.2731   0.00    0.0
2026/01/15 00:05:30.000   22.434283854  114.335389375    65.7149   6   8   0.3529   0.4305   1.0169  -0.1919   0.3074  -0.2612   0.00    0.0
2026/01/15 00:06:00.000   22.434283831  114.335389209    65.6695   6   8   0.3389   0.4134   0.9711  -0.1841   0.2944  -0.2508   0.00    0.0
2026/01/15 00:06:30.000   22.434283949  114.335388975    65.6327   6   8   0.3264   0.3982   0.9302  -0.1772   0.2827  -0.2415   0.00    0.0
2026/01/15 00:07:00.000   22.434284007  114.335388898    65.6256   6   8   0.3152   0.3846   0.8934  -0.1709   0.2723  -0.2332   0.00    0.0
2026/01/15 00:07:30.000   22.434283916  114.335388965    65.6690   6   8   0.3051   0.3723   0.8603  -0.1653   0.2629  -0.2256   0.00    0.0
2026/01/15 00:08:00.000   22.434283720  114.335389020    65.7209   6   8   0.2959   0.3611   0.8291  -0.1601   0.2541  -0.2188   0.00    0.0
2026/01/15 00:08:30.000   22.434283500  114.335388989    65.7608   6   8   0.2873   0.3507   0.7998  -0.1553   0.2459  -0.2125   0.00    0.0
2026/01/15 00:09:00.000   22.434283315  114.335388896    65.7746   6   8   0.2794   0.3411   0.7722  -0.1508   0.2382  -0.2067   0.00    0.0
2026/01/15 00:09:30.000   22.434283229  114.335388771    65.7509   6   8   0.2720   0.3322   0.7464  -0.1466   0.2310  -0.2013   0.00    0.0
2026/01/15 00:10:00.000   22.434283174  114.335388595    65.7138   6   8   0.2652   0.3239   0.7221  -0.1427   0.2243  -0.1963   0.00    0.0
2026/01/15 00:10:30.000   22.434283192  114.335388336    65.6500   6   8   0.2588   0.3162   0.6995  -0.1391   0.2180  -0.1917   0.00    0.0
2026/01/15 00:11:00.000   22.434283305  114.335387891    65.5565   6   8   0.2529   0.3090   0.6785  -0.1357   0.2121  -0.1873   0.00    0.0
2026/01/15 00:11:30.000   22.434283459  114.335387475    65.4710   6   8   0.2473   0.3023   0.6590  -0.1325   0.2067  -0.1833   0.00    0.0
2026/01/15 00:12:00.000   22.434283637  114.335387273    65.4133   6   8   0.2421   0.2960   0.6409  -0.1295   0.2017  -0.1795   0.00    0.0
2026/01/15 00:12:30.000   22.434283755  114.335387226    65.3768   6   8   0.2372   0.2901   0.6241  -0.1268   0.1970  -0.1760   0.00    0.0
2026/01/15 00:13:00.000   22.434283856  114.335387227    65.3309   6   8   0.2326   0.2845   0.6076  -0.1241   0.1924  -0.1726   0.00    0.0
2026/01/15 00:13:30.000   22.434283995  114.335387194    65.2585   6   8   0.2281   0.2791   0.5914  -0.1215   0.1880  -0.1694   0.00    0.0
2026/01/15 00:14:00.000   22.434284061  114.335387158    65.1928   6   8   0.2238   0.2739   0.5757  -0.1190   0.1836  -0.1664   0.00    0.0
2026/01/15 00:14:30.000   22.434284043  114.335387145    65.1271   6   8   0.2197   0.2690   0.5605  -0.1165   0.1795  -0.1635   0.00    0.0
2026/01/15 00:15:00.000   22.434283961  114.335387135    65.0778   6   8   0.2158   0.2643   0.5460  -0.1142   0.1755  -0.1607   0.00    0.0
2026/01/15 00:15:30.000   22.434283897  114.335387057    65.0248   6   8   0.2121   0.2599   0.5322  -0.1120   0.1717  -0.1581   0.00    0.0
2026/01/15 00:16:00.000   22.434283831  114.335386996    64.9673   6   8   0.2085   0.2556   0.5192  -0.1099   0.1681  -0.1556   0.00    0.0
2026/01/15 00:16:30.000   22.434283762  114.335387028    64.9200   6   8   0.2051   0.2516   0.5071  -0.1079   0.1648  -0.1532   0.00    0.0
2026/01/15 00:17:00.000   22.434283694  114.335387149    64.8717   6   8   0.2019   0.2477   0.4958  -0.1060   0.1616  -0.1510   0.00    0.0
2026/01/15 00:17:30.000   22.434283666  114.335387276    64.8185   6   8   0.1989   0.2441   0.4853  -0.1042   0.1587  -0.1488   0.00    0.0
2026/01/15 00:18:00.000   22.434283705  114.335387356    64.7591   6   8   0.1959   0.2405   0.4747  -0.1024   0.1558  -0.1467   0.00    0.0
2026/01/15 00:18:30.000   22.434283754  114.335387478    64.6996   6   8   0.1930   0.2370   0.4641  -0.1007   0.1528  -0.1447   0.00    0.0
2026/01/15 00:19:00.000   22.434283757  114.335387708    64.6594   6   8   0.1902   0.2336   0.4537  -0.0989   0.1499  -0.1428   0.00    0.0
2026/01/15 00:19:30.000   22.434283704  114.335387947    64.6327   6   8   0.1874   0.2304   0.4435  -0.0972   0.1471  -0.1409   0.00    0.0
2026/01/15 00:20:00.000   22.434283675  114.335388126    64.6181   6   8   0.1847   0.2272   0.4336  -0.0956   0.1444  -0.1391   0.00    0.0
2026/01/15 00:20:30.000   22.434283664  114.335388231    64.6071   6   8   0.1821   0.2241   0.4242  -0.0940   0.1418  -0.1373   0.00    0.0
2026/01/15 00:21:00.000   22.434283671  114.335388332    64.5930   6   8   0.1796   0.2212   0.4153  -0.0924   0.1393  -0.1356   0.00    0.0
2026/01/15 00:21:30.000   22.434283650  114.335388476    64.5701   6   8   0.1773   0.2184   0.4070  -0.0910   0.1370  -0.1340   0.00    0.0
2026/01/15 00:22:00.000   22.434283630  114.335388588    64.5429   6   8   0.1750   0.2157   0.3992  -0.0896   0.1348  -0.1324   0.00    0.0
2026/01/15 00:22:30.000   22.434283645  114.335388627    64.5102   6   8   0.1728   0.2131   0.3920  -0.0883   0.1327  -0.1309   0.00    0.0
2026/01/15 00:23:00.000   22.434283717  114.335388621    64.4720   6   8   0.1707   0.2105   0.3847  -0.0869   0.1306  -0.1294   0.00    0.0
2026/01/15 00:23:30.000   22.434283765  114.335388655    64.4395   6   8   0.1686   0.2080   0.3772  -0.0856   0.1285  -0.1280   0.00    0.0
2026/01/15 00:24:00.000   22.434283780  114.335388679    64.4010   6   8   0.1665   0.2055   0.3698  -0.0842   0.1264  -0.1266   0.00    0.0
2026/01/15 00:24:30.000   22.434283734  114.335388737    64.3725   6   7   0.1646   0.2032   0.3646  -0.0829   0.1250  -0.1262   0.00    0.0
2026/01/15 00:25:00.000   22.434283655  114.335388786    64.3486   6   7   0.1627   0.2010   0.3595  -0.0816   0.1235  -0.1257   0.00    0.0
2026/01/15 00:25:30.000   22.434283619  114.335388775    64.3253   6   8   0.1607   0.1985   0.3539  -0.0799   0.1212  -0.1246   0.00    0.0
2026/01/15 00:26:00.000   22.434283645  114.335388735    64.3019   6   8   0.1588   0.1961   0.3485  -0.0782   0.1190  -0.1235   0.00    0.0
2026/01/15 00:26:30.000   22.434283672  114.335388660    64.2788   6   8   0.1569   0.1938   0.3433  -0.0766   0.1168  -0.1224   0.00    0.0
2026/01/15 00:27:00.000   22.434283715  114.335388567    64.2546   6   8   0.1551   0.1916   0.3385  -0.0750   0.1148  -0.1213   0.00    0.0
2026/01/15 00:27:30.000   22.434283742  114.335388510    64.2316   6   8   0.1534   0.1895   0.3340  -0.0736   0.1129  -0.1202   0.00    0.0
2026/01/15 00:28:00.000   22.434283777  114.335388505    64.2061   6   8   0.1517   0.1874   0.3293  -0.0721   0.1110  -0.1191   0.00    0.0
2026/01/15 00:28:30.000   22.434283838  114.335388518    64.1752   6   8   0.1500   0.1853   0.3245  -0.0707   0.1092  -0.1181   0.00    0.0
2026/01/15 00:29:00.000   22.434283933  114.335388547    64.1418   6   8   0.1483   0.1832   0.3198  -0.0693   0.1074  -0.1171   0.00    0.0
2026/01/15 00:29:30.000   22.434284037  114.335388564    64.1038   6   8   0.1467   0.1812   0.3150  -0.0678   0.1056  -0.1161   0.00    0.0
2026/01/15 00:30:00.000   22.434284105  114.335388576    64.0688   6   8   0.1450   0.1792   0.3104  -0.0665   0.1039  -0.1151   0.00    0.0
2026/01/15 00:30:30.000   22.434284150  114.335388566    64.0345   6   8   0.1434   0.1773   0.3058  -0.0651   0.1023  -0.1142   0.00    0.0
2026/01/15 00:31:00.000   22.434284198  114.335388538    63.9957   6   8   0.1419   0.1754   0.3015  -0.0638   0.1007  -0.1132   0.00    0.0
2026/01/15 00:31:30.000   22.434284262  114.335388524    63.9593   6   8   0.1404   0.1736   0.2974  -0.0626   0.0992  -0.1123   0.00    0.0
2026/01/15 00:32:00.000   22.434284310  114.335388520    63.9240   6   8   0.1390   0.1719   0.2935  -0.0614   0.0977  -0.1113   0.00    0.0
2026/01/15 00:32:30.000   22.434284328  114.335388547    63.8916   6   8   0.1376   0.1702   0.2899  -0.0603   0.0964  -0.1104   0.00    0.0
2026/01/15 00:33:00.000   22.434284278  114.335388627    63.8699   6   8   0.1362   0.1686   0.2862  -0.0592   0.0950  -0.1095   0.00    0.0
2026/01/15 00:33:30.000   22.434284189  114.335388738    63.8578   6   8   0.1348   0.1669   0.2823  -0.0581   0.0937  -0.1086   0.00    0.0
2026/01/15 00:34:00.000   22.434284103  114.335388831    63.8520   6   8   0.1334   0.1652   0.2785  -0.0569   0.0924  -0.1077   0.00    0.0
2026/01/15 00:34:30.000   22.434284025  114.335388917    63.8473   6   8   0.1321   0.1636   0.2746  -0.0558   0.0911  -0.1068   0.00    0.0
2026/01/15 00:35:00.000   22.434283965  114.335388975    63.8436   6   8   0.1307   0.1620   0.2708  -0.0547   0.0898  -0.1059   0.00    0.0
2026/01/15 00:35:30.000   22.434283929  114.335389022    63.8371   6   8   0.1294   0.1604   0.2671  -0.0537   0.0886  -0.1050   0.00    0.0
2026/01/15 00:36:00.000   22.434283908  114.335389074    63.8424   6   8   0.1281   0.1589   0.2652  -0.0526   0.0880  -0.1041   0.00    0.0
2026/01/15 00:36:30.000   22.434283918  114.335389087    63.8434   6   8   0.1268   0.1574   0.2633  -0.0516   0.0874  -0.1032   0.00    0.0
2026/01/15 00:37:00.000   22.434283944  114.335389092    63.8419   6   8   0.1256   0.1561   0.2614  -0.0507   0.0869  -0.1024   0.00    0.0
2026/01/15 00:37:30.000   22.434283983  114.335389101    63.8400   6   8   0.1245   0.1547   0.2597  -0.0498   0.0863  -0.1015   0.00    0.0
2026/01/15 00:38:00.000   22.434284010  114.335389093    63.8354   6   8   0.1233   0.1534   0.2579  -0.0489   0.0857  -0.1007   0.00    0.0
2026/01/15 00:38:30.000   22.434284042  114.335389091    63.8291   6   8   0.1222   0.1520   0.2560  -0.0480   0.0852  -0.0999   0.00    0.0
2026/01/15 00:39:00.000   22.434284096  114.335389074    63.8215   6   8   0.1210   0.1507   0.2541  -0.0471   0.0847  -0.0991   0.00    0.0
2026/01/15 00:39:30.000   22.434284159  114.335389064    63.8077   6   8   0.1198   0.1493   0.2522  -0.0462   0.0842  -0.0983   0.00    0.0
2026/01/15 00:40:00.000   22.434284225  114.335389052    63.7921   6   8   0.1186   0.1480   0.2503  -0.0453   0.0837  -0.0975   0.00    0.0
2026/01/15 00:40:30.000   22.434284271  114.335389041    63.7773   6   8   0.1175   0.1467   0.2484  -0.0445   0.0833  -0.0967   0.00    0.0
2026/01/15 00:41:00.000   22.434284284  114.335389041    63.7692   6   8   0.1164   0.1454   0.2466  -0.0436   0.0828  -0.0959   0.00    0.0
2026/01/15 00:41:30.000   22.434284274  114.335389059    63.7623   6   8   0.1153   0.1442   0.2449  -0.0428   0.0823  -0.0951   0.00    0.0
2026/01/15 00:42:00.000   22.434284233  114.335389099    63.7589   6   8   0.1143   0.1430   0.2432  -0.0421   0.0819  -0.0944   0.00    0.0
2026/01/15 00:42:30.000   22.434284181  114.335389163    63.7618   6   8   0.1133   0.1419   0.2415  -0.0414   0.0814  -0.0937   0.00    0.0
2026/01/15 00:43:00.000   22.434284124  114.335389249    63.7665   6   8   0.1123   0.1407   0.2398  -0.0407   0.0809  -0.0930   0.00    0.0
2026/01/15 00:43:30.000   22.434284069  114.335389329    63.7747   6   8   0.1113   0.1395   0.2381  -0.0400   0.0805  -0.0923   0.00    0.0
2026/01/15 00:44:00.000   22.434284015  114.335389390    63.7820   6   8   0.1103   0.1384   0.2364  -0.0392   0.0801  -0.0915   0.00    0.0
2026/01/15 00:44:30.000   22.434283976  114.335389442    63.7848   6   8   0.1093   0.1372   0.2346  -0.0385   0.0796  -0.0908   0.00    0.0
2026/01/15 00:45:00.000   22.434283959  114.335389483    63.7838   6   8   0.1082   0.1361   0.2328  -0.0378   0.0792  -0.0901   0.00    0.0
2026/01/15 00:45:30.000   22.434283954  114.335389530    63.7807   6   8   0.1072   0.1349   0.2311  -0.0371   0.0788  -0.0894   0.00    0.0
2026/01/15 00:46:00.000   22.434283951  114.335389549    63.7764   6   8   0.1063   0.1338   0.2293  -0.0364   0.0784  -0.0888   0.00    0.0
2026/01/15 00:46:30.000   22.434283956  114.335389551    63.7717   6   8   0.1053   0.1328   0.2277  -0.0358   0.0779  -0.0881   0.00    0.0
2026/01/15 00:47:00.000   22.434283977  114.335389558    63.7656   6   8   0.1045   0.1317   0.2261  -0.0352   0.0775  -0.0875   0.00    0.0
2026/01/15 00:47:30.000   22.434284018  114.335389565    63.7581   6   8   0.1036   0.1307   0.2246  -0.0346   0.0771  -0.0868   0.00    0.0
2026/01/15 00:48:00.000   22.434284057  114.335389569    63.7499   6   8   0.1028   0.1297   0.2231  -0.0340   0.0767  -0.0862   0.00    0.0
2026/01/15 00:48:30.000   22.434284071  114.335389575    63.7438   6   7   0.1019   0.1287   0.2215  -0.0334   0.0763  -0.0855   0.00    0.0
2026/01/15 00:49:00.000   22.434284056  114.335389596    63.7409   6   7   0.1010   0.1277   0.2199  -0.0328   0.0759  -0.0848   0.00    0.0
2026/01/15 00:49:30.000   22.434284025  114.335389635    63.7405   6   7   0.1001   0.1267   0.2183  -0.0322   0.0755  -0.0842   0.00    0.0
2026/01/15 00:50:00.000   22.434284005  114.335389674    63.7400   6   7   0.0992   0.1256   0.2167  -0.0316   0.0751  -0.0835   0.00    0.0
2026/01/15 00:50:30.000   22.434283988  114.335389708    63.7389   6   7   0.0984   0.1246   0.2151  -0.0311   0.0747  -0.0828   0.00    0.0
2026/01/15 00:51:00.000   22.434283972  114.335389738    63.7365   6   7   0.0975   0.1237   0.2135  -0.0305   0.0743  -0.0822   0.00    0.0
2026/01/15 00:51:30.000   22.434283960  114.335389780    63.7335   6   7   0.0967   0.1227   0.2121  -0.0300   0.0739  -0.0816   0.00    0.0
2026/01/15 00:52:00.000   22.434283959  114.335389820    63.7263   6   7   0.0960   0.1218   0.2106  -0.0295   0.0735  -0.0810   0.00    0.0
2026/01/15 00:52:30.000   22.434283961  114.335389871    63.7189   6   7   0.0952   0.1210   0.2093  -0.0290   0.0731  -0.0804   0.00    0.0
2026/01/15 00:53:00.000   22.434283963  114.335389924    63.7105   6   7   0.0945   0.1201   0.2079  -0.0286   0.0727  -0.0798   0.00    0.0
2026/01/15 00:53:30.000   22.434283965  114.335389953    63.7013   6   7   0.0937   0.1192   0.2064  -0.0281   0.0723  -0.0792   0.00    0.0
2026/01/15 00:54:00.000   22.434283965  114.335389956    63.6900   6   7   0.0929   0.1183   0.2049  -0.0276   0.0719  -0.0786   0.00    0.0
2026/01/15 00:54:30.000   22.434283961  114.335389920    63.6791   6   7   0.0921   0.1173   0.2034  -0.0271   0.0715  -0.0780   0.00    0.0
2026/01/15 00:55:00.000   22.434283944  114.335389885    63.6718   6   7   0.0913   0.1164   0.2019  -0.0266   0.0711  -0.0774   0.00    0.0
2026/01/15 00:55:30.000   22.434283922  114.335389830    63.6658   6   7   0.0905   0.1155   0.2004  -0.0262   0.0706  -0.0769   0.00    0.0
2026/01/15 00:56:00.000   22.434283909  114.335389761    63.6578   6   7   0.0898   0.1146   0.1990  -0.0257   0.0702  -0.0763   0.00    0.0
2026/01/15 00:56:30.000   22.434283903  114.335389696    63.6475   6   7   0.0891   0.1138   0.1976  -0.0253   0.0698  -0.0758   0.00    0.0
2026/01/15 00:57:00.000   22.434283901  114.335389627    63.6363   6   7   0.0884   0.1130   0.1962  -0.0249   0.0694  -0.0753   0.00    0.0
2026/01/15 00:57:30.000   22.434283899  114.335389563    63.6266   6   7   0.0877   0.1122   0.1950  -0.0245   0.0691  -0.0747   0.00    0.0
2026/01/15 00:58:00.000   22.434283890  114.335389519    63.6181   6   7   0.0871   0.1114   0.1937  -0.0241   0.0687  -0.0742   0.00    0.0
2026/01/15 00:58:30.000   22.434283869  114.335389482    63.6122   6   7   0.0864   0.1106   0.1923  -0.0237   0.0683  -0.0737   0.00    0.0
2026/01/15 00:59:00.000   22.434283835  114.335389463    63.6091   6   7   0.0856   0.1098   0.1909  -0.0233   0.0678  -0.0732   0.00    0.0
2026/01/15 00:59:30.000   22.434283793  114.335389468    63.6084   6   7   0.0849   0.1089   0.1895  -0.0229   0.0674  -0.0727   0.00    0.0
2026/01/15 01:00:00.000   22.434283753  114.335389456    63.6063   6   7   0.0842   0.1081   0.1881  -0.0225   0.0670  -0.0722   0.00    0.0
2026/01/15 01:00:30.000   22.434283715  114.335389448    63.6050   6   7   0.0835   0.1073   0.1867  -0.0222   0.0666  -0.0717   0.00    0.0
2026/01/15 01:01:00.000   22.434283691  114.335389447    63.6014   6   7   0.0828   0.1065   0.1854  -0.0218   0.0662  -0.0712   0.00    0.0
2026/01/15 01:01:30.000   22.434283671  114.335389465    63.5965   6   7   0.0822   0.1057   0.1841  -0.0214   0.0657  -0.0707   0.00    0.0
2026/01/15 01:02:00.000   22.434283638  114.335389482    63.5928   6   7   0.0816   0.1050   0.1829  -0.0211   0.0654  -0.0702   0.00    0.0
2026/01/15 01:02:30.000   22.434283594  114.335389473    63.5912   6   7   0.0810   0.1043   0.1817  -0.0208   0.0650  -0.0698   0.00    0.0
2026/01/15 01:03:00.000   22.434283549  114.335389458    63.5902   6   7   0.0804   0.1036   0.1805  -0.0205   0.0646  -0.0693   0.00    0.0
2026/01/15 01:03:30.000   22.434283499  114.335389450    63.5909   6   7   0.0798   0.1029   0.1793  -0.0202   0.0642  -0.0689   0.00    0.0
2026/01/15 01:04:00.000   22.434283456  114.335389438    63.5909   6   7   0.0791   0.1021   0.1780  -0.0199   0.0637  -0.0684   0.00    0.0
2026/01/15 01:04:30.000   22.434283407  114.335389433    63.5908   6   7   0.0785   0.1013   0.1766  -0.0195   0.0633  -0.0680   0.00    0.0
2026/01/15 01:05:00.000   22.434283357  114.335389435    63.5897   6   7   0.0778   0.1006   0.1753  -0.0192   0.0629  -0.0675   0.00    0.0
2026/01/15 01:05:30.000   22.434283299  114.335389446    63.5908   6   7   0.0772   0.0998   0.1740  -0.0189   0.0624  -0.0671   0.00    0.0
2026/01/15 01:06:00.000   22.434283247  114.335389443    63.5908   6   7   0.0766   0.0991   0.1728  -0.0186   0.0620  -0.0666   0.00    0.0
2026/01/15 01:06:30.000   22.434283200  114.335389441    63.5918   6   7   0.0760   0.0984   0.1716  -0.0183   0.0616  -0.0662   0.00    0.0
2026/01/15 01:07:00.000   22.434283154  114.335389445    63.5942   6   7   0.0754   0.0978   0.1705  -0.0181   0.0612  -0.0658   0.00    0.0
2026/01/15 01:07:30.000   22.434283117  114.335389456    63.5958   6   7   0.0749   0.0971   0.1694  -0.0178   0.0608  -0.0654   0.00    0.0
2026/01/15 01:08:00.000   22.434283086  114.335389480    63.5954   6   7   0.0744   0.0965   0.1683  -0.0175   0.0604  -0.0650   0.00    0.0
2026/01/15 01:08:30.000   22.434283054  114.335389497    63.5936   6   7   0.0738   0.0958   0.1671  -0.0173   0.0600  -0.0646   0.00    0.0
2026/01/15 01:09:00.000   22.434283012  114.335389506    63.5900   6   7   0.0732   0.0951   0.1659  -0.0170   0.0595  -0.0642   0.00    0.0
2026/01/15 01:09:30.000   22.434282972  114.335389504    63.5851   6   7   0.0727   0.0944   0.1647  -0.0167   0.0591  -0.0637   0.00    0.0
2026/01/15 01:10:00.000   22.434282938  114.335389500    63.5804   6   7   0.0721   0.0937   0.1635  -0.0165   0.0586  -0.0633   0.00    0.0
2026/01/15 01:10:30.000   22.434282910  114.335389498    63.5756   6   7   0.0715   0.0930   0.1623  -0.0162   0.0582  -0.0629   0.00    0.0
2026/01/15 01:11:00.000   22.434282888  114.335389496    63.5698   6   7   0.0710   0.0924   0.1612  -0.0160   0.0578  -0.0625   0.00    0.0
2026/01/15 01:11:30.000   22.434282874  114.335389497    63.5645   6   7   0.0704   0.0917   0.1601  -0.0157   0.0573  -0.0621   0.00    0.0
2026/01/15 01:12:00.000   22.434282858  114.335389501    63.5609   6   7   0.0699   0.0911   0.1590  -0.0155   0.0569  -0.0618   0.00    0.0
2026/01/15 01:12:30.000   22.434282833  114.335389500    63.5587   6   7   0.0695   0.0906   0.1580  -0.0153   0.0565  -0.0614   0.00    0.0
2026/01/15 01:13:00.000   22.434282807  114.335389488    63.5558   6   7   0.0690   0.0900   0.1570  -0.0151   0.0561  -0.0610   0.00    0.0
2026/01/15 01:13:30.000   22.434282786  114.335389462    63.5528   6   8   0.0685   0.0893   0.1559  -0.0149   0.0557  -0.0607   0.00    0.0
2026/01/15 01:14:00.000   22.434282764  114.335389437    63.5495   6   8   0.0680   0.0887   0.1548  -0.0147   0.0552  -0.0603   0.00    0.0
2026/01/15 01:14:30.000   22.434282745  114.335389413    63.5452   6   8   0.0674   0.0881   0.1537  -0.0145   0.0548  -0.0600   0.00    0.0
2026/01/15 01:15:00.000   22.434282730  114.335389385    63.5394   6   8   0.0669   0.0874   0.1525  -0.0143   0.0543  -0.0596   0.00    0.0
2026/01/15 01:15:30.000   22.434282717  114.335389359    63.5338   6   8   0.0664   0.0868   0.1514  -0.0141   0.0539  -0.0592   0.00    0.0
2026/01/15 01:16:00.000   22.434282701  114.335389331    63.5294   6   8   0.0659   0.0862   0.1503  -0.0139   0.0534  -0.0589   0.00    0.0
2026/01/15 01:16:30.000   22.434282686  114.335389290    63.5249   6   8   0.0654   0.0856   0.1493  -0.0137   0.0530  -0.0585   0.00    0.0
2026/01/15 01:17:00.000   22.434282670  114.335389261    63.5205   6   8   0.0650   0.0851   0.1483  -0.0136   0.0526  -0.0582   0.00    0.0
2026/01/15 01:17:30.000   22.434282656  114.335389239    63.5161   6   8   0.0645   0.0845   0.1474  -0.0134   0.0522  -0.0579   0.00    0.0
2026/01/15 01:18:00.000   22.434282637  114.335389218    63.5120   6   8   0.0641   0.0840   0.1465  -0.0133   0.0518  -0.0576   0.00    0.0
2026/01/15 01:18:30.000   22.434282621  114.335389196    63.5086   6   8   0.0636   0.0834   0.1455  -0.0131   0.0513  -0.0573   0.00    0.0
2026/01/15 01:19:00.000   22.434282606  114.335389179    63.5039   6   8   0.0632   0.0828   0.1444  -0.0129   0.0509  -0.0569   0.00    0.0
2026/01/15 01:19:30.000   22.434282598  114.335389153    63.4973   6   8   0.0627   0.0822   0.1434  -0.0127   0.0504  -0.0566   0.00    0.0
2026/01/15 01:20:00.000   22.434282590  114.335389129    63.4918   6   8   0.0622   0.0817   0.1423  -0.0126   0.0499  -0.0562   0.00    0.0
2026/01/15 01:20:30.000   22.434282583  114.335389108    63.4853   6   8   0.0617   0.0811   0.1413  -0.0124   0.0495  -0.0559   0.00    0.0
2026/01/15 01:21:00.000   22.434282577  114.335389085    63.4788   6   8   0.0613   0.0805   0.1403  -0.0122   0.0490  -0.0556   0.00    0.0
2026/01/15 01:21:30.000   22.434282571  114.335389056    63.4720   6   7   0.0610   0.0801   0.1397  -0.0127   0.0490  -0.0555   0.00    0.0
2026/01/15 01:22:00.000   22.434282564  114.335389026    63.4656   6   7   0.0607   0.0798   0.1391  -0.0132   0.0490  -0.0555   0.00    0.0
2026/01/15 01:22:30.000   22.434282558  114.335388996    63.4607   6   7   0.0604   0.0794   0.1385  -0.0136   0.0490  -0.0555   0.00    0.0
2026/01/15 01:23:00.000   22.434282548  114.335388963    63.4576   6   7   0.0601   0.0791   0.1379  -0.0140   0.0490  -0.0555   0.00    0.0
2026/01/15 01:23:30.000   22.434282534  114.335388923    63.4550   6   7   0.0598   0.0787   0.1372  -0.0144   0.0489  -0.0554   0.00    0.0
2026/01/15 01:24:00.000   22.434282519  114.335388869    63.4524   6   7   0.0595   0.0783   0.1366  -0.0148   0.0489  -0.0554   0.00    0.0
2026/01/15 01:24:30.000   22.434282507  114.335388815    63.4498   6   7   0.0591   0.0780   0.1359  -0.0152   0.0489  -0.0554   0.00    0.0
2026/01/15 01:25:00.000   22.434282493  114.335388758    63.4471   6   7   0.0588   0.0776   0.1352  -0.0156   0.0488  -0.0553   0.00    0.0
2026/01/15 01:25:30.000   22.434282475  114.335388697    63.4438   6   7   0.0585   0.0772   0.1345  -0.0160   0.0488  -0.0553   0.00    0.0
2026/01/15 01:26:00.000   22.434282461  114.335388648    63.4398   6   7   0.0582   0.0768   0.1339  -0.0163   0.0488  -0.0552   0.00    0.0
2026/01/15 01:26:30.000   22.434282448  114.335388607    63.4355   6   7   0.0579   0.0765   0.1333  -0.0166   0.0487  -0.0552   0.00    0.0
2026/01/15 01:27:00.000   22.434282435  114.335388570    63.4310   6   7   0.0576   0.0761   0.1327  -0.0169   0.0486  -0.0551   0.00    0.0
2026/01/15 01:27:30.000   22.434282424  114.335388536    63.4271   6   7   0.0574   0.0758   0.1322  -0.0171   0.0486  -0.0550   0.00    0.0
2026/01/15 01:28:00.000   22.434282406  114.335388508    63.4236   6   7   0.0571   0.0755   0.1316  -0.0174   0.0485  -0.0550   0.00    0.0
2026/01/15 01:28:30.000   22.434282385  114.335388480    63.4205   6   7   0.0568   0.0751   0.1310  -0.0176   0.0484  -0.0549   0.00    0.0
2026/01/15 01:29:00.000   22.434282366  114.335388449    63.4175   6   7   0.0565   0.0748   0.1303  -0.0179   0.0484  -0.0548   0.00    0.0
2026/01/15 01:29:30.000   22.434282348  114.335388416    63.4148   6   7   0.0562   0.0744   0.1297  -0.0181   0.0483  -0.0548   0.00    0.0
2026/01/15 01:30:00.000   22.434282334  114.335388384    63.4128   6   7   0.0559   0.0741   0.1290  -0.0184   0.0482  -0.0547   0.00    0.0
2026/01/15 01:30:30.000   22.434282320  114.335388357    63.4120   6   7   0.0556   0.0737   0.1284  -0.0186   0.0481  -0.0546   0.00    0.0
2026/01/15 01:31:00.000   22.434282303  114.335388343    63.4113   6   7   0.0553   0.0734   0.1278  -0.0188   0.0480  -0.0545   0.00    0.0
2026/01/15 01:31:30.000   22.434282286  114.335388339    63.4106   6   7   0.0551   0.0730   0.1272  -0.0190   0.0479  -0.0544   0.00    0.0
2026/01/15 01:32:00.000   22.434282269  114.335388337    63.4096   6   7   0.0548   0.0727   0.1266  -0.0192   0.0479  -0.0543   0.00    0.0
2026/01/15 01:32:30.000   22.434282253  114.335388329    63.4084   6   7   0.0546   0.0724   0.1261  -0.0193   0.0478  -0.0543   0.00    0.0
2026/01/15 01:33:00.000   22.434282236  114.335388316    63.4061   6   7   0.0543   0.0721   0.1255  -0.0195   0.0477  -0.0542   0.00    0.0
2026/01/15 01:33:30.000   22.434282215  114.335388297    63.4035   6   7   0.0540   0.0718   0.1250  -0.0197   0.0476  -0.0541   0.00    0.0
2026/01/15 01:34:00.000   22.434282194  114.335388274    63.4018   6   7   0.0538   0.0714   0.1243  -0.0198   0.0474  -0.0540   0.00    0.0
2026/01/15 01:34:30.000   22.434282171  114.335388247    63.4013   6   7   0.0535   0.0711   0.1237  -0.0200   0.0473  -0.0539   0.00    0.0
2026/01/15 01:35:00.000   22.434282146  114.335388232    63.4018   6   7   0.0532   0.0708   0.1231  -0.0201   0.0472  -0.0537   0.00    0.0
2026/01/15 01:35:30.000   22.434282120  114.335388225    63.4026   6   7   0.0529   0.0704   0.1225  -0.0203   0.0471  -0.0536   0.00    0.0
2026/01/15 01:36:00.000   22.434282095  114.335388217    63.4034   6   7   0.0527   0.0701   0.1219  -0.0204   0.0469  -0.0535   0.00    0.0
2026/01/15 01:36:30.000   22.434282076  114.335388209    63.4041   6   7   0.0524   0.0698   0.1213  -0.0205   0.0468  -0.0534   0.00    0.0
2026/01/15 01:37:00.000   22.434282060  114.335388195    63.4053   6   8   0.0522   0.0695   0.1207  -0.0206   0.0467  -0.0533   0.00    0.0
2026/01/15 01:37:30.000   22.434282051  114.335388183    63.4057   6   8   0.0520   0.0692   0.1202  -0.0206   0.0465  -0.0531   0.00    0.0
2026/01/15 01:38:00.000   22.434282042  114.335388170    63.4057   6   8   0.0517   0.0689   0.1196  -0.0207   0.0463  -0.0530   0.00    0.0
2026/01/15 01:38:30.000   22.434282033  114.335388162    63.4053   6   8   0.0515   0.0685   0.1190  -0.0208   0.0461  -0.0528   0.00    0.0
2026/01/15 01:39:00.000   22.434282019  114.335388149    63.4051   6   8   0.0512   0.0682   0.1184  -0.0208   0.0460  -0.0527   0.00    0.0
2026/01/15 01:39:30.000   22.434282000  114.335388134    63.4052   6   8   0.0509   0.0679   0.1177  -0.0209   0.0458  -0.0525   0.00    0.0
2026/01/15 01:40:00.000   22.434281978  114.335388119    63.4058   6   8   0.0507   0.0675   0.1171  -0.0210   0.0456  -0.0524   0.00    0.0
2026/01/15 01:40:30.000   22.434281956  114.335388104    63.4066   6   8   0.0504   0.0672   0.1165  -0.0210   0.0454  -0.0522   0.00    0.0
2026/01/15 01:41:00.000   22.434281940  114.335388091    63.4066   6   8   0.0501   0.0669   0.1158  -0.0211   0.0452  -0.0520   0.00    0.0
2026/01/15 01:41:30.000   22.434281925  114.335388080    63.4061   6   8   0.0499   0.0666   0.1153  -0.0211   0.0450  -0.0519   0.00    0.0
2026/01/15 01:42:00.000   22.434281911  114.335388072    63.4049   6   8   0.0497   0.0663   0.1147  -0.0211   0.0448  -0.0517   0.00    0.0
2026/01/15 01:42:30.000   22.434281903  114.335388067    63.4031   6   8   0.0494   0.0660   0.1142  -0.0212   0.0446  -0.0516   0.00    0.0
2026/01/15 01:43:00.000   22.434281893  114.335388061    63.4012   6   8   0.0492   0.0657   0.1136  -0.0212   0.0444  -0.0514   0.00    0.0
2026/01/15 01:43:30.000   22.434281880  114.335388053    63.4000   6   8   0.0490   0.0654   0.1130  -0.0212   0.0442  -0.0512   0.00    0.0
2026/01/15 01:44:00.000   22.434281868  114.335388035    63.3991   6   8   0.0487   0.0651   0.1124  -0.0212   0.0440  -0.0511   0.00    0.0
2026/01/15 01:44:30.000   22.434281857  114.335388015    63.3983   6   8   0.0485   0.0648   0.1118  -0.0213   0.0438  -0.0509   0.00    0.0
2026/01/15 01:45:00.000   22.434281847  114.335387992    63.3961   6   8   0.0482   0.0645   0.1112  -0.0213   0.0436  -0.0507   0.00    0.0
2026/01/15 01:45:30.000   22.434281837  114.335387969    63.3927   6   8   0.0480   0.0642   0.1106  -0.0213   0.0434  -0.0505   0.00    0.0
2026/01/15 01:46:00.000   22.434281827  114.335387946    63.3896   6   8   0.0477   0.0639   0.1100  -0.0213   0.0431  -0.0503   0.00    0.0
2026/01/15 01:46:30.000   22.434281816  114.335387923    63.3873   6   8   0.0475   0.0636   0.1094  -0.0213   0.0429  -0.0501   0.00    0.0
2026/01/15 01:47:00.000   22.434281805  114.335387899    63.3862   6   8   0.0473   0.0633   0.1089  -0.0213   0.0427  -0.0500   0.00    0.0
2026/01/15 01:47:30.000   22.434281794  114.335387873    63.3844   6   8   0.0471   0.0630   0.1084  -0.0213   0.0425  -0.0498   0.00    0.0
2026/01/15 01:48:00.000   22.434281781  114.335387847    63.3825   6   8   0.0469   0.0628   0.1078  -0.0213   0.0423  -0.0496   0.00    0.0
2026/01/15 01:48:30.000   22.434281767  114.335387820    63.3817   6   8   0.0466   0.0625   0.1072  -0.0213   0.0421  -0.0495   0.00    0.0
2026/01/15 01:49:00.000   22.434281750  114.335387796    63.3818   6   8   0.0464   0.0622   0.1067  -0.0213   0.0419  -0.0493   0.00    0.0
2026/01/15 01:49:30.000   22.434281733  114.335387779    63.3830   6   8   0.0462   0.0619   0.1060  -0.0212   0.0416  -0.0491   0.00    0.0
2026/01/15 01:50:00.000   22.434281714  114.335387765    63.3843   6   8   0.0459   0.0616   0.1054  -0.0212   0.0414  -0.0489   0.00    0.0
2026/01/15 01:50:30.000   22.434281696  114.335387754    63.3854   6   8   0.0457   0.0613   0.1048  -0.0212   0.0412  -0.0487   0.00    0.0
2026/01/15 01:51:00.000   22.434281678  114.335387747    63.3869   6   8   0.0455   0.0610   0.1043  -0.0212   0.0409  -0.0485   0.00    0.0
2026/01/15 01:51:30.000   22.434281662  114.335387748    63.3885   6   8   0.0452   0.0607   0.1037  -0.0212   0.0407  -0.0483   0.00    0.0
2026/01/15 01:52:00.000   22.434281649  114.335387748    63.3896   6   8   0.0450   0.0605   0.1032  -0.0212   0.0405  -0.0481   0.00    0.0
2026/01/15 01:52:30.000   22.434281639  114.335387743    63.3904   6   8   0.0448   0.0602   0.1027  -0.0211   0.0403  -0.0479   0.00    0.0
2026/01/15 01:53:00.000   22.434281627  114.335387736    63.3913   6   8   0.0446   0.0600   0.1022  -0.0211   0.0401  -0.0477   0.00    0.0
2026/01/15 01:53:30.000   22.434281612  114.335387730    63.3919   6   8   0.0444   0.0597   0.1016  -0.0211   0.0398  -0.0475   0.00    0.0
2026/01/15 01:54:00.000   22.434281593  114.335387724    63.3925   6   8   0.0442   0.0594   0.1011  -0.0210   0.0396  -0.0473   0.00    0.0
2026/01/15 01:54:30.000   22.434281572  114.335387710    63.3931   6   8   0.0440   0.0591   0.1005  -0.0210   0.0394  -0.0471   0.00    0.0
2026/01/15 01:55:00.000   22.434281550  114.335387695    63.3937   6   8   0.0438   0.0588   0.0999  -0.0210   0.0391  -0.0469   0.00    0.0
2026/01/15 01:55:30.000   22.434281530  114.335387682    63.3944   6   8   0.0435   0.0586   0.0993  -0.0209   0.0389  -0.0467   0.00    0.0
2026/01/15 01:56:00.000   22.434281512  114.335387667    63.3949   6   8   0.0433   0.0583   0.0987  -0.0209   0.0386  -0.0465   0.00    0.0
2026/01/15 01:56:30.000   22.434281499  114.335387651    63.3946   6   8   0.0431   0.0580   0.0982  -0.0208   0.0384  -0.0463   0.00    0.0
2026/01/15 01:57:00.000   22.434281487  114.335387635    63.3939   6   8   0.0429   0.0578   0.0977  -0.0208   0.0382  -0.0461   0.00    0.0
2026/01/15 01:57:30.000   22.434281477  114.335387624    63.3932   6   8   0.0427   0.0576   0.0972  -0.0207   0.0380  -0.0459   0.00    0.0
2026/01/15 01:58:00.000   22.434281466  114.335387609    63.3928   6   8   0.0425   0.0573   0.0967  -0.0207   0.0377  -0.0458   0.00    0.0
2026/01/15 01:58:30.000   22.434281451  114.335387593    63.3932   6   8   0.0423   0.0571   0.0962  -0.0207   0.0375  -0.0456   0.00    0.0
2026/01/15 01:59:00.000   22.434281433  114.335387576    63.3940   6   8   0.0421   0.0568   0.0956  -0.0206   0.0373  -0.0453   0.00    0.0
2026/01/15 01:59:30.000   22.434281416  114.335387550    63.3942   6   8   0.0419   0.0566   0.0951  -0.0206   0.0370  -0.0451   0.00    0.0
2026/01/15 02:00:00.000   22.434281401  114.335387517    63.3942   6   8   0.0417   0.0563   0.0945  -0.0205   0.0368  -0.0449   0.00    0.0
2026/01/15 02:00:30.000   22.434281385  114.335387480    63.3934   6   8   0.0415   0.0560   0.0939  -0.0204   0.0365  -0.0447   0.00    0.0
2026/01/15 02:01:00.000   22.434281369  114.335387451    63.3927   6   8   0.0413   0.0558   0.0934  -0.0204   0.0363  -0.0445   0.00    0.0
2026/01/15 02:01:30.000   22.434281355  114.335387430    63.3924   6   8   0.0411   0.0555   0.0929  -0.0203   0.0360  -0.0443   0.00    0.0
2026/01/15 02:02:00.000   22.434281343  114.335387411    63.3926   6   8   0.0409   0.0553   0.0924  -0.0203   0.0358  -0.0441   0.00    0.0
2026/01/15 02:02:30.000   22.434281330  114.335387394    63.3930   6   8   0.0407   0.0551   0.0919  -0.0202   0.0356  -0.0439   0.00    0.0
2026/01/15 02:03:00.000   22.434281316  114.335387377    63.3928   6   8   0.0405   0.0549   0.0915  -0.0202   0.0354  -0.0437   0.00    0.0
2026/01/15 02:03:30.000   22.434281301  114.335387360    63.3926   6   8   0.0404   0.0546   0.0910  -0.0201   0.0351  -0.0435   0.00    0.0
2026/01/15 02:04:00.000   22.434281284  114.335387347    63.3926   6   8   0.0402   0.0544   0.0904  -0.0200   0.0349  -0.0433   0.00    0.0
2026/01/15 02:04:30.000   22.434281266  114.335387339    63.3931   6   8   0.0399   0.0541   0.0899  -0.0200   0.0346  -0.0431   0.00    0.0
2026/01/15 02:05:00.000   22.434281249  114.335387337    63.3943   6   8   0.0397   0.0539   0.0893  -0.0199   0.0344  -0.0428   0.00    0.0
2026/01/15 02:05:30.000   22.434281230  114.335387335    63.3954   6   8   0.0395   0.0537   0.0888  -0.0199   0.0341  -0.0426   0.00    0.0
2026/01/15 02:06:00.000   22.434281212  114.335387328    63.3958   6   8   0.0393   0.0534   0.0883  -0.0198   0.0339  -0.0424   0.00    0.0
2026/01/15 02:06:30.000   22.434281195  114.335387317    63.3959   6   8   0.0392   0.0532   0.0878  -0.0197   0.0337  -0.0422   0.00    0.0
2026/01/15 02:07:00.000   22.434281178  114.335387310    63.3963   6   8   0.0390   0.0530   0.0873  -0.0197   0.0334  -0.0420   0.00    0.0
2026/01/15 02:07:30.000   22.434281161  114.335387305    63.3970   6   8   0.0388   0.0528   0.0869  -0.0196   0.0332  -0.0418   0.00    0.0
2026/01/15 02:08:00.000   22.434281143  114.335387301    63.3979   6   8   0.0387   0.0526   0.0864  -0.0195   0.0330  -0.0416   0.00    0.0
2026/01/15 02:08:30.000   22.434281126  114.335387297    63.3987   6   8   0.0385   0.0524   0.0859  -0.0195   0.0328  -0.0414   0.00    0.0
2026/01/15 02:09:00.000   22.434281111  114.335387296    63.3995   6   8   0.0383   0.0521   0.0854  -0.0194   0.0325  -0.0412   0.00    0.0
2026/01/15 02:09:30.000   22.434281099  114.335387291    63.4001   6   8   0.0381   0.0519   0.0849  -0.0193   0.0323  -0.0410   0.00    0.0
2026/01/15 02:10:00.000   22.434281088  114.335387284    63.4007   6   8   0.0379   0.0517   0.0844  -0.0193   0.0320  -0.0408   0.00    0.0
2026/01/15 02:10:30.000   22.434281074  114.335387284    63.4029   6   8   0.0377   0.0515   0.0841  -0.0192   0.0320  -0.0406   0.00    0.0
2026/01/15 02:11:00.000   22.434281059  114.335387290    63.4053   6   8   0.0375   0.0513   0.0838  -0.0191   0.0320  -0.0404   0.00    0.0
2026/01/15 02:11:30.000   22.434281045  114.335387301    63.4077   6   8   0.0373   0.0512   0.0835  -0.0190   0.0320  -0.0402   0.00    0.0
2026/01/15 02:12:00.000   22.434281030  114.335387316    63.4099   6   9   0.0372   0.0510   0.0833  -0.0190   0.0320  -0.0400   0.00    0.0
2026/01/15 02:12:30.000   22.434281016  114.335387326    63.4117   6   9   0.0370   0.0509   0.0830  -0.0189   0.0319  -0.0398   0.00    0.0
2026/01/15 02:13:00.000   22.434281001  114.335387330    63.4135   6   9   0.0369   0.0507   0.0828  -0.0189   0.0319  -0.0396   0.00    0.0
2026/01/15 02:13:30.000   22.434280985  114.335387329    63.4155   6   9   0.0367   0.0506   0.0825  -0.0188   0.0319  -0.0394   0.00    0.0
2026/01/15 02:14:00.000   22.434280968  114.335387329    63.4179   6   9   0.0365   0.0504   0.0822  -0.0187   0.0318  -0.0392   0.00    0.0
2026/01/15 02:14:30.000   22.434280954  114.335387326    63.4203   6   9   0.0363   0.0503   0.0819  -0.0187   0.0318  -0.0390   0.00    0.0
2026/01/15 02:15:00.000   22.434280943  114.335387320    63.4224   6   9   0.0361   0.0501   0.0816  -0.0186   0.0318  -0.0388   0.00    0.0
2026/01/15 02:15:30.000   22.434280933  114.335387314    63.4239   6   9   0.0360   0.0499   0.0814  -0.0185   0.0317  -0.0386   0.00    0.0
2026/01/15 02:16:00.000   22.434280925  114.335387303    63.4250   6   9   0.0358   0.0498   0.0811  -0.0184   0.0317  -0.0384   0.00    0.0
2026/01/15 02:16:30.000   22.434280919  114.335387292    63.4259   6   9   0.0356   0.0496   0.0808  -0.0184   0.0316  -0.0382   0.00    0.0
2026/01/15 02:17:00.000   22.434280912  114.335387287    63.4270   6   9   0.0355   0.0495   0.0805  -0.0183   0.0316  -0.0380   0.00    0.0
2026/01/15 02:17:30.000   22.434280904  114.335387287    63.4279   6   9   0.0353   0.0494   0.0803  -0.0183   0.0316  -0.0378   0.00    0.0
2026/01/15 02:18:00.000   22.434280896  114.335387285    63.4290   6   9   0.0352   0.0492   0.0800  -0.0182   0.0315  -0.0376   0.00    0.0
2026/01/15 02:18:30.000   22.434280887  114.335387282    63.4305   6   9   0.0350   0.0491   0.0798  -0.0181   0.0315  -0.0374   0.00    0.0
2026/01/15 02:19:00.000   22.434280876  114.335387278    63.4324   6   9   0.0348   0.0489   0.0795  -0.0181   0.0314  -0.0372   0.00    0.0
2026/01/15 02:19:30.000   22.434280865  114.335387274    63.4346   6   9   0.0347   0.0488   0.0792  -0.0180   0.0314  -0.0370   0.00    0.0
2026/01/15 02:20:00.000   22.434280853  114.335387274    63.4369   6   9   0.0345   0.0486   0.0789  -0.0179   0.0313  -0.0368   0.00    0.0
2026/01/15 02:20:30.000   22.434280841  114.335387273    63.4390   6   9   0.0343   0.0485   0.0786  -0.0179   0.0313  -0.0366   0.00    0.0
2026/01/15 02:21:00.000   22.434280831  114.335387271    63.4409   6   9   0.0342   0.0483   0.0783  -0.0178   0.0313  -0.0365   0.00    0.0
2026/01/15 02:21:30.000   22.434280822  114.335387267    63.4426   6   9   0.0340   0.0482   0.0781  -0.0177   0.0312  -0.0363   0.00    0.0
2026/01/15 02:22:00.000   22.434280812  114.335387267    63.4445   6   9   0.0339   0.0481   0.0778  -0.0177   0.0312  -0.0361   0.00    0.0
2026/01/15 02:22:30.000   22.434280800  114.335387268    63.4468   6   9   0.0337   0.0479   0.0776  -0.0176   0.0311  -0.0359   0.00    0.0
2026/01/15 02:23:00.000   22.434280787  114.335387270    63.4495   6   9   0.0336   0.0478   0.0773  -0.0176   0.0311  -0.0358   0.00    0.0
2026/01/15 02:23:30.000   22.434280775  114.335387271    63.4518   6   9   0.0334   0.0477   0.0770  -0.0175   0.0310  -0.0356   0.00    0.0
2026/01/15 02:24:00.000   22.434280765  114.335387271    63.4541   6   9   0.0333   0.0475   0.0768  -0.0174   0.0310  -0.0354   0.00    0.0
2026/01/15 02:24:30.000   22.434280755  114.335387268    63.4558   6   9   0.0331   0.0474   0.0765  -0.0174   0.0309  -0.0352   0.00    0.0
2026/01/15 02:25:00.000   22.434280745  114.335387261    63.4569   6   9   0.0329   0.0472   0.0762  -0.0173   0.0308  -0.0350   0.00    0.0
2026/01/15 02:25:30.000   22.434280735  114.335387256    63.4575   6   9   0.0328   0.0471   0.0759  -0.0173   0.0308  -0.0348   0.00    0.0
2026/01/15 02:26:00.000   22.434280724  114.335387254    63.4580   6   9   0.0326   0.0470   0.0756  -0.0172   0.0307  -0.0347   0.00    0.0
2026/01/15 02:26:30.000   22.434280714  114.335387252    63.4584   6   9   0.0325   0.0468   0.0754  -0.0171   0.0307  -0.0345   0.00    0.0
2026/01/15 02:27:00.000   22.434280707  114.335387243    63.4584   6   9   0.0324   0.0467   0.0751  -0.0171   0.0306  -0.0343   0.00    0.0
2026/01/15 02:27:30.000   22.434280700  114.335387234    63.4581   6   9   0.0322   0.0466   0.0749  -0.0170   0.0306  -0.0342   0.00    0.0
2026/01/15 02:28:00.000   22.434280692  114.335387226    63.4579   6   8   0.0321   0.0465   0.0746  -0.0170   0.0305  -0.0340   0.00    0.0
2026/01/15 02:28:30.000   22.434280682  114.335387219    63.4581   6   8   0.0319   0.0464   0.0744  -0.0169   0.0305  -0.0338   0.00    0.0
2026/01/15 02:29:00.000   22.434280669  114.335387218    63.4590   6   8   0.0318   0.0462   0.0741  -0.0169   0.0304  -0.0337   0.00    0.0
2026/01/15 02:29:30.000   22.434280657  114.335387219    63.4604   6   8   0.0316   0.0461   0.0738  -0.0168   0.0303  -0.0335   0.00    0.0
2026/01/15 02:30:00.000   22.434280646  114.335387224    63.4621   6   8   0.0315   0.0460   0.0735  -0.0167   0.0303  -0.0333   0.00    0.0
2026/01/15 02:30:30.000   22.434280634  114.335387230    63.4637   6   8   0.0313   0.0458   0.0732  -0.0167   0.0302  -0.0331   0.00    0.0
2026/01/15 02:31:00.000   22.434280621  114.335387243    63.4659   6   8   0.0312   0.0457   0.0730  -0.0166   0.0302  -0.0330   0.00    0.0
2026/01/15 02:31:30.000   22.434280605  114.335387264    63.4686   6   8   0.0311   0.0456   0.0727  -0.0166   0.0301  -0.0328   0.00    0.0
2026/01/15 02:32:00.000   22.434280590  114.335387280    63.4715   6   8   0.0309   0.0455   0.0724  -0.0165   0.0300  -0.0326   0.00    0.0
2026/01/15 02:32:30.000   22.434280576  114.335387292    63.4743   6   8   0.0308   0.0454   0.0722  -0.0165   0.0300  -0.0325   0.00    0.0
2026/01/15 02:33:00.000   22.434280560  114.335387305    63.4774   6   8   0.0307   0.0453   0.0720  -0.0164   0.0299  -0.0323   0.00    0.0
2026/01/15 02:33:30.000   22.434280545  114.335387314    63.4803   6   8   0.0306   0.0451   0.0717  -0.0164   0.0299  -0.0322   0.00    0.0
2026/01/15 02:34:00.000   22.434280532  114.335387324    63.4829   6   8   0.0304   0.0450   0.0714  -0.0163   0.0298  -0.0320   0.00    0.0
2026/01/15 02:34:30.000   22.434280520  114.335387331    63.4854   6   8   0.0303   0.0449   0.0712  -0.0163   0.0297  -0.0318   0.00    0.0
2026/01/15 02:35:00.000   22.434280507  114.335387337    63.4877   6   8   0.0301   0.0448   0.0709  -0.0162   0.0297  -0.0317   0.00    0.0
2026/01/15 02:35:30.000   22.434280496  114.335387335    63.4895   6   8   0.0300   0.0447   0.0706  -0.0162   0.0296  -0.0315   0.00    0.0
2026/01/15 02:36:00.000   22.434280486  114.335387330    63.4909   6   8   0.0299   0.0445   0.0703  -0.0161   0.0295  -0.0313   0.00    0.0
2026/01/15 02:36:30.000   22.434280477  114.335387321    63.4920   6   8   0.0297   0.0444   0.0701  -0.0161   0.0295  -0.0312   0.00    0.0
2026/01/15 02:37:00.000   22.434280468  114.335387310    63.4930   6   8   0.0296   0.0443   0.0698  -0.0160   0.0294  -0.0310   0.00    0.0
2026/01/15 02:37:30.000   22.434280460  114.335387298    63.4939   6   8   0.0295   0.0442   0.0696  -0.0160   0.0294  -0.0309   0.00    0.0
2026/01/15 02:38:00.000   22.434280450  114.335387283    63.4947   6   8   0.0294   0.0441   0.0694  -0.0159   0.0293  -0.0308   0.00    0.0
2026/01/15 02:38:30.000   22.434280439  114.335387268    63.4960   6   8   0.0293   0.0440   0.0691  -0.0159   0.0292  -0.0306   0.00    0.0
2026/01/15 02:39:00.000   22.434280427  114.335387256    63.4978   6   8   0.0291   0.0439   0.0688  -0.0158   0.0292  -0.0305   0.00    0.0
2026/01/15 02:39:30.000   22.434280416  114.335387248    63.4999   6   8   0.0290   0.0438   0.0686  -0.0158   0.0291  -0.0303   0.00    0.0
2026/01/15 02:40:00.000   22.434280407  114.335387243    63.5019   6   8   0.0289   0.0437   0.0683  -0.0157   0.0291  -0.0301   0.00    0.0
2026/01/15 02:40:30.000   22.434280399  114.335387239    63.5039   6   8   0.0287   0.0436   0.0680  -0.0157   0.0290  -0.0300   0.00    0.0
2026/01/15 02:41:00.000   22.434280389  114.335387235    63.5056   6   8   0.0286   0.0434   0.0678  -0.0156   0.0289  -0.0298   0.00    0.0
2026/01/15 02:41:30.000   22.434280379  114.335387233    63.5069   6   8   0.0285   0.0433   0.0675  -0.0156   0.0289  -0.0297   0.00    0.0
2026/01/15 02:42:00.000   22.434280371  114.335387231    63.5078   6   8   0.0284   0.0432   0.0673  -0.0155   0.0288  -0.0296   0.00    0.0
2026/01/15 02:42:30.000   22.434280364  114.335387227    63.5082   6   8   0.0283   0.0431   0.0671  -0.0155   0.0288  -0.0294   0.00    0.0
2026/01/15 02:43:00.000   22.434280355  114.335387223    63.5087   6   8   0.0282   0.0431   0.0668  -0.0155   0.0287  -0.0293   0.00    0.0
2026/01/15 02:43:30.000   22.434280344  114.335387219    63.5097   6   8   0.0280   0.0429   0.0666  -0.0154   0.0286  -0.0292   0.00    0.0
2026/01/15 02:44:00.000   22.434280333  114.335387215    63.5108   6   8   0.0279   0.0428   0.0663  -0.0154   0.0286  -0.0290   0.00    0.0
2026/01/15 02:44:30.000   22.434280322  114.335387209    63.5119   6   8   0.0278   0.0427   0.0661  -0.0153   0.0285  -0.0289   0.00    0.0
2026/01/15 02:45:00.000   22.434280311  114.335387202    63.5133   6   8   0.0277   0.0426   0.0658  -0.0153   0.0284  -0.0287   0.00    0.0
2026/01/15 02:45:30.000   22.434280300  114.335387196    63.5150   6   8   0.0275   0.0425   0.0655  -0.0152   0.0284  -0.0286   0.00    0.0
2026/01/15 02:46:00.000   22.434280288  114.335387190    63.5167   6   8   0.0274   0.0424   0.0653  -0.0152   0.0283  -0.0284   0.00    0.0
2026/01/15 02:46:30.000   22.434280276  114.335387186    63.5184   6   8   0.0273   0.0423   0.0650  -0.0152   0.0283  -0.0283   0.00    0.0
2026/01/15 02:47:00.000   22.434280265  114.335387185    63.5201   6   8   0.0272   0.0422   0.0648  -0.0151   0.0282  -0.0282   0.00    0.0
2026/01/15 02:47:30.000   22.434280255  114.335387184    63.5215   6   8   0.0271   0.0422   0.0646  -0.0151   0.0281  -0.0281   0.00    0.0
2026/01/15 02:48:00.000   22.434280244  114.335387184    63.5232   6   8   0.0270   0.0421   0.0644  -0.0150   0.0281  -0.0279   0.00    0.0
2026/01/15 02:48:30.000   22.434280230  114.335387185    63.5252   6   8   0.0269   0.0420   0.0641  -0.0150   0.0280  -0.0278   0.00    0.0
2026/01/15 02:49:00.000   22.434280217  114.335387184    63.5270   6   8   0.0268   0.0419   0.0639  -0.0150   0.0280  -0.0277   0.00    0.0
2026/01/15 02:49:30.000   22.434280207  114.335387178    63.5282   6   8   0.0267   0.0418   0.0636  -0.0149   0.0279  -0.0275   0.00    0.0
2026/01/15 02:50:00.000   22.434280199  114.335387168    63.5291   6   8   0.0266   0.0417   0.0633  -0.0149   0.0278  -0.0274   0.00    0.0
2026/01/15 02:50:30.000   22.434280193  114.335387156    63.5297   6   8   0.0264   0.0416   0.0631  -0.0148   0.0278  -0.0273   0.00    0.0
2026/01/15 02:51:00.000   22.434280189  114.335387139    63.5299   6   8   0.0263   0.0415   0.0628  -0.0148   0.0277  -0.0271   0.00    0.0
2026/01/15 02:51:30.000   22.434280185  114.335387125    63.5303   6   8   0.0262   0.0414   0.0626  -0.0148   0.0277  -0.0270   0.00    0.0
2026/01/15 02:52:00.000   22.434280180  114.335387114    63.5309   6   8   0.0261   0.0413   0.0624  -0.0147   0.0276  -0.0269   0.00    0.0
2026/01/15 02:52:30.000   22.434280173  114.335387102    63.5317   6   8   0.0260   0.0412   0.0622  -0.0147   0.0276  -0.0268   0.00    0.0
2026/01/15 02:53:00.000   22.434280164  114.335387091    63.5327   6   8   0.0259   0.0412   0.0620  -0.0147   0.0275  -0.0267   0.00    0.0
2026/01/15 02:53:30.000   22.434280154  114.335387080    63.5338   6   8   0.0258   0.0411   0.0617  -0.0146   0.0274  -0.0266   0.00    0.0
2026/01/15 02:54:00.000   22.434280143  114.335387073    63.5351   6   8   0.0257   0.0410   0.0615  -0.0146   0.0274  -0.0264   0.00    0.0
2026/01/15 02:54:30.000   22.434280132  114.335387069    63.5365   6   8   0.0256   0.0409   0.0612  -0.0146   0.0273  -0.0263   0.00    0.0
2026/01/15 02:55:00.000   22.434280122  114.335387065    63.5380   6   8   0.0255   0.0408   0.0610  -0.0145   0.0273  -0.0262   0.00    0.0
2026/01/15 02:55:30.000   22.434280113  114.335387061    63.5394   6   8   0.0254   0.0407   0.0607  -0.0145   0.0272  -0.0260   0.00    0.0
2026/01/15 02:56:00.000   22.434280103  114.335387059    63.5409   6   8   0.0253   0.0406   0.0605  -0.0145   0.0271  -0.0259   0.00    0.0
2026/01/15 02:56:30.000   22.434280093  114.335387060    63.5426   6   9   0.0252   0.0405   0.0603  -0.0144   0.0271  -0.0258   0.00    0.0
2026/01/15 02:57:00.000   22.434280083  114.335387059    63.5441   6   9   0.0251   0.0405   0.0601  -0.0144   0.0270  -0.0257   0.00    0.0
2026/01/15 02:57:30.000   22.434280073  114.335387056    63.5456   6   9   0.0250   0.0404   0.0599  -0.0144   0.0270  -0.0256   0.00    0.0
2026/01/15 02:58:00.000   22.434280064  114.335387055    63.5472   6   9   0.0249   0.0403   0.0596  -0.0143   0.0269  -0.0255   0.00    0.0
2026/01/15 02:58:30.000   22.434280056  114.335387055    63.5487   6   9   0.0248   0.0402   0.0594  -0.0143   0.0268  -0.0254   0.00    0.0
2026/01/15 02:59:00.000   22.434280049  114.335387056    63.5501   6   9   0.0248   0.0401   0.0592  -0.0143   0.0268  -0.0253   0.00    0.0
2026/01/15 02:59:30.000   22.434280040  114.335387054    63.5514   6   9   0.0246   0.0400   0.0589  -0.0142   0.0267  -0.0251   0.00    0.0
2026/01/15 03:00:00.000   22.434280031  114.335387050    63.5524   6   9   0.0245   0.0399   0.0587  -0.0142   0.0267  -0.0250   0.00    0.0
2026/01/15 03:00:30.000   22.434280023  114.335387043    63.5534   6   9   0.0244   0.0399   0.0585  -0.0142   0.0266  -0.0249   0.00    0.0
2026/01/15 03:01:00.000   22.434280016  114.335387039    63.5543   6   9   0.0244   0.0398   0.0582  -0.0141   0.0265  -0.0248   0.00    0.0
2026/01/15 03:01:30.000   22.434280009  114.335387039    63.5553   6   9   0.0243   0.0397   0.0580  -0.0141   0.0265  -0.0247   0.00    0.0
2026/01/15 03:02:00.000   22.434280001  114.335387045    63.5568   6   9   0.0242   0.0396   0.0578  -0.0141   0.0264  -0.0246   0.00    0.0
2026/01/15 03:02:30.000   22.434279992  114.335387051    63.5582   6   9   0.0241   0.0395   0.0576  -0.0140   0.0264  -0.0245   0.00    0.0
2026/01/15 03:03:00.000   22.434279982  114.335387053    63.5599   6   9   0.0240   0.0395   0.0574  -0.0140   0.0263  -0.0244   0.00    0.0
2026/01/15 03:03:30.000   22.434279972  114.335387053    63.5614   6   9   0.0239   0.0394   0.0572  -0.0140   0.0263  -0.0243   0.00    0.0
2026/01/15 03:04:00.000   22.434279963  114.335387053    63.5628   6   9   0.0238   0.0393   0.0570  -0.0139   0.0262  -0.0242   0.00    0.0
2026/01/15 03:04:30.000   22.434279953  114.335387051    63.5642   6   9   0.0237   0.0392   0.0567  -0.0139   0.0261  -0.0240   0.00    0.0
2026/01/15 03:05:00.000   22.434279944  114.335387048    63.5654   6   9   0.0236   0.0391   0.0565  -0.0139   0.0261  -0.0239   0.00    0.0
2026/01/15 03:05:30.000   22.434279936  114.335387044    63.5664   6   9   0.0235   0.0391   0.0563  -0.0138   0.0260  -0.0238   0.00    0.0
2026/01/15 03:06:00.000   22.434279928  114.335387042    63.5674   6   9   0.0235   0.0390   0.0561  -0.0138   0.0260  -0.0237   0.00    0.0
2026/01/15 03:06:30.000   22.434279920  114.335387036    63.5682   6   9   0.0234   0.0389   0.0558  -0.0138   0.0259  -0.0236   0.00    0.0
2026/01/15 03:07:00.000   22.434279913  114.335387028    63.5687   6   9   0.0233   0.0388   0.0556  -0.0138   0.0259  -0.0235   0.00    0.0
2026/01/15 03:07:30.000   22.434279907  114.335387016    63.5688   6   9   0.0232   0.0388   0.0555  -0.0137   0.0258  -0.0234   0.00    0.0
2026/01/15 03:08:00.000   22.434279901  114.335387002    63.5689   6   9   0.0231   0.0387   0.0553  -0.0137   0.0258  -0.0234   0.00    0.0
2026/01/15 03:08:30.000   22.434279893  114.335386986    63.5692   6   9   0.0230   0.0386   0.0551  -0.0137   0.0257  -0.0233   0.00    0.0
2026/01/15 03:09:00.000   22.434279884  114.335386973    63.5696   6   9   0.0230   0.0386   0.0548  -0.0137   0.0257  -0.0232   0.00    0.0
2026/01/15 03:09:30.000   22.434279875  114.335386962    63.5701   6   9   0.0229   0.0385   0.0546  -0.0136   0.0256  -0.0231   0.00    0.0
2026/01/15 03:10:00.000   22.434279869  114.335386948    63.5703   6   9   0.0228   0.0384   0.0544  -0.0136   0.0255  -0.0230   0.00    0.0
2026/01/15 03:10:30.000   22.434279863  114.335386932    63.5703   6   9   0.0227   0.0383   0.0542  -0.0136   0.0255  -0.0229   0.00    0.0
2026/01/15 03:11:00.000   22.434279858  114.335386915    63.5702   6   9   0.0226   0.0383   0.0540  -0.0136   0.0254  -0.0228   0.00    0.0
2026/01/15 03:11:30.000   22.434279854  114.335386900    63.5702   6   9   0.0225   0.0382   0.0538  -0.0135   0.0254  -0.0227   0.00    0.0
2026/01/15 03:12:00.000   22.434279850  114.335386886    63.5702   6   9   0.0225   0.0381   0.0536  -0.0135   0.0253  -0.0226   0.00    0.0
2026/01/15 03:12:30.000   22.434279844  114.335386872    63.5702   6   9   0.0224   0.0381   0.0534  -0.0135   0.0253  -0.0225   0.00    0.0
2026/01/15 03:13:00.000   22.434279840  114.335386870    63.5712   6   8   0.0223   0.0380   0.0533  -0.0134   0.0253  -0.0224   0.00    0.0
2026/01/15 03:13:30.000   22.434279833  114.335386870    63.5725   6   8   0.0222   0.0380   0.0531  -0.0134   0.0253  -0.0223   0.00    0.0
2026/01/15 03:14:00.000   22.434279826  114.335386873    63.5739   6   8   0.0222   0.0379   0.0529  -0.0133   0.0252  -0.0222   0.00    0.0
2026/01/15 03:14:30.000   22.434279819  114.335386877    63.5755   6   8   0.0221   0.0379   0.0527  -0.0133   0.0252  -0.0221   0.00    0.0
2026/01/15 03:15:00.000   22.434279812  114.335386881    63.5771   6   8   0.0220   0.0378   0.0525  -0.0132   0.0252  -0.0220   0.00    0.0
2026/01/15 03:15:30.000   22.434279804  114.335386885    63.5787   6   8   0.0219   0.0378   0.0523  -0.0132   0.0252  -0.0219   0.00    0.0
2026/01/15 03:16:00.000   22.434279797  114.335386890    63.5802   6   8   0.0219   0.0377   0.0521  -0.0132   0.0252  -0.0218   0.00    0.0
2026/01/15 03:16:30.000   22.434279791  114.335386895    63.5817   6   8   0.0218   0.0377   0.0520  -0.0131   0.0252  -0.0217   0.00    0.0
2026/01/15 03:17:00.000   22.434279786  114.335386897    63.5829   6   8   0.0218   0.0377   0.0518  -0.0131   0.0251  -0.0216   0.00    0.0
2026/01/15 03:17:30.000   22.434279781  114.335386899    63.5842   6   8   0.0217   0.0376   0.0517  -0.0130   0.0251  -0.0215   0.00    0.0
2026/01/15 03:18:00.000   22.434279777  114.335386899    63.5855   6   8   0.0216   0.0376   0.0515  -0.0130   0.0251  -0.0214   0.00    0.0
2026/01/15 03:18:30.000   22.434279773  114.335386898    63.5869   6   8   0.0216   0.0375   0.0514  -0.0129   0.0251  -0.0213   0.00    0.0
2026/01/15 03:19:00.000   22.434279768  114.335386899    63.5885   6   8   0.0215   0.0375   0.0512  -0.0129   0.0251  -0.0211   0.00    0.0
2026/01/15 03:19:30.000   22.434279763  114.335386903    63.5902   6   8   0.0215   0.0374   0.0511  -0.0128   0.0251  -0.0210   0.00    0.0
2026/01/15 03:20:00.000   22.434279759  114.335386906    63.5918   6   8   0.0214   0.0374   0.0509  -0.0128   0.0251  -0.0209   0.00    0.0
2026/01/15 03:20:30.000   22.434279754  114.335386906    63.5931   6   8   0.0213   0.0374   0.0507  -0.0128   0.0251  -0.0208   0.00    0.0
2026/01/15 03:21:00.000   22.434279750  114.335386904    63.5946   6   8   0.0213   0.0373   0.0506  -0.0127   0.0251  -0.0207   0.00    0.0
2026/01/15 03:21:30.000   22.434279744  114.335386905    63.5961   6   8   0.0212   0.0373   0.0504  -0.0127   0.0251  -0.0206   0.00    0.0
2026/01/15 03:22:00.000   22.434279739  114.335386907    63.5978   6   8   0.0212   0.0372   0.0503  -0.0126   0.0250  -0.0205   0.00    0.0
2026/01/15 03:22:30.000   22.434279733  114.335386911    63.5994   6   8   0.0211   0.0372   0.0502  -0.0126   0.0250  -0.0204   0.00    0.0
2026/01/15 03:23:00.000   22.434279728  114.335386913    63.6009   6   8   0.0211   0.0372   0.0500  -0.0126   0.0250  -0.0203   0.00    0.0
2026/01/15 03:23:30.000   22.434279725  114.335386911    63.6021   6   8   0.0210   0.0371   0.0499  -0.0125   0.0250  -0.0202   0.00    0.0
2026/01/15 03:24:00.000   22.434279722  114.335386905    63.6029   6   8   0.0209   0.0371   0.0497  -0.0125   0.0250  -0.0201   0.00    0.0
2026/01/15 03:24:30.000   22.434279720  114.335386898    63.6037   6   8   0.0209   0.0370   0.0496  -0.0124   0.0250  -0.0200   0.00    0.0
2026/01/15 03:25:00.000   22.434279717  114.335386891    63.6045   6   8   0.0208   0.0370   0.0494  -0.0124   0.0250  -0.0199   0.00    0.0
2026/01/15 03:25:30.000   22.434279714  114.335386886    63.6056   6   8   0.0208   0.0370   0.0493  -0.0123   0.0250  -0.0198   0.00    0.0
2026/01/15 03:26:00.000   22.434279710  114.335386882    63.6067   6   8   0.0207   0.0369   0.0492  -0.0123   0.0250  -0.0197   0.00    0.0
2026/01/15 03:26:30.000   22.434279706  114.335386881    63.6082   6   8   0.0206   0.0369   0.0490  -0.0123   0.0250  -0.0196   0.00    0.0
2026/01/15 03:27:00.000   22.434279702  114.335386882    63.6095   6   8   0.0206   0.0368   0.0489  -0.0122   0.0250  -0.0195   0.00    0.0
2026/01/15 03:27:30.000   22.434279698  114.335386885    63.6106   6   8   0.0205   0.0368   0.0488  -0.0122   0.0250  -0.0194   0.00    0.0
2026/01/15 03:28:00.000   22.434279696  114.335386887    63.6116   6   8   0.0205   0.0368   0.0486  -0.0122   0.0250  -0.0193   0.00    0.0
2026/01/15 03:28:30.000   22.434279693  114.335386889    63.6125   6   8   0.0204   0.0367   0.0485  -0.0121   0.0250  -0.0192   0.00    0.0
