% program   : RTKPOST ver.demo5 b34d
% inp file  : E:\Master courses\SNDP-PROJECT\Old_data\data\HKWS00HKG_R_20260150000_01D_30S_MO.rnx
% inp file  : E:\Master courses\SNDP-PROJECT\New_Data\nav\BRDC00IGS_R_20260150000_01D_MN.rnx
% inp file  : E:\Master courses\SNDP-PROJECT\New_Data\DATA_FINAL_ANT_EXTRA\COD0MGXFIN_20260150000_01D_05M_ORB.SP3
% inp file  : E:\Master courses\SNDP-PROJECT\New_Data\DATA_FINAL_ANT_EXTRA\COD0MGXFIN_20260150000_01D_30S_CLK.CLK
% obs start : 2026/01/15 00:00:00.0 GPST (week2401 345600.0s)
% obs end   : 2026/01/15 01:00:00.0 GPST (week2401 349200.0s)
% pos mode  : PPP Static
% solution  : Forward
% elev mask : 15.0 deg
% dynamics  : off
% tidecorr  : off
% tropo opt : Saastamoinen
% ephemeris : Precise
% navi sys  : GPS Galileo BDS
% antenna1  : LEIAR25.R4      LEIT  ( 0.0000  0.0000  0.0083)
%
% (lat/lon/height=WGS84/ellipsoidal,Q=1:fix,2:float,3:sbas,4:dgps,5:single,6:ppp,ns=# of satellites)
%  GPST                  latitude(deg) longitude(deg)  height(m)   Q  ns   sdn(m)   sde(m)   sdu(m)  sdne(m)  sdeu(m)  sdun(m) age(s)  ratio
2026/01/15 00:00:00.000   22.434276703  114.335383808    63.4230   6  21   0.7823   1.0577   2.2952  -0.2275   0.4316  -0.5253   0.00    0.0
2026/01/15 00:00:30.000   22.434276499  114.335385961    63.5784   6  21   0.5532   0.7481   1.6219  -0.1611   0.3060  -0.3716   0.00    0.0
2026/01/15 00:01:00.000   22.434275809  114.335388201    63.9782   6  19   0.4590   0.6177   1.3573  -0.1548   0.2316  -0.2722   0.00    0.0
2026/01/15 00:01:30.000   22.434275187  114.335389410    64.2265   6  19   0.4011   0.5382   1.1910  -0.1442   0.1911  -0.2184   0.00    0.0
2026/01/15 00:02:00.000   22.434275044  114.335389443    64.1368   6  20   0.3601   0.4811   1.0716  -0.1306   0.1563  -0.1808   0.00    0.0
2026/01/15 00:02:30.000   22.434274349  114.335389696    63.8887   6  21   0.3269   0.4380   0.9674  -0.1149   0.1511  -0.1766   0.00    0.0
2026/01/15 00:03:00.000   22.434274029  114.335389401    63.8638   6  21   0.3014   0.4046   0.8878  -0.1035   0.1448  -0.1703   0.00    0.0
2026/01/15 00:03:30.000   22.434273814  114.335389139    63.8297   6  21   0.2810   0.3778   0.8241  -0.0947   0.1386  -0.1636   0.00    0.0
2026/01/15 00:04:00.000   22.434273694  114.335389064    63.8241   6  21   0.2641   0.3557   0.7717  -0.0878   0.1328  -0.1571   0.00    0.0
2026/01/15 00:04:30.000   22.434273687  114.335389041    63.8494   6  21   0.2499   0.3370   0.7274  -0.0821   0.1274  -0.1511   0.00    0.0
2026/01/15 00:05:00.000   22.434273818  114.335388864    63.8488   6  21   0.2377   0.3209   0.6894  -0.0773   0.1226  -0.1456   0.00    0.0
2026/01/15 00:05:30.000   22.434274056  114.335388653    63.7904   6  21   0.2271   0.3069   0.6564  -0.0733   0.1182  -0.1406   0.00    0.0
2026/01/15 00:06:00.000   22.434274324  114.335388360    63.7059   6  21   0.2178   0.2946   0.6272  -0.0698   0.1141  -0.1360   0.00    0.0
2026/01/15 00:06:30.000   22.434274538  114.335388161    63.6265   6  21   0.2095   0.2837   0.6013  -0.0667   0.1105  -0.1318   0.00    0.0
2026/01/15 00:07:00.000   22.434274645  114.335388059    63.5699   6  21   0.2021   0.2739   0.5781  -0.0640   0.1071  -0.1280   0.00    0.0
2026/01/15 00:07:30.000   22.434274627  114.335388048    63.5460   6  21   0.1954   0.2650   0.5573  -0.0616   0.1041  -0.1244   0.00    0.0
2026/01/15 00:08:00.000   22.434274605  114.335387980    63.5541   6  21   0.1893   0.2569   0.5379  -0.0594   0.1012  -0.1211   0.00    0.0
2026/01/15 00:08:30.000   22.434274628  114.335387792    63.5669   6  21   0.1836   0.2495   0.5198  -0.0573   0.0984  -0.1180   0.00    0.0
2026/01/15 00:09:00.000   22.434274695  114.335387547    63.5786   6  21   0.1784   0.2426   0.5030  -0.0555   0.0958  -0.1151   0.00    0.0
2026/01/15 00:09:30.000   22.434274793  114.335387371    63.5706   6  21   0.1735   0.2363   0.4872  -0.0537   0.0933  -0.1123   0.00    0.0
2026/01/15 00:10:00.000   22.434274800  114.335387211    63.5540   6  21   0.1690   0.2304   0.4725  -0.0521   0.0909  -0.1098   0.00    0.0
2026/01/15 00:10:30.000   22.434274750  114.335387055    63.5277   6  21   0.1648   0.2249   0.4588  -0.0506   0.0887  -0.1073   0.00    0.0
2026/01/15 00:11:00.000   22.434274679  114.335386878    63.4918   6  21   0.1609   0.2197   0.4460  -0.0492   0.0866  -0.1051   0.00    0.0
2026/01/15 00:11:30.000   22.434274651  114.335386700    63.4588   6  21   0.1573   0.2149   0.4341  -0.0480   0.0846  -0.1029   0.00    0.0
2026/01/15 00:12:00.000   22.434274721  114.335386605    63.4414   6  21   0.1538   0.2104   0.4230  -0.0468   0.0828  -0.1009   0.00    0.0
2026/01/15 00:12:30.000   22.434274757  114.335386601    63.4223   6  21   0.1506   0.2062   0.4127  -0.0457   0.0811  -0.0990   0.00    0.0
2026/01/15 00:13:00.000   22.434274800  114.335386605    63.4075   6  21   0.1476   0.2022   0.4027  -0.0446   0.0795  -0.0972   0.00    0.0
2026/01/15 00:13:30.000   22.434274879  114.335386579    63.3863   6  21   0.1446   0.1984   0.3929  -0.0435   0.0778  -0.0954   0.00    0.0
2026/01/15 00:14:00.000   22.434274969  114.335386507    63.3818   6  21   0.1418   0.1947   0.3834  -0.0425   0.0762  -0.0937   0.00    0.0
2026/01/15 00:14:30.000   22.434274995  114.335386429    63.3719   6  21   0.1391   0.1913   0.3743  -0.0415   0.0746  -0.0921   0.00    0.0
2026/01/15 00:15:00.000   22.434274977  114.335386335    63.3571   6  21   0.1365   0.1880   0.3655  -0.0406   0.0730  -0.0905   0.00    0.0
2026/01/15 00:15:30.000   22.434274965  114.335386223    63.3369   6  21   0.1341   0.1848   0.3572  -0.0397   0.0716  -0.0891   0.00    0.0
2026/01/15 00:16:00.000   22.434274988  114.335386123    63.3102   6  21   0.1318   0.1818   0.3493  -0.0389   0.0702  -0.0876   0.00    0.0
2026/01/15 00:16:30.000   22.434275037  114.335386047    63.2700   6  21   0.1295   0.1789   0.3419  -0.0381   0.0689  -0.0863   0.00    0.0
2026/01/15 00:17:00.000   22.434275085  114.335385996    63.2169   6  21   0.1274   0.1762   0.3349  -0.0373   0.0677  -0.0850   0.00    0.0
2026/01/15 00:17:30.000   22.434275154  114.335385920    63.1544   6  21   0.1254   0.1736   0.3284  -0.0366   0.0665  -0.0838   0.00    0.0
2026/01/15 00:18:00.000   22.434275290  114.335385775    63.0852   6  21   0.1235   0.1711   0.3219  -0.0359   0.0654  -0.0825   0.00    0.0
2026/01/15 00:18:30.000   22.434275452  114.335385670    63.0180   6  21   0.1216   0.1686   0.3154  -0.0352   0.0642  -0.0814   0.00    0.0
2026/01/15 00:19:00.000   22.434275571  114.335385661    62.9632   6  21   0.1197   0.1662   0.3090  -0.0345   0.0630  -0.0802   0.00    0.0
2026/01/15 00:19:30.000   22.434275641  114.335385645    62.9307   6  21   0.1179   0.1639   0.3027  -0.0338   0.0618  -0.0791   0.00    0.0
2026/01/15 00:20:00.000   22.434275685  114.335385609    62.9138   6  21   0.1161   0.1617   0.2967  -0.0331   0.0607  -0.0780   0.00    0.0
2026/01/15 00:20:30.000   22.434275717  114.335385603    62.9112   6  21   0.1144   0.1596   0.2909  -0.0325   0.0596  -0.0770   0.00    0.0
2026/01/15 00:21:00.000   22.434275738  114.335385607    62.9150   6  21   0.1128   0.1575   0.2853  -0.0318   0.0586  -0.0760   0.00    0.0
2026/01/15 00:21:30.000   22.434275731  114.335385622    62.9175   6  21   0.1113   0.1555   0.2801  -0.0312   0.0576  -0.0750   0.00    0.0
2026/01/15 00:22:00.000   22.434275696  114.335385614    62.9231   6  21   0.1098   0.1536   0.2752  -0.0307   0.0567  -0.0741   0.00    0.0
2026/01/15 00:22:30.000   22.434275670  114.335385572    62.9271   6  21   0.1083   0.1518   0.2706  -0.0302   0.0558  -0.0732   0.00    0.0
2026/01/15 00:23:00.000   22.434275674  114.335385493    62.9387   6  21   0.1069   0.1500   0.2660  -0.0296   0.0549  -0.0723   0.00    0.0
2026/01/15 00:23:30.000   22.434275665  114.335385447    62.9598   6  21   0.1055   0.1483   0.2613  -0.0291   0.0540  -0.0714   0.00    0.0
2026/01/15 00:24:00.000   22.434275648  114.335385418    62.9809   6  22   0.1041   0.1464   0.2564  -0.0283   0.0525  -0.0704   0.00    0.0
2026/01/15 00:24:30.000   22.434275645  114.335385362    62.9971   6  20   0.1029   0.1447   0.2524  -0.0276   0.0509  -0.0694   0.00    0.0
2026/01/15 00:25:00.000   22.434275648  114.335385291    63.0098   6  20   0.1016   0.1430   0.2485  -0.0270   0.0492  -0.0685   0.00    0.0
2026/01/15 00:25:30.000   22.434275647  114.335385247    63.0161   6  22   0.1003   0.1413   0.2445  -0.0259   0.0476  -0.0677   0.00    0.0
2026/01/15 00:26:00.000   22.434275680  114.335385213    63.0167   6  22   0.0990   0.1397   0.2406  -0.0249   0.0460  -0.0669   0.00    0.0
2026/01/15 00:26:30.000   22.434275721  114.335385151    63.0095   6  22   0.0978   0.1381   0.2369  -0.0239   0.0445  -0.0661   0.00    0.0
2026/01/15 00:27:00.000   22.434275806  114.335385034    63.0024   6  22   0.0966   0.1365   0.2334  -0.0230   0.0431  -0.0653   0.00    0.0
2026/01/15 00:27:30.000   22.434275902  114.335384873    62.9907   6  22   0.0955   0.1350   0.2302  -0.0221   0.0418  -0.0646   0.00    0.0
2026/01/15 00:28:00.000   22.434276016  114.335384698    62.9769   6  22   0.0944   0.1336   0.2268  -0.0212   0.0405  -0.0639   0.00    0.0
2026/01/15 00:28:30.000   22.434276135  114.335384571    62.9604   6  22   0.0933   0.1321   0.2234  -0.0203   0.0392  -0.0631   0.00    0.0
2026/01/15 00:29:00.000   22.434276288  114.335384482    62.9461   6  22   0.0922   0.1307   0.2201  -0.0194   0.0379  -0.0624   0.00    0.0
2026/01/15 00:29:30.000   22.434276447  114.335384412    62.9297   6  22   0.0911   0.1293   0.2167  -0.0185   0.0367  -0.0618   0.00    0.0
2026/01/15 00:30:00.000   22.434276583  114.335384346    62.9130   6  22   0.0900   0.1280   0.2134  -0.0177   0.0356  -0.0611   0.00    0.0
2026/01/15 00:30:30.000   22.434276698  114.335384280    62.8970   6  22   0.0890   0.1266   0.2102  -0.0168   0.0344  -0.0605   0.00    0.0
2026/01/15 00:31:00.000   22.434276811  114.335384197    62.8855   6  21   0.0880   0.1254   0.2072  -0.0162   0.0332  -0.0597   0.00    0.0
2026/01/15 00:31:30.000   22.434276919  114.335384114    62.8763   6  21   0.0871   0.1241   0.2044  -0.0156   0.0320  -0.0590   0.00    0.0
2026/01/15 00:32:00.000   22.434277019  114.335384025    62.8645   6  21   0.0862   0.1229   0.2017  -0.0151   0.0308  -0.0583   0.00    0.0
2026/01/15 00:32:30.000   22.434277111  114.335383939    62.8506   6  21   0.0853   0.1218   0.1992  -0.0146   0.0297  -0.0576   0.00    0.0
2026/01/15 00:33:00.000   22.434277184  114.335383877    62.8416   6  21   0.0845   0.1207   0.1966  -0.0140   0.0286  -0.0569   0.00    0.0
2026/01/15 00:33:30.000   22.434277250  114.335383868    62.8384   6  21   0.0836   0.1195   0.1940  -0.0135   0.0276  -0.0563   0.00    0.0
2026/01/15 00:34:00.000   22.434277314  114.335383886    62.8431   6  21   0.0827   0.1184   0.1913  -0.0129   0.0265  -0.0556   0.00    0.0
2026/01/15 00:34:30.000   22.434277361  114.335383946    62.8517   6  21   0.0819   0.1173   0.1887  -0.0123   0.0255  -0.0550   0.00    0.0
2026/01/15 00:35:00.000   22.434277369  114.335384069    62.8604   6  22   0.0810   0.1162   0.1860  -0.0115   0.0247  -0.0545   0.00    0.0
2026/01/15 00:35:30.000   22.434277388  114.335384175    62.8756   6  21   0.0801   0.1151   0.1834  -0.0109   0.0238  -0.0539   0.00    0.0
2026/01/15 00:36:00.000   22.434277403  114.335384257    62.8855   6  21   0.0793   0.1141   0.1816  -0.0103   0.0231  -0.0532   0.00    0.0
2026/01/15 00:36:30.000   22.434277428  114.335384310    62.8940   6  21   0.0785   0.1131   0.1798  -0.0098   0.0224  -0.0526   0.00    0.0
2026/01/15 00:37:00.000   22.434277457  114.335384350    62.9010   6  21   0.0778   0.1121   0.1780  -0.0092   0.0218  -0.0520   0.00    0.0
2026/01/15 00:37:30.000   22.434277506  114.335384391    62.9049   6  21   0.0771   0.1112   0.1764  -0.0087   0.0211  -0.0514   0.00    0.0
2026/01/15 00:38:00.000   22.434277580  114.335384416    62.9040   6  21   0.0764   0.1102   0.1747  -0.0082   0.0205  -0.0508   0.00    0.0
2026/01/15 00:38:30.000   22.434277676  114.335384420    62.9008   6  21   0.0756   0.1093   0.1730  -0.0076   0.0199  -0.0502   0.00    0.0
2026/01/15 00:39:00.000   22.434277794  114.335384390    62.8984   6  21   0.0749   0.1083   0.1712  -0.0070   0.0194  -0.0496   0.00    0.0
2026/01/15 00:39:30.000   22.434277912  114.335384349    62.8934   6  21   0.0742   0.1074   0.1694  -0.0063   0.0188  -0.0490   0.00    0.0
2026/01/15 00:40:00.000   22.434278019  114.335384302    62.8873   6  21   0.0734   0.1065   0.1677  -0.0056   0.0183  -0.0485   0.00    0.0
2026/01/15 00:40:30.000   22.434278069  114.335384302    62.8738   6  22   0.0727   0.1056   0.1659  -0.0044   0.0179  -0.0480   0.00    0.0
2026/01/15 00:41:00.000   22.434278083  114.335384320    62.8626   6  22   0.0720   0.1047   0.1642  -0.0028   0.0176  -0.0475   0.00    0.0
2026/01/15 00:41:30.000   22.434278070  114.335384339    62.8561   6  22   0.0713   0.1038   0.1626   0.0014   0.0172  -0.0471   0.00    0.0
2026/01/15 00:42:00.000   22.434278033  114.335384351    62.8529   6  22   0.0706   0.1029   0.1611   0.0033   0.0169  -0.0466   0.00    0.0
2026/01/15 00:42:30.000   22.434277986  114.335384371    62.8544   6  22   0.0700   0.1021   0.1596   0.0043   0.0166  -0.0462   0.00    0.0
2026/01/15 00:43:00.000   22.434277944  114.335384401    62.8591   6  22   0.0693   0.1013   0.1581   0.0052   0.0163  -0.0458   0.00    0.0
2026/01/15 00:43:30.000   22.434277937  114.335384396    62.8722   6  21   0.0687   0.1005   0.1566   0.0056   0.0159  -0.0453   0.00    0.0
2026/01/15 00:44:00.000   22.434277908  114.335384415    62.8809   6  22   0.0680   0.0997   0.1550   0.0063   0.0156  -0.0449   0.00    0.0
2026/01/15 00:44:30.000   22.434277909  114.335384422    62.8886   6  22   0.0674   0.0989   0.1534   0.0069   0.0153  -0.0445   0.00    0.0
2026/01/15 00:45:00.000   22.434277920  114.335384432    62.8911   6  22   0.0667   0.0981   0.1518   0.0074   0.0150  -0.0441   0.00    0.0
2026/01/15 00:45:30.000   22.434277940  114.335384449    62.8914   6  22   0.0661   0.0973   0.1503   0.0078   0.0147  -0.0437   0.00    0.0
2026/01/15 00:46:00.000   22.434277969  114.335384445    62.8918   6  22   0.0655   0.0965   0.1488   0.0082   0.0145  -0.0433   0.00    0.0
2026/01/15 00:46:30.000   22.434278020  114.335384442    62.8921   6  22   0.0649   0.0957   0.1474   0.0085   0.0142  -0.0429   0.00    0.0
2026/01/15 00:47:00.000   22.434278078  114.335384472    62.8903   6  22   0.0643   0.0950   0.1461   0.0088   0.0139  -0.0426   0.00    0.0
2026/01/15 00:47:30.000   22.434278148  114.335384507    62.8899   6  22   0.0638   0.0943   0.1448   0.0090   0.0137  -0.0422   0.00    0.0
2026/01/15 00:48:00.000   22.434278221  114.335384533    62.8921   6  22   0.0632   0.0936   0.1435   0.0092   0.0135  -0.0419   0.00    0.0
2026/01/15 00:48:30.000   22.434278273  114.335384558    62.8949   6  21   0.0627   0.0929   0.1421   0.0094   0.0132  -0.0415   0.00    0.0
2026/01/15 00:49:00.000   22.434278300  114.335384585    62.8990   6  21   0.0621   0.0922   0.1408   0.0096   0.0129  -0.0411   0.00    0.0
2026/01/15 00:49:30.000   22.434278328  114.335384603    62.9034   6  21   0.0615   0.0915   0.1395   0.0100   0.0130  -0.0407   0.00    0.0
2026/01/15 00:50:00.000   22.434278360  114.335384622    62.9047   6  21   0.0610   0.0908   0.1382   0.0102   0.0131  -0.0402   0.00    0.0
2026/01/15 00:50:30.000   22.434278401  114.335384635    62.9068   6  21   0.0605   0.0901   0.1370   0.0105   0.0131  -0.0397   0.00    0.0
2026/01/15 00:51:00.000   22.434278443  114.335384641    62.9103   6  21   0.0599   0.0894   0.1358   0.0107   0.0132  -0.0393   0.00    0.0
2026/01/15 00:51:30.000   22.434278475  114.335384655    62.9133   6  21   0.0595   0.0888   0.1347   0.0109   0.0132  -0.0389   0.00    0.0
2026/01/15 00:52:00.000   22.434278488  114.335384681    62.9128   6  21   0.0590   0.0881   0.1336   0.0111   0.0132  -0.0385   0.00    0.0
2026/01/15 00:52:30.000   22.434278501  114.335384713    62.9106   6  21   0.0585   0.0875   0.1326   0.0113   0.0132  -0.0381   0.00    0.0
2026/01/15 00:53:00.000   22.434278516  114.335384751    62.9083   6  21   0.0581   0.0869   0.1315   0.0114   0.0133  -0.0377   0.00    0.0
2026/01/15 00:53:30.000   22.434278527  114.335384790    62.9060   6  21   0.0576   0.0863   0.1304   0.0115   0.0133  -0.0373   0.00    0.0
2026/01/15 00:54:00.000   22.434278544  114.335384807    62.9055   6  21   0.0571   0.0857   0.1293   0.0117   0.0133  -0.0369   0.00    0.0
2026/01/15 00:54:30.000   22.434278580  114.335384781    62.9082   6  20   0.0566   0.0851   0.1281   0.0118   0.0132  -0.0365   0.00    0.0
2026/01/15 00:55:00.000   22.434278624  114.335384764    62.9121   6  20   0.0562   0.0845   0.1270   0.0118   0.0132  -0.0361   0.00    0.0
2026/01/15 00:55:30.000   22.434278677  114.335384741    62.9159   6  20   0.0557   0.0839   0.1259   0.0119   0.0131  -0.0357   0.00    0.0
2026/01/15 00:56:00.000   22.434278739  114.335384704    62.9177   6  20   0.0553   0.0833   0.1248   0.0119   0.0131  -0.0353   0.00    0.0
2026/01/15 00:56:30.000   22.434278801  114.335384669    62.9180   6  20   0.0548   0.0827   0.1238   0.0120   0.0130  -0.0350   0.00    0.0
2026/01/15 00:57:00.000   22.434278866  114.335384633    62.9167   6  20   0.0544   0.0822   0.1229   0.0120   0.0131  -0.0346   0.00    0.0
2026/01/15 00:57:30.000   22.434278929  114.335384601    62.9155   6  20   0.0541   0.0817   0.1220   0.0121   0.0131  -0.0343   0.00    0.0
2026/01/15 00:58:00.000   22.434278996  114.335384574    62.9152   6  20   0.0537   0.0812   0.1211   0.0121   0.0132  -0.0340   0.00    0.0
2026/01/15 00:58:30.000   22.434279049  114.335384537    62.9159   6  20   0.0532   0.0806   0.1201   0.0122   0.0133  -0.0336   0.00    0.0
2026/01/15 00:59:00.000   22.434279093  114.335384505    62.9174   6  20   0.0528   0.0801   0.1191   0.0122   0.0133  -0.0333   0.00    0.0
2026/01/15 00:59:30.000   22.434279121  114.335384488    62.9198   6  20   0.0524   0.0796   0.1181   0.0123   0.0134  -0.0329   0.00    0.0
2026/01/15 01:00:00.000   22.434279147  114.335384466    62.9222   6  20   0.0520   0.0790   0.1171   0.0123   0.0135  -0.0326   0.00    0.0
