% program   : RTKPOST ver.demo5 b34d
% inp file  : E:\Master courses\SNDP-PROJECT\Old_data\data\HKWS00HKG_R_20260150000_01D_30S_MO.rnx
% inp file  : E:\Master courses\SNDP-PROJECT\New_Data\nav\BRDC00IGS_R_20260150000_01D_MN.rnx
% obs start : 2026/01/15 00:00:00.0 GPST (week2401 345600.0s)
% obs end   : 2026/01/15 23:59:30.0 GPST (week2401 431970.0s)
% pos mode  : PPP Static
% solution  : Forward
% elev mask : 15.0 deg
% dynamics  : off
% tidecorr  : off
% tropo opt : Saastamoinen
% ephemeris : Broadcast
% navi sys  : GPS
% antenna1  :                       ( 0.0000  0.0000  0.0083)
%
% (lat/lon/height=WGS84/ellipsoidal,Q=1:fix,2:float,3:sbas,4:dgps,5:single,6:ppp,ns=# of satellites)
%  GPST                  latitude(deg) longitude(deg)  height(m)   Q  ns   sdn(m)   sde(m)   sdu(m)  sdne(m)  sdeu(m)  sdun(m) age(s)  ratio
2026/01/15 00:00:00.000   22.434314719  114.335363636    42.6580   6   8   2.2795   2.7516   7.2415  -1.1042   1.2988  -1.3586   0.00    0.0
2026/01/15 00:00:30.000   22.434314627  114.335364383    42.1281   6   8   1.6171   1.9518   5.1482  -0.7817   0.9156  -0.9597   0.00    0.0
2026/01/15 00:01:00.000   22.434314566  114.335365049    41.9111   6   8   1.3229   1.5961   4.2077  -0.6385   0.7477  -0.7814   0.00    0.0
2026/01/15 00:01:30.000   22.434314666  114.335365573    41.7846   6   8   1.1475   1.3837   3.6436  -0.5530   0.6482  -0.6745   0.00    0.0
2026/01/15 00:02:00.000   22.434314752  114.335366064    41.6755   6   8   1.0278   1.2388   3.2571  -0.4946   0.5806  -0.6013   0.00    0.0
2026/01/15 00:02:30.000   22.434314748  114.335366494    41.5688   6   8   0.9396   1.1318   2.9710  -0.4515   0.5309  -0.5469   0.00    0.0
2026/01/15 00:03:00.000   22.434314705  114.335366870    41.4976   6   8   0.8710   1.0486   2.7482  -0.4180   0.4923  -0.5046   0.00    0.0
2026/01/15 00:03:30.000   22.434314663  114.335367241    41.4590   6   8   0.8159   0.9816   2.5682  -0.3910   0.4614  -0.4702   0.00    0.0
2026/01/15 00:04:00.000   22.434314619  114.335367470    41.4418   6   8   0.7702   0.9262   2.4189  -0.3686   0.4358  -0.4417   0.00    0.0
2026/01/15 00:04:30.000   22.434314565  114.335367602    41.4387   6   8   0.7317   0.8793   2.2924  -0.3497   0.4142  -0.4175   0.00    0.0
2026/01/15 00:05:00.000   22.434314528  114.335367732    41.4332   6   8   0.6985   0.8389   2.1834  -0.3334   0.3957  -0.3966   0.00    0.0
2026/01/15 00:05:30.000   22.434314552  114.335367828    41.4081   6   8   0.6696   0.8038   2.0883  -0.3191   0.3796  -0.3782   0.00    0.0
2026/01/15 00:06:00.000   22.434314590  114.335367896    41.3791   6   8   0.6442   0.7728   2.0042  -0.3066   0.3655  -0.3620   0.00    0.0
2026/01/15 00:06:30.000   22.434314596  114.335367966    41.3517   6   8   0.6216   0.7451   1.9293  -0.2954   0.3529  -0.3475   0.00    0.0
2026/01/15 00:07:00.000   22.434314569  114.335368050    41.3344   6   8   0.6013   0.7204   1.8619  -0.2854   0.3417  -0.3344   0.00    0.0
2026/01/15 00:07:30.000   22.434314534  114.335368169    41.3241   6   8   0.5829   0.6979   1.8009  -0.2763   0.3316  -0.3225   0.00    0.0
2026/01/15 00:08:00.000   22.434314498  114.335368342    41.3228   6   8   0.5662   0.6776   1.7453  -0.2680   0.3224  -0.3117   0.00    0.0
2026/01/15 00:08:30.000   22.434314473  114.335368508    41.3212   6   8   0.5510   0.6589   1.6944  -0.2604   0.3140  -0.3017   0.00    0.0
2026/01/15 00:09:00.000   22.434314453  114.335368676    41.3162   6   8   0.5370   0.6417   1.6476  -0.2534   0.3063  -0.2925   0.00    0.0
2026/01/15 00:09:30.000   22.434314447  114.335368820    41.3062   6   8   0.5240   0.6259   1.6042  -0.2470   0.2993  -0.2839   0.00    0.0
2026/01/15 00:10:00.000   22.434314459  114.335368939    41.3006   6   8   0.5121   0.6112   1.5640  -0.2410   0.2927  -0.2760   0.00    0.0
2026/01/15 00:10:30.000   22.434314491  114.335369021    41.2955   6   8   0.5009   0.5975   1.5266  -0.2354   0.2867  -0.2686   0.00    0.0
2026/01/15 00:11:00.000   22.434314532  114.335369069    41.2873   6   8   0.4905   0.5848   1.4916  -0.2302   0.2811  -0.2616   0.00    0.0
2026/01/15 00:11:30.000   22.434314567  114.335369109    41.2819   6   8   0.4808   0.5728   1.4588  -0.2254   0.2758  -0.2550   0.00    0.0
2026/01/15 00:12:00.000   22.434314595  114.335369157    41.2781   6   8   0.4717   0.5616   1.4280  -0.2208   0.2710  -0.2489   0.00    0.0
2026/01/15 00:12:30.000   22.434314624  114.335369225    41.2760   6   8   0.4631   0.5511   1.3990  -0.2165   0.2664  -0.2431   0.00    0.0
2026/01/15 00:13:00.000   22.434314676  114.335369289    41.2644   6   8   0.4550   0.5411   1.3717  -0.2124   0.2621  -0.2375   0.00    0.0
2026/01/15 00:13:30.000   22.434314745  114.335369341    41.2459   6   8   0.4474   0.5317   1.3458  -0.2085   0.2581  -0.2323   0.00    0.0
2026/01/15 00:14:00.000   22.434314804  114.335369380    41.2265   6   8   0.4401   0.5228   1.3212  -0.2049   0.2543  -0.2273   0.00    0.0
2026/01/15 00:14:30.000   22.434314844  114.335369420    41.2108   6   8   0.4333   0.5143   1.2980  -0.2014   0.2507  -0.2226   0.00    0.0
2026/01/15 00:15:00.000   22.434314870  114.335369442    41.1951   6   8   0.4267   0.5063   1.2758  -0.1981   0.2473  -0.2180   0.00    0.0
2026/01/15 00:15:30.000   22.434314917  114.335369440    41.1728   6   8   0.4205   0.4986   1.2547  -0.1950   0.2441  -0.2137   0.00    0.0
2026/01/15 00:16:00.000   22.434314981  114.335369450    41.1488   6   8   0.4146   0.4913   1.2346  -0.1920   0.2411  -0.2096   0.00    0.0
2026/01/15 00:16:30.000   22.434315043  114.335369496    41.1297   6   8   0.4090   0.4843   1.2154  -0.1891   0.2382  -0.2056   0.00    0.0
2026/01/15 00:17:00.000   22.434315095  114.335369569    41.1088   6   8   0.4036   0.4777   1.1971  -0.1864   0.2355  -0.2018   0.00    0.0
2026/01/15 00:17:30.000   22.434315149  114.335369655    41.0869   6   8   0.3984   0.4713   1.1795  -0.1837   0.2330  -0.1982   0.00    0.0
2026/01/15 00:18:00.000   22.434315209  114.335369736    41.0645   6   8   0.3935   0.4652   1.1626  -0.1812   0.2305  -0.1947   0.00    0.0
2026/01/15 00:18:30.000   22.434315250  114.335369832    41.0461   6   8   0.3887   0.4593   1.1465  -0.1788   0.2282  -0.1913   0.00    0.0
2026/01/15 00:19:00.000   22.434315267  114.335369933    41.0316   6   8   0.3842   0.4537   1.1309  -0.1764   0.2260  -0.1880   0.00    0.0
2026/01/15 00:19:30.000   22.434315272  114.335370035    41.0213   6   8   0.3798   0.4482   1.1160  -0.1742   0.2239  -0.1849   0.00    0.0
2026/01/15 00:20:00.000   22.434315269  114.335370144    41.0175   6   8   0.3755   0.4430   1.1017  -0.1720   0.2219  -0.1819   0.00    0.0
2026/01/15 00:20:30.000   22.434315273  114.335370237    41.0172   6   8   0.3715   0.4380   1.0878  -0.1700   0.2200  -0.1790   0.00    0.0
2026/01/15 00:21:00.000   22.434315280  114.335370324    41.0146   6   8   0.3676   0.4331   1.0745  -0.1679   0.2181  -0.1761   0.00    0.0
2026/01/15 00:21:30.000   22.434315273  114.335370420    41.0063   6   8   0.3638   0.4285   1.0617  -0.1660   0.2164  -0.1734   0.00    0.0
2026/01/15 00:22:00.000   22.434315258  114.335370514    40.9923   6   8   0.3601   0.4239   1.0493  -0.1641   0.2148  -0.1708   0.00    0.0
2026/01/15 00:22:30.000   22.434315250  114.335370612    40.9763   6   8   0.3566   0.4196   1.0373  -0.1623   0.2132  -0.1682   0.00    0.0
2026/01/15 00:23:00.000   22.434315252  114.335370719    40.9623   6   8   0.3532   0.4154   1.0257  -0.1606   0.2117  -0.1658   0.00    0.0
2026/01/15 00:23:30.000   22.434315251  114.335370831    40.9517   6   8   0.3499   0.4113   1.0145  -0.1589   0.2102  -0.1634   0.00    0.0
2026/01/15 00:24:00.000   22.434315258  114.335370934    40.9418   6   8   0.3467   0.4073   1.0037  -0.1572   0.2089  -0.1611   0.00    0.0
2026/01/15 00:24:30.000   22.434315297  114.335371045    40.8991   6   7   0.3437   0.4035   0.9950  -0.1554   0.2065  -0.1605   0.00    0.0
2026/01/15 00:25:00.000   22.434315334  114.335371138    40.8562   6   7   0.3408   0.3999   0.9866  -0.1536   0.2042  -0.1599   0.00    0.0
2026/01/15 00:25:30.000   22.434315257  114.335371397    40.8873   6   8   0.3376   0.3958   0.9752  -0.1509   0.1982  -0.1557   0.00    0.0
2026/01/15 00:26:00.000   22.434315202  114.335371615    40.9116   6   8   0.3346   0.3919   0.9643  -0.1484   0.1925  -0.1517   0.00    0.0
2026/01/15 00:26:30.000   22.434315143  114.335371828    40.9404   6   8   0.3317   0.3881   0.9538  -0.1459   0.1871  -0.1478   0.00    0.0
2026/01/15 00:27:00.000   22.434315083  114.335372035    40.9700   6   8   0.3288   0.3844   0.9437  -0.1435   0.1819  -0.1441   0.00    0.0
2026/01/15 00:27:30.000   22.434315013  114.335372241    40.9984   6   8   0.3261   0.3809   0.9339  -0.1413   0.1770  -0.1405   0.00    0.0
2026/01/15 00:28:00.000   22.434314945  114.335372455    41.0236   6   8   0.3234   0.3774   0.9244  -0.1391   0.1724  -0.1370   0.00    0.0
2026/01/15 00:28:30.000   22.434314890  114.335372652    41.0446   6   8   0.3207   0.3740   0.9152  -0.1370   0.1679  -0.1337   0.00    0.0
2026/01/15 00:29:00.000   22.434314842  114.335372833    41.0634   6   8   0.3182   0.3708   0.9063  -0.1349   0.1637  -0.1304   0.00    0.0
2026/01/15 00:29:30.000   22.434314792  114.335373007    41.0794   6   8   0.3157   0.3676   0.8976  -0.1330   0.1597  -0.1273   0.00    0.0
2026/01/15 00:30:00.000   22.434314743  114.335373168    41.0907   6   8   0.3133   0.3645   0.8892  -0.1311   0.1559  -0.1242   0.00    0.0
2026/01/15 00:30:30.000   22.434314698  114.335373321    41.1009   6   8   0.3110   0.3615   0.8811  -0.1292   0.1522  -0.1213   0.00    0.0
2026/01/15 00:31:00.000   22.434314655  114.335373464    41.1095   6   8   0.3087   0.3586   0.8732  -0.1275   0.1487  -0.1184   0.00    0.0
2026/01/15 00:31:30.000   22.434314613  114.335373601    41.1183   6   8   0.3064   0.3557   0.8655  -0.1257   0.1454  -0.1156   0.00    0.0
2026/01/15 00:32:00.000   22.434314571  114.335373732    41.1273   6   8   0.3043   0.3530   0.8580  -0.1241   0.1423  -0.1129   0.00    0.0
2026/01/15 00:32:30.000   22.434314522  114.335373858    41.1386   6   8   0.3021   0.3503   0.8508  -0.1225   0.1393  -0.1103   0.00    0.0
2026/01/15 00:33:00.000   22.434314463  114.335373986    41.1538   6   8   0.3001   0.3476   0.8437  -0.1209   0.1365  -0.1077   0.00    0.0
2026/01/15 00:33:30.000   22.434314402  114.335374119    41.1706   6   8   0.2980   0.3450   0.8368  -0.1194   0.1338  -0.1052   0.00    0.0
2026/01/15 00:34:00.000   22.434314349  114.335374235    41.1877   6   8   0.2960   0.3425   0.8301  -0.1179   0.1312  -0.1028   0.00    0.0
2026/01/15 00:34:30.000   22.434314299  114.335374344    41.2058   6   8   0.2941   0.3401   0.8236  -0.1165   0.1288  -0.1004   0.00    0.0
2026/01/15 00:35:00.000   22.434314244  114.335374462    41.2272   6   8   0.2922   0.3376   0.8172  -0.1151   0.1264  -0.0981   0.00    0.0
2026/01/15 00:35:30.000   22.434314193  114.335374587    41.2510   6   8   0.2904   0.3353   0.8110  -0.1137   0.1242  -0.0958   0.00    0.0
2026/01/15 00:36:00.000   22.434314147  114.335374706    41.2637   6   8   0.2885   0.3330   0.8050  -0.1124   0.1222  -0.0936   0.00    0.0
2026/01/15 00:36:30.000   22.434314104  114.335374819    41.2744   6   8   0.2868   0.3307   0.7992  -0.1111   0.1202  -0.0914   0.00    0.0
2026/01/15 00:37:00.000   22.434314048  114.335374929    41.2802   6   8   0.2850   0.3285   0.7936  -0.1099   0.1184  -0.0892   0.00    0.0
2026/01/15 00:37:30.000   22.434313993  114.335375028    41.2847   6   8   0.2833   0.3264   0.7881  -0.1087   0.1166  -0.0871   0.00    0.0
2026/01/15 00:38:00.000   22.434313951  114.335375109    41.2899   6   8   0.2816   0.3243   0.7827  -0.1075   0.1150  -0.0851   0.00    0.0
2026/01/15 00:38:30.000   22.434313913  114.335375178    41.2939   6   8   0.2800   0.3222   0.7774  -0.1063   0.1134  -0.0831   0.00    0.0
2026/01/15 00:39:00.000   22.434313871  114.335375238    41.2942   6   8   0.2784   0.3202   0.7722  -0.1052   0.1120  -0.0811   0.00    0.0
2026/01/15 00:39:30.000   22.434313840  114.335375302    41.2982   6   8   0.2768   0.3182   0.7672  -0.1041   0.1106  -0.0792   0.00    0.0
2026/01/15 00:40:00.000   22.434313809  114.335375371    41.3006   6   8   0.2752   0.3162   0.7622  -0.1030   0.1093  -0.0774   0.00    0.0
2026/01/15 00:40:30.000   22.434313777  114.335375443    41.3032   6   8   0.2737   0.3143   0.7574  -0.1020   0.1081  -0.0756   0.00    0.0
2026/01/15 00:41:00.000   22.434313741  114.335375519    41.3058   6   8   0.2722   0.3125   0.7526  -0.1010   0.1070  -0.0739   0.00    0.0
2026/01/15 00:41:30.000   22.434313703  114.335375600    41.3088   6   8   0.2708   0.3106   0.7480  -0.1000   0.1059  -0.0722   0.00    0.0
2026/01/15 00:42:00.000   22.434313660  114.335375686    41.3120   6   8   0.2693   0.3088   0.7434  -0.0990   0.1049  -0.0705   0.00    0.0
2026/01/15 00:42:30.000   22.434313618  114.335375772    41.3162   6   8   0.2679   0.3070   0.7390  -0.0980   0.1040  -0.0689   0.00    0.0
2026/01/15 00:43:00.000   22.434313585  114.335375859    41.3213   6   8   0.2665   0.3053   0.7346  -0.0971   0.1031  -0.0673   0.00    0.0
2026/01/15 00:43:30.000   22.434313555  114.335375940    41.3280   6   8   0.2651   0.3036   0.7303  -0.0962   0.1024  -0.0658   0.00    0.0
2026/01/15 00:44:00.000   22.434313526  114.335376014    41.3364   6   8   0.2638   0.3019   0.7261  -0.0953   0.1016  -0.0643   0.00    0.0
2026/01/15 00:44:30.000   22.434313493  114.335376083    41.3455   6   8   0.2625   0.3003   0.7220  -0.0944   0.1010  -0.0628   0.00    0.0
2026/01/15 00:45:00.000   22.434313462  114.335376148    41.3539   6   8   0.2612   0.2986   0.7180  -0.0936   0.1004  -0.0614   0.00    0.0
2026/01/15 00:45:30.000   22.434313437  114.335376206    41.3610   6   8   0.2599   0.2971   0.7140  -0.0927   0.0998  -0.0600   0.00    0.0
2026/01/15 00:46:00.000   22.434313409  114.335376257    41.3678   6   8   0.2586   0.2955   0.7101  -0.0919   0.0993  -0.0586   0.00    0.0
2026/01/15 00:46:30.000   22.434313380  114.335376305    41.3754   6   8   0.2574   0.2939   0.7063  -0.0911   0.0988  -0.0573   0.00    0.0
2026/01/15 00:47:00.000   22.434313356  114.335376342    41.3834   6   8   0.2561   0.2924   0.7025  -0.0903   0.0984  -0.0561   0.00    0.0
2026/01/15 00:47:30.000   22.434313339  114.335376368    41.3924   6   8   0.2549   0.2909   0.6989  -0.0896   0.0981  -0.0549   0.00    0.0
2026/01/15 00:48:00.000   22.434313327  114.335376391    41.4027   6   8   0.2538   0.2895   0.6952  -0.0888   0.0977  -0.0537   0.00    0.0
2026/01/15 00:48:30.000   22.434313320  114.335376410    41.4163   6   7   0.2527   0.2880   0.6921  -0.0881   0.0973  -0.0508   0.00    0.0
2026/01/15 00:49:00.000   22.434313310  114.335376437    41.4299   6   7   0.2516   0.2866   0.6891  -0.0875   0.0969  -0.0480   0.00    0.0
2026/01/15 00:49:30.000   22.434313303  114.335376468    41.4438   6   7   0.2506   0.2852   0.6861  -0.0868   0.0965  -0.0451   0.00    0.0
2026/01/15 00:50:00.000   22.434313297  114.335376503    41.4580   6   7   0.2496   0.2839   0.6831  -0.0862   0.0962  -0.0422   0.00    0.0
2026/01/15 00:50:30.000   22.434313286  114.335376544    41.4723   6   7   0.2486   0.2825   0.6802  -0.0855   0.0959  -0.0392   0.00    0.0
2026/01/15 00:51:00.000   22.434313272  114.335376587    41.4860   6   7   0.2476   0.2812   0.6773  -0.0849   0.0957  -0.0361   0.00    0.0
2026/01/15 00:51:30.000   22.434313255  114.335376632    41.4989   6   7   0.2466   0.2799   0.6745  -0.0843   0.0955  -0.0330   0.00    0.0
2026/01/15 00:52:00.000   22.434313239  114.335376672    41.5106   6   7   0.2456   0.2786   0.6717  -0.0837   0.0954  -0.0298   0.00    0.0
2026/01/15 00:52:30.000   22.434313228  114.335376699    41.5229   6   7   0.2446   0.2773   0.6689  -0.0831   0.0952  -0.0263   0.00    0.0
2026/01/15 00:53:00.000   22.434313221  114.335376723    41.5357   6   7   0.2437   0.2761   0.6662  -0.0825   0.0951  -0.0226   0.00    0.0
2026/01/15 00:53:30.000   22.434313215  114.335376747    41.5480   6   7   0.2427   0.2748   0.6635  -0.0820   0.0951  -0.0184   0.00    0.0
2026/01/15 00:54:00.000   22.434313207  114.335376771    41.5603   6   7   0.2418   0.2736   0.6608  -0.0814   0.0950  -0.0133   0.00    0.0
2026/01/15 00:54:30.000   22.434313198  114.335376793    41.5729   6   7   0.2409   0.2724   0.6582  -0.0809   0.0950  -0.0051   0.00    0.0
2026/01/15 00:55:00.000   22.434313187  114.335376812    41.5869   6   7   0.2399   0.2712   0.6556  -0.0803   0.0950   0.0108   0.00    0.0
2026/01/15 00:55:30.000   22.434313180  114.335376826    41.6017   6   7   0.2390   0.2701   0.6531  -0.0798   0.0951   0.0158   0.00    0.0
2026/01/15 00:56:00.000   22.434313177  114.335376834    41.6170   6   7   0.2381   0.2689   0.6506  -0.0793   0.0951   0.0193   0.00    0.0
2026/01/15 00:56:30.000   22.434313182  114.335376835    41.6340   6   7   0.2373   0.2678   0.6481  -0.0788   0.0952   0.0221   0.00    0.0
2026/01/15 00:57:00.000   22.434313188  114.335376835    41.6507   6   7   0.2364   0.2667   0.6456  -0.0783   0.0953   0.0244   0.00    0.0
2026/01/15 00:57:30.000   22.434313191  114.335376838    41.6676   6   7   0.2355   0.2656   0.6432  -0.0778   0.0955   0.0263   0.00    0.0
2026/01/15 00:58:00.000   22.434313193  114.335376847    41.6853   6   7   0.2347   0.2645   0.6408  -0.0773   0.0956   0.0280   0.00    0.0
2026/01/15 00:58:30.000   22.434313194  114.335376860    41.7042   6   7   0.2338   0.2634   0.6385  -0.0769   0.0958   0.0294   0.00    0.0
2026/01/15 00:59:00.000   22.434313192  114.335376876    41.7242   6   7   0.2330   0.2623   0.6361  -0.0764   0.0959   0.0307   0.00    0.0
2026/01/15 00:59:30.000   22.434313186  114.335376890    41.7447   6   7   0.2322   0.2613   0.6338  -0.0760   0.0961   0.0318   0.00    0.0
2026/01/15 01:00:00.000   22.434313168  114.335376895    41.7668   6   7   0.2313   0.2603   0.6315  -0.0755   0.0963   0.0328   0.00    0.0
2026/01/15 01:00:30.000   22.434313153  114.335376898    41.7882   6   7   0.2305   0.2593   0.6293  -0.0751   0.0966   0.0337   0.00    0.0
2026/01/15 01:01:00.000   22.434313142  114.335376905    41.8092   6   7   0.2297   0.2583   0.6271  -0.0747   0.0968   0.0344   0.00    0.0
2026/01/15 01:01:30.000   22.434313130  114.335376914    41.8309   6   7   0.2289   0.2573   0.6249  -0.0742   0.0970   0.0350   0.00    0.0
2026/01/15 01:02:00.000   22.434313115  114.335376921    41.8534   6   7   0.2281   0.2563   0.6227  -0.0738   0.0973   0.0356   0.00    0.0
2026/01/15 01:02:30.000   22.434313095  114.335376922    41.8770   6   7   0.2274   0.2553   0.6205  -0.0734   0.0975   0.0360   0.00    0.0
2026/01/15 01:03:00.000   22.434313075  114.335376926    41.9014   6   7   0.2266   0.2544   0.6184  -0.0730   0.0978   0.0364   0.00    0.0
2026/01/15 01:03:30.000   22.434313056  114.335376934    41.9262   6   7   0.2258   0.2534   0.6163  -0.0727   0.0981   0.0367   0.00    0.0
2026/01/15 01:04:00.000   22.434313040  114.335376943    41.9511   6   7   0.2251   0.2525   0.6142  -0.0723   0.0984   0.0370   0.00    0.0
2026/01/15 01:04:30.000   22.434313025  114.335376951    41.9769   6   7   0.2243   0.2516   0.6121  -0.0719   0.0987   0.0371   0.00    0.0
2026/01/15 01:05:00.000   22.434313011  114.335376962    42.0023   6   7   0.2236   0.2507   0.6101  -0.0716   0.0990   0.0372   0.00    0.0
2026/01/15 01:05:30.000   22.434312992  114.335376952    42.0344   6   6   0.2229   0.2498   0.6082  -0.0712   0.0991   0.0372   0.00    0.0
2026/01/15 01:06:00.000   22.434312976  114.335376940    42.0666   6   6   0.2221   0.2489   0.6062  -0.0708   0.0993   0.0371   0.00    0.0
2026/01/15 01:06:30.000   22.434312960  114.335376927    42.0990   6   6   0.2214   0.2481   0.6043  -0.0705   0.0995   0.0369   0.00    0.0
2026/01/15 01:07:00.000   22.434312947  114.335376912    42.1314   6   6   0.2207   0.2472   0.6025  -0.0701   0.0997   0.0367   0.00    0.0
2026/01/15 01:07:30.000   22.434312938  114.335376899    42.1637   6   6   0.2200   0.2464   0.6006  -0.0698   0.0999   0.0365   0.00    0.0
2026/01/15 01:08:00.000   22.434312933  114.335376872    42.1979   6   6   0.2193   0.2455   0.5988  -0.0695   0.1002   0.0361   0.00    0.0
2026/01/15 01:08:30.000   22.434312932  114.335376845    42.2313   6   6   0.2187   0.2447   0.5969  -0.0692   0.1004   0.0357   0.00    0.0
2026/01/15 01:09:00.000   22.434312935  114.335376831    42.2565   6   7   0.2180   0.2439   0.5950  -0.0689   0.1008   0.0354   0.00    0.0
2026/01/15 01:09:30.000   22.434312940  114.335376820    42.2782   6   7   0.2173   0.2431   0.5932  -0.0686   0.1011   0.0350   0.00    0.0
2026/01/15 01:10:00.000   22.434312939  114.335376791    42.3076   6   6   0.2166   0.2423   0.5914  -0.0683   0.1014   0.0344   0.00    0.0
2026/01/15 01:10:30.000   22.434312940  114.335376763    42.3378   6   6   0.2160   0.2415   0.5896  -0.0681   0.1016   0.0338   0.00    0.0
2026/01/15 01:11:00.000   22.434312942  114.335376738    42.3684   6   6   0.2153   0.2407   0.5879  -0.0678   0.1019   0.0331   0.00    0.0
2026/01/15 01:11:30.000   22.434312944  114.335376712    42.3999   6   6   0.2147   0.2400   0.5862  -0.0675   0.1022   0.0324   0.00    0.0
2026/01/15 01:12:00.000   22.434312944  114.335376683    42.4319   6   6   0.2141   0.2392   0.5845  -0.0673   0.1024   0.0317   0.00    0.0
2026/01/15 01:12:30.000   22.434312939  114.335376645    42.4673   6   6   0.2134   0.2385   0.5827  -0.0670   0.1027   0.0308   0.00    0.0
2026/01/15 01:13:00.000   22.434312938  114.335376606    42.5029   6   6   0.2128   0.2377   0.5811  -0.0668   0.1030   0.0300   0.00    0.0
2026/01/15 01:13:30.000   22.434312931  114.335376563    42.5360   6   7   0.2121   0.2370   0.5791  -0.0666   0.1032   0.0275   0.00    0.0
2026/01/15 01:14:00.000   22.434312917  114.335376516    42.5661   6   7   0.2115   0.2363   0.5772  -0.0663   0.1035   0.0248   0.00    0.0
2026/01/15 01:14:30.000   22.434312903  114.335376471    42.5964   6   7   0.2108   0.2356   0.5753  -0.0661   0.1037   0.0218   0.00    0.0
2026/01/15 01:15:00.000   22.434312888  114.335376426    42.6263   6   7   0.2102   0.2348   0.5735  -0.0660   0.1040   0.0182   0.00    0.0
2026/01/15 01:15:30.000   22.434312876  114.335376380    42.6563   6   7   0.2095   0.2341   0.5716  -0.0658   0.1042   0.0138   0.00    0.0
2026/01/15 01:16:00.000   22.434312865  114.335376335    42.6863   6   7   0.2089   0.2334   0.5698  -0.0656   0.1045   0.0070   0.00    0.0
2026/01/15 01:16:30.000   22.434312853  114.335376289    42.7161   6   7   0.2082   0.2328   0.5680  -0.0654   0.1047  -0.0097   0.00    0.0
2026/01/15 01:17:00.000   22.434312842  114.335376246    42.7459   6   7   0.2076   0.2321   0.5662  -0.0653   0.1049  -0.0153   0.00    0.0
2026/01/15 01:17:30.000   22.434312830  114.335376206    42.7757   6   7   0.2070   0.2314   0.5644  -0.0651   0.1052  -0.0194   0.00    0.0
2026/01/15 01:18:00.000   22.434312818  114.335376168    42.8064   6   7   0.2064   0.2307   0.5626  -0.0649   0.1054  -0.0228   0.00    0.0
2026/01/15 01:18:30.000   22.434312805  114.335376132    42.8381   6   7   0.2058   0.2301   0.5609  -0.0648   0.1057  -0.0258   0.00    0.0
2026/01/15 01:19:00.000   22.434312792  114.335376098    42.8698   6   7   0.2052   0.2294   0.5591  -0.0647   0.1059  -0.0284   0.00    0.0
2026/01/15 01:19:30.000   22.434312779  114.335376064    42.9017   6   7   0.2046   0.2288   0.5574  -0.0645   0.1062  -0.0308   0.00    0.0
2026/01/15 01:20:00.000   22.434312769  114.335376031    42.9339   6   7   0.2040   0.2281   0.5557  -0.0644   0.1064  -0.0331   0.00    0.0
2026/01/15 01:20:30.000   22.434312763  114.335376002    42.9636   6   7   0.2034   0.2275   0.5540  -0.0643   0.1067  -0.0352   0.00    0.0
2026/01/15 01:21:00.000   22.434312760  114.335375971    42.9931   6   7   0.2028   0.2269   0.5524  -0.0641   0.1069  -0.0371   0.00    0.0
2026/01/15 01:21:30.000   22.434312755  114.335375935    43.0246   6   7   0.2022   0.2263   0.5509  -0.0640   0.1070  -0.0392   0.00    0.0
2026/01/15 01:22:00.000   22.434312747  114.335375897    43.0568   6   7   0.2017   0.2257   0.5494  -0.0639   0.1071  -0.0412   0.00    0.0
2026/01/15 01:22:30.000   22.434312738  114.335375859    43.0901   6   7   0.2011   0.2251   0.5479  -0.0637   0.1072  -0.0431   0.00    0.0
2026/01/15 01:23:00.000   22.434312729  114.335375820    43.1244   6   7   0.2006   0.2245   0.5464  -0.0636   0.1073  -0.0449   0.00    0.0
2026/01/15 01:23:30.000   22.434312719  114.335375781    43.1591   6   7   0.2000   0.2239   0.5450  -0.0635   0.1074  -0.0466   0.00    0.0
2026/01/15 01:24:00.000   22.434312708  114.335375739    43.1944   6   7   0.1995   0.2233   0.5435  -0.0634   0.1075  -0.0482   0.00    0.0
2026/01/15 01:24:30.000   22.434312700  114.335375699    43.2308   6   7   0.1989   0.2227   0.5421  -0.0633   0.1076  -0.0498   0.00    0.0
2026/01/15 01:25:00.000   22.434312693  114.335375657    43.2677   6   7   0.1984   0.2222   0.5407  -0.0632   0.1077  -0.0514   0.00    0.0
2026/01/15 01:25:30.000   22.434312687  114.335375613    43.3050   6   7   0.1979   0.2216   0.5393  -0.0631   0.1078  -0.0528   0.00    0.0
2026/01/15 01:26:00.000   22.434312681  114.335375572    43.3428   6   7   0.1973   0.2210   0.5379  -0.0630   0.1080  -0.0543   0.00    0.0
2026/01/15 01:26:30.000   22.434312673  114.335375534    43.3807   6   7   0.1968   0.2205   0.5365  -0.0629   0.1081  -0.0557   0.00    0.0
2026/01/15 01:27:00.000   22.434312663  114.335375501    43.4193   6   7   0.1963   0.2199   0.5351  -0.0628   0.1082  -0.0570   0.00    0.0
2026/01/15 01:27:30.000   22.434312653  114.335375472    43.4582   6   7   0.1958   0.2194   0.5337  -0.0628   0.1083  -0.0584   0.00    0.0
2026/01/15 01:28:00.000   22.434312641  114.335375444    43.4976   6   7   0.1953   0.2189   0.5324  -0.0627   0.1085  -0.0596   0.00    0.0
2026/01/15 01:28:30.000   22.434312626  114.335375417    43.5373   6   7   0.1948   0.2183   0.5310  -0.0626   0.1086  -0.0609   0.00    0.0
2026/01/15 01:29:00.000   22.434312612  114.335375388    43.5774   6   7   0.1943   0.2178   0.5297  -0.0626   0.1087  -0.0621   0.00    0.0
2026/01/15 01:29:30.000   22.434312600  114.335375355    43.6175   6   7   0.1938   0.2173   0.5284  -0.0625   0.1089  -0.0633   0.00    0.0
2026/01/15 01:30:00.000   22.434312591  114.335375321    43.6578   6   7   0.1934   0.2168   0.5271  -0.0625   0.1090  -0.0644   0.00    0.0
2026/01/15 01:30:30.000   22.434312584  114.335375289    43.6989   6   7   0.1929   0.2162   0.5258  -0.0624   0.1091  -0.0656   0.00    0.0
2026/01/15 01:31:00.000   22.434312578  114.335375262    43.7398   6   7   0.1924   0.2157   0.5245  -0.0624   0.1093  -0.0667   0.00    0.0
2026/01/15 01:31:30.000   22.434312573  114.335375241    43.7807   6   7   0.1919   0.2152   0.5232  -0.0623   0.1094  -0.0678   0.00    0.0
2026/01/15 01:32:00.000   22.434312567  114.335375220    43.8214   6   7   0.1915   0.2147   0.5219  -0.0623   0.1096  -0.0688   0.00    0.0
2026/01/15 01:32:30.000   22.434312563  114.335375194    43.8626   6   7   0.1910   0.2142   0.5206  -0.0623   0.1097  -0.0698   0.00    0.0
2026/01/15 01:33:00.000   22.434312559  114.335375167    43.9042   6   7   0.1906   0.2137   0.5194  -0.0622   0.1098  -0.0709   0.00    0.0
2026/01/15 01:33:30.000   22.434312553  114.335375141    43.9462   6   7   0.1901   0.2132   0.5182  -0.0622   0.1100  -0.0718   0.00    0.0
2026/01/15 01:34:00.000   22.434312545  114.335375117    43.9891   6   7   0.1897   0.2127   0.5169  -0.0622   0.1101  -0.0728   0.00    0.0
2026/01/15 01:34:30.000   22.434312534  114.335375095    44.0322   6   7   0.1892   0.2123   0.5157  -0.0622   0.1103  -0.0738   0.00    0.0
2026/01/15 01:35:00.000   22.434312522  114.335375075    44.0757   6   7   0.1888   0.2118   0.5145  -0.0621   0.1104  -0.0747   0.00    0.0
2026/01/15 01:35:30.000   22.434312509  114.335375060    44.1189   6   7   0.1884   0.2113   0.5133  -0.0621   0.1105  -0.0756   0.00    0.0
2026/01/15 01:36:00.000   22.434312493  114.335375044    44.1622   6   7   0.1879   0.2108   0.5121  -0.0621   0.1107  -0.0765   0.00    0.0
2026/01/15 01:36:30.000   22.434312474  114.335375028    44.2062   6   7   0.1875   0.2104   0.5109  -0.0621   0.1108  -0.0774   0.00    0.0
2026/01/15 01:37:00.000   22.434312455  114.335375011    44.2510   6   8   0.1871   0.2099   0.5095  -0.0620   0.1106  -0.0779   0.00    0.0
2026/01/15 01:37:30.000   22.434312443  114.335374988    44.2923   6   8   0.1866   0.2094   0.5080  -0.0619   0.1105  -0.0785   0.00    0.0
2026/01/15 01:38:00.000   22.434312434  114.335374965    44.3328   6   8   0.1862   0.2089   0.5066  -0.0618   0.1103  -0.0790   0.00    0.0
2026/01/15 01:38:30.000   22.434312428  114.335374943    44.3731   6   8   0.1858   0.2084   0.5052  -0.0617   0.1102  -0.0796   0.00    0.0
2026/01/15 01:39:00.000   22.434312422  114.335374920    44.4133   6   8   0.1853   0.2079   0.5039  -0.0616   0.1100  -0.0801   0.00    0.0
2026/01/15 01:39:30.000   22.434312415  114.335374897    44.4535   6   8   0.1849   0.2074   0.5025  -0.0616   0.1099  -0.0806   0.00    0.0
2026/01/15 01:40:00.000   22.434312407  114.335374874    44.4942   6   8   0.1845   0.2069   0.5011  -0.0615   0.1097  -0.0812   0.00    0.0
2026/01/15 01:40:30.000   22.434312398  114.335374853    44.5359   6   8   0.1841   0.2064   0.4998  -0.0614   0.1096  -0.0817   0.00    0.0
2026/01/15 01:41:00.000   22.434312390  114.335374835    44.5777   6   8   0.1837   0.2060   0.4985  -0.0613   0.1095  -0.0822   0.00    0.0
2026/01/15 01:41:30.000   22.434312383  114.335374817    44.6190   6   8   0.1833   0.2055   0.4971  -0.0612   0.1093  -0.0827   0.00    0.0
2026/01/15 01:42:00.000   22.434312376  114.335374797    44.6601   6   8   0.1829   0.2050   0.4958  -0.0612   0.1092  -0.0831   0.00    0.0
2026/01/15 01:42:30.000   22.434312367  114.335374776    44.7016   6   8   0.1825   0.2046   0.4945  -0.0611   0.1091  -0.0836   0.00    0.0
2026/01/15 01:43:00.000   22.434312359  114.335374755    44.7439   6   8   0.1821   0.2041   0.4932  -0.0610   0.1089  -0.0841   0.00    0.0
2026/01/15 01:43:30.000   22.434312349  114.335374736    44.7869   6   8   0.1817   0.2037   0.4920  -0.0610   0.1088  -0.0846   0.00    0.0
2026/01/15 01:44:00.000   22.434312340  114.335374715    44.8302   6   8   0.1813   0.2032   0.4907  -0.0609   0.1087  -0.0850   0.00    0.0
2026/01/15 01:44:30.000   22.434312331  114.335374694    44.8733   6   8   0.1809   0.2028   0.4895  -0.0608   0.1085  -0.0854   0.00    0.0
2026/01/15 01:45:00.000   22.434312322  114.335374673    44.9156   6   8   0.1805   0.2023   0.4882  -0.0608   0.1084  -0.0859   0.00    0.0
2026/01/15 01:45:30.000   22.434312313  114.335374653    44.9572   6   8   0.1801   0.2019   0.4870  -0.0607   0.1083  -0.0863   0.00    0.0
2026/01/15 01:46:00.000   22.434312304  114.335374634    44.9994   6   8   0.1797   0.2014   0.4858  -0.0607   0.1082  -0.0867   0.00    0.0
2026/01/15 01:46:30.000   22.434312294  114.335374614    45.0420   6   8   0.1794   0.2010   0.4846  -0.0606   0.1081  -0.0871   0.00    0.0
2026/01/15 01:47:00.000   22.434312284  114.335374594    45.0851   6   8   0.1790   0.2006   0.4834  -0.0605   0.1079  -0.0875   0.00    0.0
2026/01/15 01:47:30.000   22.434312273  114.335374573    45.1278   6   8   0.1786   0.2001   0.4822  -0.0605   0.1078  -0.0879   0.00    0.0
2026/01/15 01:48:00.000   22.434312261  114.335374555    45.1702   6   8   0.1782   0.1997   0.4810  -0.0604   0.1077  -0.0883   0.00    0.0
2026/01/15 01:48:30.000   22.434312248  114.335374540    45.2134   6   8   0.1779   0.1993   0.4798  -0.0604   0.1076  -0.0887   0.00    0.0
2026/01/15 01:49:00.000   22.434312234  114.335374528    45.2573   6   8   0.1775   0.1989   0.4787  -0.0603   0.1075  -0.0891   0.00    0.0
2026/01/15 01:49:30.000   22.434312221  114.335374516    45.3017   6   8   0.1771   0.1984   0.4775  -0.0603   0.1073  -0.0895   0.00    0.0
2026/01/15 01:50:00.000   22.434312209  114.335374503    45.3458   6   8   0.1768   0.1980   0.4764  -0.0602   0.1072  -0.0898   0.00    0.0
2026/01/15 01:50:30.000   22.434312197  114.335374491    45.3897   6   8   0.1764   0.1976   0.4753  -0.0601   0.1071  -0.0902   0.00    0.0
2026/01/15 01:51:00.000   22.434312185  114.335374481    45.4343   6   8   0.1761   0.1972   0.4742  -0.0601   0.1070  -0.0905   0.00    0.0
2026/01/15 01:51:30.000   22.434312172  114.335374472    45.4791   6   8   0.1757   0.1968   0.4731  -0.0600   0.1069  -0.0908   0.00    0.0
2026/01/15 01:52:00.000   22.434312160  114.335374462    45.5238   6   8   0.1754   0.1964   0.4720  -0.0600   0.1068  -0.0912   0.00    0.0
2026/01/15 01:52:30.000   22.434312147  114.335374451    45.5693   6   8   0.1750   0.1960   0.4709  -0.0599   0.1067  -0.0915   0.00    0.0
2026/01/15 01:53:00.000   22.434312134  114.335374439    45.6149   6   8   0.1747   0.1956   0.4698  -0.0599   0.1065  -0.0918   0.00    0.0
2026/01/15 01:53:30.000   22.434312120  114.335374427    45.6598   6   8   0.1743   0.1952   0.4688  -0.0598   0.1064  -0.0921   0.00    0.0
2026/01/15 01:54:00.000   22.434312104  114.335374414    45.7040   6   8   0.1740   0.1948   0.4677  -0.0598   0.1063  -0.0924   0.00    0.0
2026/01/15 01:54:30.000   22.434312087  114.335374399    45.7476   6   8   0.1737   0.1944   0.4667  -0.0597   0.1062  -0.0927   0.00    0.0
2026/01/15 01:55:00.000   22.434312068  114.335374385    45.7912   6   8   0.1733   0.1940   0.4656  -0.0597   0.1061  -0.0930   0.00    0.0
2026/01/15 01:55:30.000   22.434312049  114.335374375    45.8350   6   8   0.1730   0.1936   0.4646  -0.0596   0.1060  -0.0933   0.00    0.0
2026/01/15 01:56:00.000   22.434312031  114.335374364    45.8793   6   8   0.1727   0.1932   0.4636  -0.0596   0.1059  -0.0936   0.00    0.0
2026/01/15 01:56:30.000   22.434312013  114.335374354    45.9239   6   8   0.1723   0.1928   0.4626  -0.0595   0.1058  -0.0938   0.00    0.0
2026/01/15 01:57:00.000   22.434311995  114.335374345    45.9685   6   8   0.1720   0.1925   0.4616  -0.0595   0.1056  -0.0941   0.00    0.0
2026/01/15 01:57:30.000   22.434311978  114.335374337    46.0132   6   8   0.1717   0.1921   0.4606  -0.0594   0.1055  -0.0943   0.00    0.0
2026/01/15 01:58:00.000   22.434311961  114.335374328    46.0581   6   8   0.1714   0.1917   0.4596  -0.0593   0.1054  -0.0946   0.00    0.0
2026/01/15 01:58:30.000   22.434311941  114.335374319    46.1038   6   8   0.1710   0.1913   0.4586  -0.0593   0.1053  -0.0948   0.00    0.0
2026/01/15 01:59:00.000   22.434311920  114.335374310    46.1501   6   8   0.1707   0.1910   0.4577  -0.0592   0.1052  -0.0951   0.00    0.0
2026/01/15 01:59:30.000   22.434311899  114.335374301    46.1964   6   8   0.1704   0.1906   0.4567  -0.0592   0.1051  -0.0953   0.00    0.0
2026/01/15 02:00:00.000   22.434311875  114.335374313    46.2346   6   8   0.1701   0.1903   0.4558  -0.0591   0.1049  -0.0955   0.00    0.0
2026/01/15 02:00:30.000   22.434311850  114.335374324    46.2724   6   8   0.1698   0.1899   0.4550  -0.0590   0.1047  -0.0957   0.00    0.0
2026/01/15 02:01:00.000   22.434311825  114.335374336    46.3101   6   8   0.1695   0.1896   0.4541  -0.0589   0.1045  -0.0959   0.00    0.0
2026/01/15 02:01:30.000   22.434311800  114.335374350    46.3482   6   8   0.1692   0.1892   0.4533  -0.0588   0.1043  -0.0961   0.00    0.0
2026/01/15 02:02:00.000   22.434311773  114.335374364    46.3869   6   8   0.1689   0.1889   0.4524  -0.0588   0.1041  -0.0963   0.00    0.0
2026/01/15 02:02:30.000   22.434311746  114.335374378    46.4258   6   8   0.1686   0.1886   0.4516  -0.0587   0.1039  -0.0965   0.00    0.0
2026/01/15 02:03:00.000   22.434311719  114.335374392    46.4641   6   8   0.1683   0.1882   0.4508  -0.0586   0.1037  -0.0966   0.00    0.0
2026/01/15 02:03:30.000   22.434311692  114.335374404    46.5025   6   8   0.1680   0.1879   0.4499  -0.0585   0.1035  -0.0968   0.00    0.0
2026/01/15 02:04:00.000   22.434311666  114.335374416    46.5411   6   8   0.1677   0.1876   0.4491  -0.0584   0.1033  -0.0970   0.00    0.0
2026/01/15 02:04:30.000   22.434311641  114.335374429    46.5801   6   8   0.1674   0.1873   0.4483  -0.0583   0.1031  -0.0971   0.00    0.0
2026/01/15 02:05:00.000   22.434311617  114.335374443    46.6196   6   8   0.1671   0.1869   0.4475  -0.0582   0.1029  -0.0973   0.00    0.0
2026/01/15 02:05:30.000   22.434311592  114.335374459    46.6590   6   8   0.1668   0.1866   0.4467  -0.0582   0.1027  -0.0974   0.00    0.0
2026/01/15 02:06:00.000   22.434311568  114.335374472    46.6982   6   8   0.1665   0.1863   0.4459  -0.0581   0.1025  -0.0976   0.00    0.0
2026/01/15 02:06:30.000   22.434311542  114.335374484    46.7374   6   8   0.1662   0.1860   0.4451  -0.0580   0.1023  -0.0977   0.00    0.0
2026/01/15 02:07:00.000   22.434311515  114.335374496    46.7769   6   8   0.1659   0.1856   0.4444  -0.0579   0.1022  -0.0978   0.00    0.0
2026/01/15 02:07:30.000   22.434311486  114.335374509    46.8165   6   8   0.1656   0.1853   0.4436  -0.0578   0.1020  -0.0979   0.00    0.0
2026/01/15 02:08:00.000   22.434311457  114.335374524    46.8559   6   8   0.1653   0.1850   0.4428  -0.0577   0.1018  -0.0980   0.00    0.0
2026/01/15 02:08:30.000   22.434311428  114.335374540    46.8955   6   8   0.1650   0.1847   0.4421  -0.0576   0.1016  -0.0982   0.00    0.0
2026/01/15 02:09:00.000   22.434311400  114.335374558    46.9353   6   8   0.1647   0.1844   0.4413  -0.0575   0.1014  -0.0983   0.00    0.0
2026/01/15 02:09:30.000   22.434311373  114.335374575    46.9753   6   8   0.1645   0.1841   0.4406  -0.0575   0.1012  -0.0984   0.00    0.0
2026/01/15 02:10:00.000   22.434311345  114.335374593    47.0154   6   8   0.1642   0.1838   0.4398  -0.0574   0.1010  -0.0985   0.00    0.0
2026/01/15 02:10:30.000   22.434311293  114.335374598    47.0439   6   8   0.1639   0.1835   0.4392  -0.0573   0.1009  -0.0985   0.00    0.0
2026/01/15 02:11:00.000   22.434311237  114.335374605    47.0720   6   8   0.1636   0.1832   0.4385  -0.0572   0.1007  -0.0985   0.00    0.0
2026/01/15 02:11:30.000   22.434311184  114.335374612    47.1013   6   8   0.1634   0.1829   0.4379  -0.0571   0.1006  -0.0985   0.00    0.0
2026/01/15 02:12:00.000   22.434311124  114.335374615    47.1279   6   8   0.1631   0.1826   0.4371  -0.0570   0.1004  -0.0986   0.00    0.0
2026/01/15 02:12:30.000   22.434311063  114.335374617    47.1547   6   8   0.1628   0.1823   0.4364  -0.0569   0.1002  -0.0987   0.00    0.0
2026/01/15 02:13:00.000   22.434311002  114.335374617    47.1818   6   8   0.1625   0.1820   0.4357  -0.0568   0.1000  -0.0987   0.00    0.0
2026/01/15 02:13:30.000   22.434310941  114.335374615    47.2097   6   8   0.1622   0.1817   0.4350  -0.0567   0.0998  -0.0988   0.00    0.0
2026/01/15 02:14:00.000   22.434310880  114.335374613    47.2380   6   8   0.1619   0.1814   0.4343  -0.0566   0.0996  -0.0989   0.00    0.0
2026/01/15 02:14:30.000   22.434310821  114.335374612    47.2666   6   8   0.1616   0.1811   0.4336  -0.0566   0.0994  -0.0990   0.00    0.0
2026/01/15 02:15:00.000   22.434310765  114.335374611    47.2956   6   8   0.1613   0.1808   0.4330  -0.0565   0.0992  -0.0990   0.00    0.0
2026/01/15 02:15:30.000   22.434310709  114.335374610    47.3243   6   8   0.1611   0.1805   0.4323  -0.0564   0.0990  -0.0991   0.00    0.0
2026/01/15 02:16:00.000   22.434310653  114.335374607    47.3530   6   8   0.1608   0.1802   0.4316  -0.0563   0.0988  -0.0991   0.00    0.0
2026/01/15 02:16:30.000   22.434310597  114.335374604    47.3820   6   8   0.1605   0.1799   0.4309  -0.0562   0.0986  -0.0992   0.00    0.0
2026/01/15 02:17:00.000   22.434310541  114.335374602    47.4109   6   8   0.1602   0.1796   0.4303  -0.0562   0.0985  -0.0992   0.00    0.0
2026/01/15 02:17:30.000   22.434310485  114.335374599    47.4395   6   8   0.1599   0.1793   0.4296  -0.0561   0.0983  -0.0993   0.00    0.0
2026/01/15 02:18:00.000   22.434310429  114.335374596    47.4685   6   8   0.1596   0.1790   0.4289  -0.0560   0.0981  -0.0993   0.00    0.0
2026/01/15 02:18:30.000   22.434310373  114.335374592    47.4982   6   8   0.1594   0.1787   0.4283  -0.0559   0.0979  -0.0994   0.00    0.0
2026/01/15 02:19:00.000   22.434310318  114.335374587    47.5285   6   8   0.1591   0.1784   0.4276  -0.0558   0.0977  -0.0994   0.00    0.0
2026/01/15 02:19:30.000   22.434310266  114.335374582    47.5598   6   9   0.1588   0.1782   0.4270  -0.0557   0.0975  -0.0994   0.00    0.0
2026/01/15 02:20:00.000   22.434310215  114.335374578    47.5912   6   9   0.1585   0.1779   0.4263  -0.0557   0.0973  -0.0995   0.00    0.0
2026/01/15 02:20:30.000   22.434310162  114.335374577    47.6220   6   8   0.1582   0.1776   0.4257  -0.0556   0.0971  -0.0995   0.00    0.0
2026/01/15 02:21:00.000   22.434310109  114.335374575    47.6528   6   8   0.1580   0.1773   0.4250  -0.0555   0.0970  -0.0995   0.00    0.0
2026/01/15 02:21:30.000   22.434310056  114.335374574    47.6836   6   8   0.1577   0.1770   0.4244  -0.0554   0.0968  -0.0995   0.00    0.0
2026/01/15 02:22:00.000   22.434309997  114.335374571    47.7132   6   8   0.1574   0.1768   0.4238  -0.0553   0.0966  -0.0995   0.00    0.0
2026/01/15 02:22:30.000   22.434309939  114.335374570    47.7445   6   8   0.1571   0.1765   0.4232  -0.0552   0.0964  -0.0995   0.00    0.0
2026/01/15 02:23:00.000   22.434309882  114.335374567    47.7761   6   8   0.1569   0.1762   0.4225  -0.0551   0.0962  -0.0995   0.00    0.0
2026/01/15 02:23:30.000   22.434309826  114.335374565    47.8079   6   8   0.1566   0.1759   0.4219  -0.0551   0.0960  -0.0995   0.00    0.0
2026/01/15 02:24:00.000   22.434309768  114.335374561    47.8388   6   8   0.1563   0.1757   0.4213  -0.0550   0.0959  -0.0995   0.00    0.0
2026/01/15 02:24:30.000   22.434309711  114.335374558    47.8696   6   8   0.1560   0.1754   0.4207  -0.0549   0.0957  -0.0995   0.00    0.0
2026/01/15 02:25:00.000   22.434309659  114.335374555    47.9011   6   8   0.1558   0.1751   0.4201  -0.0548   0.0955  -0.0995   0.00    0.0
2026/01/15 02:25:30.000   22.434309603  114.335374549    47.9311   6   8   0.1555   0.1749   0.4195  -0.0547   0.0953  -0.0994   0.00    0.0
2026/01/15 02:26:00.000   22.434309551  114.335374545    47.9617   6   8   0.1552   0.1746   0.4189  -0.0546   0.0951  -0.0994   0.00    0.0
2026/01/15 02:26:30.000   22.434309497  114.335374538    47.9917   6   8   0.1549   0.1743   0.4183  -0.0545   0.0950  -0.0994   0.00    0.0
2026/01/15 02:27:00.000   22.434309443  114.335374530    48.0219   6   8   0.1547   0.1741   0.4177  -0.0544   0.0948  -0.0994   0.00    0.0
2026/01/15 02:27:30.000   22.434309392  114.335374526    48.0532   6   8   0.1544   0.1738   0.4171  -0.0544   0.0946  -0.0993   0.00    0.0
2026/01/15 02:28:00.000   22.434309346  114.335374516    48.0866   6   8   0.1541   0.1736   0.4165  -0.0543   0.0944  -0.0992   0.00    0.0
2026/01/15 02:28:30.000   22.434309301  114.335374504    48.1202   6   8   0.1539   0.1733   0.4160  -0.0542   0.0942  -0.0991   0.00    0.0
2026/01/15 02:29:00.000   22.434309257  114.335374492    48.1539   6   8   0.1536   0.1730   0.4154  -0.0541   0.0941  -0.0991   0.00    0.0
2026/01/15 02:29:30.000   22.434309214  114.335374480    48.1875   6   8   0.1533   0.1728   0.4149  -0.0541   0.0939  -0.0990   0.00    0.0
2026/01/15 02:30:00.000   22.434309170  114.335374470    48.2217   6   8   0.1531   0.1725   0.4143  -0.0540   0.0937  -0.0989   0.00    0.0
2026/01/15 02:30:30.000   22.434309127  114.335374459    48.2560   6   8   0.1528   0.1723   0.4138  -0.0539   0.0935  -0.0988   0.00    0.0
2026/01/15 02:31:00.000   22.434309084  114.335374450    48.2906   6   8   0.1526   0.1720   0.4132  -0.0538   0.0933  -0.0987   0.00    0.0
2026/01/15 02:31:30.000   22.434309041  114.335374441    48.3252   6   8   0.1523   0.1718   0.4127  -0.0537   0.0931  -0.0985   0.00    0.0
2026/01/15 02:32:00.000   22.434308997  114.335374431    48.3600   6   8   0.1521   0.1715   0.4122  -0.0537   0.0930  -0.0984   0.00    0.0
2026/01/15 02:32:30.000   22.434308952  114.335374420    48.3949   6   8   0.1518   0.1713   0.4116  -0.0536   0.0928  -0.0983   0.00    0.0
2026/01/15 02:33:00.000   22.434308907  114.335374408    48.4296   6   8   0.1515   0.1710   0.4111  -0.0535   0.0926  -0.0982   0.00    0.0
2026/01/15 02:33:30.000   22.434308861  114.335374396    48.4640   6   8   0.1513   0.1708   0.4106  -0.0534   0.0924  -0.0981   0.00    0.0
2026/01/15 02:34:00.000   22.434308813  114.335374384    48.4982   6   8   0.1510   0.1705   0.4100  -0.0533   0.0923  -0.0980   0.00    0.0
2026/01/15 02:34:30.000   22.434308766  114.335374372    48.5324   6   8   0.1508   0.1703   0.4095  -0.0533   0.0921  -0.0979   0.00    0.0
2026/01/15 02:35:00.000   22.434308721  114.335374359    48.5666   6   8   0.1505   0.1700   0.4090  -0.0532   0.0919  -0.0978   0.00    0.0
2026/01/15 02:35:30.000   22.434308676  114.335374345    48.6009   6   8   0.1503   0.1698   0.4085  -0.0531   0.0918  -0.0976   0.00    0.0
2026/01/15 02:36:00.000   22.434308632  114.335374332    48.6351   6   8   0.1500   0.1696   0.4079  -0.0530   0.0916  -0.0975   0.00    0.0
2026/01/15 02:36:30.000   22.434308588  114.335374319    48.6692   6   8   0.1497   0.1693   0.4074  -0.0529   0.0915  -0.0974   0.00    0.0
2026/01/15 02:37:00.000   22.434308546  114.335374305    48.7034   6   8   0.1495   0.1691   0.4069  -0.0528   0.0913  -0.0973   0.00    0.0
2026/01/15 02:37:30.000   22.434308504  114.335374289    48.7376   6   8   0.1492   0.1688   0.4064  -0.0528   0.0911  -0.0971   0.00    0.0
2026/01/15 02:38:00.000   22.434308462  114.335374272    48.7719   6   8   0.1490   0.1686   0.4058  -0.0527   0.0910  -0.0970   0.00    0.0
2026/01/15 02:38:30.000   22.434308420  114.335374255    48.8065   6   8   0.1487   0.1684   0.4053  -0.0526   0.0908  -0.0969   0.00    0.0
2026/01/15 02:39:00.000   22.434308378  114.335374240    48.8417   6   8   0.1485   0.1681   0.4048  -0.0525   0.0907  -0.0967   0.00    0.0
2026/01/15 02:39:30.000   22.434308336  114.335374227    48.8771   6   8   0.1482   0.1679   0.4043  -0.0524   0.0906  -0.0966   0.00    0.0
2026/01/15 02:40:00.000   22.434308295  114.335374213    48.9125   6   8   0.1480   0.1677   0.4038  -0.0523   0.0904  -0.0964   0.00    0.0
2026/01/15 02:40:30.000   22.434308255  114.335374200    48.9477   6   8   0.1477   0.1674   0.4033  -0.0523   0.0903  -0.0963   0.00    0.0
2026/01/15 02:41:00.000   22.434308214  114.335374186    48.9825   6   8   0.1475   0.1672   0.4027  -0.0522   0.0901  -0.0962   0.00    0.0
2026/01/15 02:41:30.000   22.434308174  114.335374171    49.0169   6   8   0.1472   0.1670   0.4022  -0.0521   0.0900  -0.0960   0.00    0.0
2026/01/15 02:42:00.000   22.434308135  114.335374155    49.0513   6   8   0.1470   0.1667   0.4017  -0.0520   0.0899  -0.0959   0.00    0.0
2026/01/15 02:42:30.000   22.434308098  114.335374140    49.0852   6   8   0.1467   0.1665   0.4012  -0.0519   0.0897  -0.0957   0.00    0.0
2026/01/15 02:43:00.000   22.434308061  114.335374125    49.1192   6   8   0.1465   0.1663   0.4007  -0.0518   0.0896  -0.0956   0.00    0.0
2026/01/15 02:43:30.000   22.434308023  114.335374110    49.1536   6   8   0.1463   0.1661   0.4002  -0.0518   0.0895  -0.0954   0.00    0.0
2026/01/15 02:44:00.000   22.434307984  114.335374095    49.1880   6   8   0.1460   0.1658   0.3997  -0.0517   0.0894  -0.0953   0.00    0.0
2026/01/15 02:44:30.000   22.434307943  114.335374079    49.2224   6   8   0.1458   0.1656   0.3992  -0.0516   0.0892  -0.0951   0.00    0.0
2026/01/15 02:45:00.000   22.434307901  114.335374064    49.2570   6   8   0.1455   0.1654   0.3986  -0.0515   0.0891  -0.0950   0.00    0.0
2026/01/15 02:45:30.000   22.434307859  114.335374048    49.2921   6   8   0.1453   0.1652   0.3981  -0.0514   0.0890  -0.0948   0.00    0.0
2026/01/15 02:46:00.000   22.434307817  114.335374033    49.3275   6   8   0.1450   0.1649   0.3976  -0.0514   0.0889  -0.0946   0.00    0.0
2026/01/15 02:46:30.000   22.434307776  114.335374017    49.3628   6   8   0.1448   0.1647   0.3971  -0.0513   0.0888  -0.0945   0.00    0.0
2026/01/15 02:47:00.000   22.434307737  114.335374002    49.3981   6   8   0.1446   0.1645   0.3966  -0.0512   0.0887  -0.0943   0.00    0.0
2026/01/15 02:47:30.000   22.434307699  114.335373985    49.4332   6   8   0.1443   0.1643   0.3961  -0.0511   0.0886  -0.0942   0.00    0.0
2026/01/15 02:48:00.000   22.434307659  114.335373970    49.4686   6   8   0.1441   0.1641   0.3956  -0.0510   0.0885  -0.0940   0.00    0.0
2026/01/15 02:48:30.000   22.434307618  114.335373955    49.5040   6   8   0.1438   0.1638   0.3951  -0.0510   0.0884  -0.0938   0.00    0.0
2026/01/15 02:49:00.000   22.434307576  114.335373941    49.5391   6   8   0.1436   0.1636   0.3946  -0.0509   0.0883  -0.0937   0.00    0.0
2026/01/15 02:49:30.000   22.434307536  114.335373925    49.5738   6   8   0.1434   0.1634   0.3941  -0.0508   0.0882  -0.0935   0.00    0.0
2026/01/15 02:50:00.000   22.434307499  114.335373908    49.6083   6   8   0.1431   0.1632   0.3936  -0.0507   0.0881  -0.0933   0.00    0.0
2026/01/15 02:50:30.000   22.434307464  114.335373889    49.6424   6   8   0.1429   0.1630   0.3931  -0.0507   0.0880  -0.0932   0.00    0.0
2026/01/15 02:51:00.000   22.434307430  114.335373867    49.6762   6   8   0.1427   0.1628   0.3926  -0.0506   0.0879  -0.0930   0.00    0.0
2026/01/15 02:51:30.000   22.434307397  114.335373845    49.7101   6   8   0.1424   0.1626   0.3921  -0.0505   0.0879  -0.0928   0.00    0.0
2026/01/15 02:52:00.000   22.434307363  114.335373822    49.7443   6   8   0.1422   0.1623   0.3916  -0.0504   0.0878  -0.0926   0.00    0.0
2026/01/15 02:52:30.000   22.434307327  114.335373799    49.7785   6   8   0.1420   0.1621   0.3911  -0.0504   0.0877  -0.0925   0.00    0.0
2026/01/15 02:53:00.000   22.434307291  114.335373778    49.8125   6   8   0.1417   0.1619   0.3906  -0.0503   0.0876  -0.0923   0.00    0.0
2026/01/15 02:53:30.000   22.434307255  114.335373756    49.8463   6   8   0.1415   0.1617   0.3901  -0.0502   0.0876  -0.0921   0.00    0.0
2026/01/15 02:54:00.000   22.434307220  114.335373735    49.8801   6   8   0.1413   0.1615   0.3896  -0.0501   0.0875  -0.0919   0.00    0.0
2026/01/15 02:54:30.000   22.434307185  114.335373716    49.9140   6   8   0.1411   0.1613   0.3891  -0.0501   0.0874  -0.0918   0.00    0.0
2026/01/15 02:55:00.000   22.434307149  114.335373699    49.9479   6   8   0.1408   0.1611   0.3886  -0.0500   0.0874  -0.0916   0.00    0.0
2026/01/15 02:55:30.000   22.434307114  114.335373681    49.9817   6   8   0.1406   0.1609   0.3881  -0.0499   0.0873  -0.0914   0.00    0.0
2026/01/15 02:56:00.000   22.434307079  114.335373662    50.0157   6   8   0.1404   0.1607   0.3876  -0.0499   0.0872  -0.0912   0.00    0.0
2026/01/15 02:56:30.000   22.434307051  114.335373628    50.0444   6   8   0.1402   0.1605   0.3870  -0.0498   0.0871  -0.0910   0.00    0.0
2026/01/15 02:57:00.000   22.434307024  114.335373594    50.0730   6   8   0.1399   0.1602   0.3864  -0.0497   0.0869  -0.0907   0.00    0.0
2026/01/15 02:57:30.000   22.434306997  114.335373559    50.1016   6   8   0.1397   0.1600   0.3858  -0.0496   0.0868  -0.0905   0.00    0.0
2026/01/15 02:58:00.000   22.434306972  114.335373524    50.1300   6   8   0.1395   0.1598   0.3853  -0.0495   0.0866  -0.0902   0.00    0.0
2026/01/15 02:58:30.000   22.434306949  114.335373490    50.1580   6   8   0.1393   0.1596   0.3847  -0.0494   0.0865  -0.0900   0.00    0.0
2026/01/15 02:59:00.000   22.434306926  114.335373456    50.1861   6   8   0.1390   0.1594   0.3841  -0.0493   0.0863  -0.0897   0.00    0.0
2026/01/15 02:59:30.000   22.434306904  114.335373421    50.2140   6   8   0.1388   0.1592   0.3835  -0.0492   0.0862  -0.0895   0.00    0.0
2026/01/15 03:00:00.000   22.434306880  114.335373381    50.2427   6   8   0.1386   0.1589   0.3830  -0.0491   0.0861  -0.0892   0.00    0.0
2026/01/15 03:00:30.000   22.434306856  114.335373340    50.2718   6   8   0.1383   0.1587   0.3824  -0.0490   0.0859  -0.0890   0.00    0.0
2026/01/15 03:01:00.000   22.434306832  114.335373300    50.3010   6   8   0.1381   0.1585   0.3818  -0.0489   0.0858  -0.0887   0.00    0.0
2026/01/15 03:01:30.000   22.434306808  114.335373261    50.3300   6   8   0.1379   0.1583   0.3813  -0.0488   0.0857  -0.0885   0.00    0.0
2026/01/15 03:02:00.000   22.434306783  114.335373222    50.3589   6   8   0.1376   0.1581   0.3807  -0.0487   0.0856  -0.0882   0.00    0.0
2026/01/15 03:02:30.000   22.434306757  114.335373184    50.3876   6   8   0.1374   0.1579   0.3801  -0.0486   0.0855  -0.0880   0.00    0.0
2026/01/15 03:03:00.000   22.434306730  114.335373146    50.4162   6   8   0.1372   0.1577   0.3795  -0.0485   0.0853  -0.0877   0.00    0.0
2026/01/15 03:03:30.000   22.434306705  114.335373108    50.4447   6   8   0.1369   0.1574   0.3790  -0.0484   0.0852  -0.0875   0.00    0.0
2026/01/15 03:04:00.000   22.434306682  114.335373069    50.4732   6   8   0.1367   0.1572   0.3784  -0.0483   0.0851  -0.0872   0.00    0.0
2026/01/15 03:04:30.000   22.434306659  114.335373030    50.5019   6   8   0.1365   0.1570   0.3778  -0.0482   0.0850  -0.0870   0.00    0.0
2026/01/15 03:05:00.000   22.434306635  114.335372992    50.5306   6   8   0.1363   0.1568   0.3773  -0.0481   0.0849  -0.0867   0.00    0.0
2026/01/15 03:05:30.000   22.434306612  114.335372955    50.5591   6   8   0.1360   0.1566   0.3767  -0.0480   0.0848  -0.0865   0.00    0.0
2026/01/15 03:06:00.000   22.434306589  114.335372919    50.5876   6   8   0.1358   0.1564   0.3761  -0.0479   0.0847  -0.0862   0.00    0.0
2026/01/15 03:06:30.000   22.434306564  114.335372888    50.6175   6   9   0.1356   0.1562   0.3756  -0.0478   0.0846  -0.0860   0.00    0.0
2026/01/15 03:07:00.000   22.434306541  114.335372853    50.6457   6   9   0.1354   0.1560   0.3750  -0.0477   0.0845  -0.0857   0.00    0.0
2026/01/15 03:07:30.000   22.434306520  114.335372815    50.6737   6   9   0.1352   0.1558   0.3745  -0.0477   0.0844  -0.0855   0.00    0.0
2026/01/15 03:08:00.000   22.434306498  114.335372777    50.7015   6   9   0.1349   0.1556   0.3739  -0.0476   0.0843  -0.0852   0.00    0.0
2026/01/15 03:08:30.000   22.434306475  114.335372739    50.7291   6   9   0.1347   0.1554   0.3733  -0.0475   0.0843  -0.0850   0.00    0.0
2026/01/15 03:09:00.000   22.434306452  114.335372701    50.7569   6   9   0.1345   0.1552   0.3728  -0.0474   0.0842  -0.0847   0.00    0.0
2026/01/15 03:09:30.000   22.434306429  114.335372662    50.7847   6   9   0.1343   0.1550   0.3722  -0.0473   0.0841  -0.0844   0.00    0.0
2026/01/15 03:10:00.000   22.434306410  114.335372631    50.8148   6   8   0.1341   0.1548   0.3717  -0.0472   0.0840  -0.0842   0.00    0.0
2026/01/15 03:10:30.000   22.434306392  114.335372599    50.8448   6   8   0.1339   0.1546   0.3711  -0.0472   0.0840  -0.0839   0.00    0.0
2026/01/15 03:11:00.000   22.434306375  114.335372566    50.8748   6   8   0.1337   0.1544   0.3706  -0.0471   0.0839  -0.0837   0.00    0.0
2026/01/15 03:11:30.000   22.434306358  114.335372534    50.9044   6   8   0.1335   0.1542   0.3701  -0.0470   0.0839  -0.0834   0.00    0.0
2026/01/15 03:12:00.000   22.434306340  114.335372503    50.9338   6   8   0.1333   0.1540   0.3695  -0.0469   0.0838  -0.0831   0.00    0.0
2026/01/15 03:12:30.000   22.434306313  114.335372470    50.9616   6   8   0.1331   0.1538   0.3690  -0.0468   0.0838  -0.0829   0.00    0.0
2026/01/15 03:13:00.000   22.434306287  114.335372445    50.9916   6   8   0.1329   0.1536   0.3685  -0.0468   0.0838  -0.0826   0.00    0.0
2026/01/15 03:13:30.000   22.434306265  114.335372411    51.0244   6   7   0.1327   0.1534   0.3680  -0.0467   0.0838  -0.0823   0.00    0.0
2026/01/15 03:14:00.000   22.434306243  114.335372379    51.0571   6   7   0.1325   0.1533   0.3675  -0.0466   0.0838  -0.0820   0.00    0.0
2026/01/15 03:14:30.000   22.434306221  114.335372347    51.0897   6   7   0.1323   0.1531   0.3670  -0.0465   0.0838  -0.0817   0.00    0.0
2026/01/15 03:15:00.000   22.434306199  114.335372317    51.1222   6   7   0.1321   0.1529   0.3666  -0.0464   0.0838  -0.0814   0.00    0.0
2026/01/15 03:15:30.000   22.434306178  114.335372290    51.1547   6   7   0.1319   0.1527   0.3661  -0.0464   0.0838  -0.0811   0.00    0.0
2026/01/15 03:16:00.000   22.434306142  114.335372269    51.1826   6   7   0.1317   0.1526   0.3656  -0.0463   0.0838  -0.0808   0.00    0.0
2026/01/15 03:16:30.000   22.434306106  114.335372250    51.2102   6   7   0.1315   0.1524   0.3652  -0.0462   0.0838  -0.0805   0.00    0.0
2026/01/15 03:17:00.000   22.434306070  114.335372231    51.2375   6   7   0.1313   0.1522   0.3647  -0.0461   0.0838  -0.0802   0.00    0.0
2026/01/15 03:17:30.000   22.434306034  114.335372211    51.2649   6   7   0.1311   0.1520   0.3642  -0.0461   0.0838  -0.0798   0.00    0.0
2026/01/15 03:18:00.000   22.434305998  114.335372191    51.2925   6   7   0.1310   0.1519   0.3638  -0.0460   0.0838  -0.0795   0.00    0.0
2026/01/15 03:18:30.000   22.434305962  114.335372171    51.3200   6   7   0.1308   0.1517   0.3633  -0.0460   0.0838  -0.0792   0.00    0.0
2026/01/15 03:19:00.000   22.434305927  114.335372152    51.3475   6   7   0.1306   0.1515   0.3629  -0.0459   0.0838  -0.0789   0.00    0.0
2026/01/15 03:19:30.000   22.434305893  114.335372132    51.3748   6   7   0.1304   0.1513   0.3624  -0.0458   0.0838  -0.0786   0.00    0.0
2026/01/15 03:20:00.000   22.434305861  114.335372112    51.4019   6   7   0.1302   0.1512   0.3619  -0.0458   0.0838  -0.0782   0.00    0.0
2026/01/15 03:20:30.000   22.434305829  114.335372091    51.4289   6   7   0.1301   0.1510   0.3615  -0.0457   0.0838  -0.0779   0.00    0.0
2026/01/15 03:21:00.000   22.434305799  114.335372069    51.4557   6   7   0.1299   0.1508   0.3610  -0.0457   0.0838  -0.0776   0.00    0.0
2026/01/15 03:21:30.000   22.434305767  114.335372049    51.4824   6   7   0.1297   0.1506   0.3606  -0.0456   0.0839  -0.0773   0.00    0.0
2026/01/15 03:22:00.000   22.434305736  114.335372029    51.5090   6   7   0.1295   0.1505   0.3601  -0.0456   0.0839  -0.0770   0.00    0.0
2026/01/15 03:22:30.000   22.434305704  114.335372009    51.5354   6   7   0.1294   0.1503   0.3597  -0.0455   0.0839  -0.0767   0.00    0.0
2026/01/15 03:23:00.000   22.434305673  114.335371990    51.5618   6   7   0.1292   0.1501   0.3592  -0.0454   0.0839  -0.0763   0.00    0.0
2026/01/15 03:23:30.000   22.434305643  114.335371969    51.5878   6   7   0.1290   0.1500   0.3588  -0.0454   0.0839  -0.0760   0.00    0.0
2026/01/15 03:24:00.000   22.434305615  114.335371946    51.6134   6   7   0.1288   0.1498   0.3583  -0.0453   0.0839  -0.0757   0.00    0.0
2026/01/15 03:24:30.000   22.434305588  114.335371921    51.6388   6   7   0.1287   0.1496   0.3579  -0.0453   0.0839  -0.0754   0.00    0.0
2026/01/15 03:25:00.000   22.434305561  114.335371897    51.6643   6   7   0.1285   0.1495   0.3574  -0.0452   0.0840  -0.0751   0.00    0.0
2026/01/15 03:25:30.000   22.434305533  114.335371875    51.6891   6   7   0.1283   0.1493   0.3570  -0.0452   0.0840  -0.0748   0.00    0.0
2026/01/15 03:26:00.000   22.434305506  114.335371852    51.7138   6   7   0.1282   0.1491   0.3565  -0.0452   0.0840  -0.0745   0.00    0.0
2026/01/15 03:26:30.000   22.434305479  114.335371831    51.7386   6   7   0.1280   0.1490   0.3561  -0.0451   0.0840  -0.0742   0.00    0.0
2026/01/15 03:27:00.000   22.434305450  114.335371811    51.7629   6   7   0.1279   0.1488   0.3556  -0.0451   0.0840  -0.0739   0.00    0.0
2026/01/15 03:27:30.000   22.434305421  114.335371794    51.7870   6   7   0.1277   0.1486   0.3552  -0.0450   0.0841  -0.0736   0.00    0.0
2026/01/15 03:28:00.000   22.434305394  114.335371777    51.8114   6   7   0.1275   0.1485   0.3547  -0.0450   0.0841  -0.0732   0.00    0.0
2026/01/15 03:28:30.000   22.434305368  114.335371761    51.8355   6   7   0.1274   0.1483   0.3543  -0.0449   0.0841  -0.0729   0.00    0.0
2026/01/15 03:29:00.000   22.434305342  114.335371746    51.8596   6   7   0.1272   0.1481   0.3539  -0.0449   0.0841  -0.0726   0.00    0.0
