% program   : RTKPOST ver.demo5 b34d
% inp file  : E:\Master courses\SNDP-PROJECT\Old_data\data\HKWS00HKG_R_20260150000_01D_30S_MO.rnx
% inp file  : E:\Master courses\SNDP-PROJECT\New_Data\nav\BRDC00IGS_R_20260150000_01D_MN.rnx
% inp file  : E:\Master courses\SNDP-PROJECT\New_Data\DATA_FINAL_ANT_EXTRA\COD0MGXFIN_20260150000_01D_05M_ORB.SP3
% inp file  : E:\Master courses\SNDP-PROJECT\New_Data\DATA_FINAL_ANT_EXTRA\COD0MGXFIN_20260150000_01D_30S_CLK.CLK
% obs start : 2026/01/15 00:00:00.0 GPST (week2401 345600.0s)
% obs end   : 2026/01/15 23:59:30.0 GPST (week2401 431970.0s)
% pos mode  : PPP Static
% solution  : Forward
% elev mask : 15.0 deg
% dynamics  : off
% tidecorr  : off
% tropo opt : Saastamoinen
% ephemeris : Precise
% navi sys  : GPS GLONASS Galileo QZSS BDS
% antenna1  : LEIAR25.R4      LEIT  ( 0.0000  0.0000  0.0083)
%
% (lat/lon/height=WGS84/ellipsoidal,Q=1:fix,2:float,3:sbas,4:dgps,5:single,6:ppp,ns=# of satellites)
%  GPST                  latitude(deg) longitude(deg)  height(m)   Q  ns   sdn(m)   sde(m)   sdu(m)  sdne(m)  sdeu(m)  sdun(m) age(s)  ratio
2026/01/15 00:00:00.000   22.434275769  114.335387904    64.3023   6  26   0.7668   0.9248   2.1611  -0.0936   0.2196  -0.5613   0.00    0.0
2026/01/15 00:00:30.000   22.434275674  114.335389520    64.4384   6  26   0.5422   0.6542   1.5268  -0.0664   0.1557  -0.3972   0.00    0.0
2026/01/15 00:01:00.000   22.434275570  114.335390305    64.6372   6  25   0.4474   0.5360   1.2699  -0.0759   0.0732  -0.2983   0.00    0.0
2026/01/15 00:01:30.000   22.434275160  114.335390757    64.7275   6  25   0.3898   0.4652   1.1100  -0.0746  -0.0251  -0.2445   0.00    0.0
2026/01/15 00:02:00.000   22.434274915  114.335390939    64.6891   6  25   0.3500   0.4167   0.9977  -0.0715  -0.0536  -0.2106   0.00    0.0
2026/01/15 00:02:30.000   22.434274231  114.335391185    64.5036   6  26   0.3182   0.3801   0.9022  -0.0611  -0.0167  -0.2005   0.00    0.0
2026/01/15 00:03:00.000   22.434273886  114.335390949    64.4923   6  26   0.2936   0.3516   0.8288  -0.0537   0.0314  -0.1906   0.00    0.0
2026/01/15 00:03:30.000   22.434273663  114.335390657    64.4665   6  26   0.2738   0.3286   0.7699  -0.0482   0.0404  -0.1814   0.00    0.0
2026/01/15 00:04:00.000   22.434273509  114.335390521    64.4368   6  26   0.2575   0.3096   0.7211  -0.0440   0.0443  -0.1732   0.00    0.0
2026/01/15 00:04:30.000   22.434273438  114.335390550    64.4275   6  26   0.2437   0.2935   0.6799  -0.0405   0.0460  -0.1658   0.00    0.0
2026/01/15 00:05:00.000   22.434273506  114.335390495    64.3932   6  26   0.2318   0.2796   0.6444  -0.0377   0.0467  -0.1592   0.00    0.0
2026/01/15 00:05:30.000   22.434273721  114.335390377    64.3178   6  26   0.2215   0.2676   0.6134  -0.0353   0.0468  -0.1533   0.00    0.0
2026/01/15 00:06:00.000   22.434273983  114.335390119    64.2208   6  26   0.2124   0.2569   0.5860  -0.0333   0.0466  -0.1479   0.00    0.0
2026/01/15 00:06:30.000   22.434274210  114.335389892    64.1312   6  26   0.2042   0.2475   0.5617  -0.0315   0.0461  -0.1431   0.00    0.0
2026/01/15 00:07:00.000   22.434274357  114.335389696    64.0681   6  26   0.1970   0.2390   0.5399  -0.0300   0.0455  -0.1386   0.00    0.0
2026/01/15 00:07:30.000   22.434274386  114.335389554    64.0357   6  26   0.1904   0.2313   0.5203  -0.0286   0.0449  -0.1346   0.00    0.0
2026/01/15 00:08:00.000   22.434274397  114.335389355    64.0291   6  26   0.1844   0.2243   0.5020  -0.0274   0.0442  -0.1308   0.00    0.0
2026/01/15 00:08:30.000   22.434274438  114.335389066    64.0294   6  26   0.1788   0.2179   0.4850  -0.0263   0.0435  -0.1273   0.00    0.0
2026/01/15 00:09:00.000   22.434274508  114.335388786    64.0298   6  26   0.1737   0.2119   0.4690  -0.0252   0.0427  -0.1240   0.00    0.0
2026/01/15 00:09:30.000   22.434274598  114.335388589    64.0174   6  26   0.1689   0.2064   0.4541  -0.0242   0.0419  -0.1208   0.00    0.0
2026/01/15 00:10:00.000   22.434274615  114.335388433    64.0074   6  26   0.1644   0.2013   0.4402  -0.0233   0.0412  -0.1179   0.00    0.0
2026/01/15 00:10:30.000   22.434274571  114.335388314    63.9884   6  26   0.1602   0.1966   0.4272  -0.0224   0.0404  -0.1152   0.00    0.0
2026/01/15 00:11:00.000   22.434274518  114.335388186    63.9632   6  26   0.1563   0.1921   0.4150  -0.0217   0.0397  -0.1126   0.00    0.0
2026/01/15 00:11:30.000   22.434274523  114.335388029    63.9410   6  26   0.1527   0.1880   0.4037  -0.0210   0.0390  -0.1102   0.00    0.0
2026/01/15 00:12:00.000   22.434274614  114.335387936    63.9292   6  26   0.1493   0.1841   0.3933  -0.0203   0.0384  -0.1079   0.00    0.0
2026/01/15 00:12:30.000   22.434274663  114.335387901    63.9150   6  26   0.1461   0.1804   0.3835  -0.0197   0.0377  -0.1058   0.00    0.0
2026/01/15 00:13:00.000   22.434274713  114.335387865    63.8957   6  26   0.1430   0.1769   0.3740  -0.0191   0.0371  -0.1037   0.00    0.0
2026/01/15 00:13:30.000   22.434274790  114.335387825    63.8685   6  26   0.1401   0.1736   0.3647  -0.0185   0.0365  -0.1017   0.00    0.0
2026/01/15 00:14:00.000   22.434274876  114.335387750    63.8541   6  26   0.1372   0.1705   0.3557  -0.0179   0.0358  -0.0998   0.00    0.0
2026/01/15 00:14:30.000   22.434274923  114.335387672    63.8371   6  26   0.1345   0.1675   0.3470  -0.0174   0.0352  -0.0979   0.00    0.0
2026/01/15 00:15:00.000   22.434274905  114.335387601    63.8152   6  26   0.1319   0.1646   0.3386  -0.0168   0.0346  -0.0962   0.00    0.0
2026/01/15 00:15:30.000   22.434274876  114.335387532    63.7885   6  26   0.1294   0.1619   0.3307  -0.0163   0.0340  -0.0945   0.00    0.0
2026/01/15 00:16:00.000   22.434274870  114.335387494    63.7561   6  26   0.1271   0.1592   0.3232  -0.0158   0.0335  -0.0928   0.00    0.0
2026/01/15 00:16:30.000   22.434274890  114.335387479    63.7173   6  26   0.1248   0.1568   0.3161  -0.0154   0.0329  -0.0913   0.00    0.0
2026/01/15 00:17:00.000   22.434274930  114.335387452    63.6683   6  26   0.1227   0.1544   0.3095  -0.0149   0.0324  -0.0898   0.00    0.0
2026/01/15 00:17:30.000   22.434274997  114.335387400    63.6154   6  26   0.1207   0.1521   0.3034  -0.0146   0.0320  -0.0884   0.00    0.0
2026/01/15 00:18:00.000   22.434275130  114.335387296    63.5577   6  26   0.1187   0.1500   0.2972  -0.0142   0.0315  -0.0871   0.00    0.0
2026/01/15 00:18:30.000   22.434275291  114.335387238    63.4991   6  26   0.1167   0.1478   0.2910  -0.0138   0.0310  -0.0857   0.00    0.0
2026/01/15 00:19:00.000   22.434275422  114.335387251    63.4496   6  26   0.1148   0.1458   0.2849  -0.0133   0.0305  -0.0844   0.00    0.0
2026/01/15 00:19:30.000   22.434275521  114.335387249    63.4195   6  26   0.1130   0.1438   0.2790  -0.0129   0.0300  -0.0831   0.00    0.0
2026/01/15 00:20:00.000   22.434275585  114.335387226    63.4051   6  26   0.1112   0.1419   0.2732  -0.0125   0.0296  -0.0818   0.00    0.0
2026/01/15 00:20:30.000   22.434275627  114.335387232    63.4006   6  26   0.1094   0.1400   0.2677  -0.0121   0.0291  -0.0806   0.00    0.0
2026/01/15 00:21:00.000   22.434275649  114.335387246    63.3984   6  26   0.1078   0.1382   0.2624  -0.0118   0.0287  -0.0795   0.00    0.0
2026/01/15 00:21:30.000   22.434275650  114.335387261    63.3936   6  26   0.1062   0.1365   0.2575  -0.0114   0.0283  -0.0783   0.00    0.0
2026/01/15 00:22:00.000   22.434275628  114.335387241    63.3925   6  26   0.1046   0.1348   0.2529  -0.0111   0.0279  -0.0773   0.00    0.0
2026/01/15 00:22:30.000   22.434275616  114.335387185    63.3926   6  26   0.1032   0.1333   0.2485  -0.0108   0.0275  -0.0763   0.00    0.0
2026/01/15 00:23:00.000   22.434275638  114.335387116    63.4007   6  26   0.1018   0.1317   0.2441  -0.0106   0.0272  -0.0753   0.00    0.0
2026/01/15 00:23:30.000   22.434275653  114.335387096    63.4166   6  26   0.1003   0.1302   0.2397  -0.0102   0.0268  -0.0743   0.00    0.0
2026/01/15 00:24:00.000   22.434275649  114.335387106    63.4305   6  27   0.0989   0.1286   0.2351  -0.0094   0.0257  -0.0731   0.00    0.0
2026/01/15 00:24:30.000   22.434275660  114.335387097    63.4393   6  25   0.0975   0.1271   0.2313  -0.0088   0.0242  -0.0721   0.00    0.0
2026/01/15 00:25:00.000   22.434275669  114.335387078    63.4470   6  25   0.0962   0.1257   0.2275  -0.0082   0.0227  -0.0712   0.00    0.0
2026/01/15 00:25:30.000   22.434275665  114.335387081    63.4492   6  27   0.0949   0.1242   0.2236  -0.0065   0.0210  -0.0702   0.00    0.0
2026/01/15 00:26:00.000   22.434275683  114.335387099    63.4462   6  27   0.0936   0.1228   0.2199  -0.0045   0.0194  -0.0693   0.00    0.0
2026/01/15 00:26:30.000   22.434275709  114.335387095    63.4366   6  27   0.0923   0.1214   0.2165   0.0007   0.0178  -0.0685   0.00    0.0
2026/01/15 00:27:00.000   22.434275768  114.335387039    63.4276   6  27   0.0911   0.1201   0.2132   0.0043   0.0162  -0.0677   0.00    0.0
2026/01/15 00:27:30.000   22.434275837  114.335386927    63.4154   6  27   0.0900   0.1189   0.2101   0.0059   0.0146  -0.0669   0.00    0.0
2026/01/15 00:28:00.000   22.434275926  114.335386796    63.4006   6  27   0.0889   0.1176   0.2069   0.0071   0.0130  -0.0661   0.00    0.0
2026/01/15 00:28:30.000   22.434276031  114.335386701    63.3838   6  27   0.0877   0.1164   0.2037   0.0081   0.0113  -0.0653   0.00    0.0
2026/01/15 00:29:00.000   22.434276166  114.335386629    63.3690   6  27   0.0866   0.1151   0.2005   0.0088   0.0096  -0.0645   0.00    0.0
2026/01/15 00:29:30.000   22.434276316  114.335386573    63.3511   6  27   0.0855   0.1139   0.1973   0.0095   0.0077  -0.0637   0.00    0.0
2026/01/15 00:30:00.000   22.434276460  114.335386528    63.3335   6  27   0.0844   0.1128   0.1942   0.0100   0.0055  -0.0630   0.00    0.0
2026/01/15 00:30:30.000   22.434276581  114.335386477    63.3149   6  27   0.0833   0.1116   0.1912   0.0105   0.0018  -0.0622   0.00    0.0
2026/01/15 00:31:00.000   22.434276698  114.335386397    63.3010   6  26   0.0823   0.1105   0.1883   0.0107  -0.0054  -0.0614   0.00    0.0
2026/01/15 00:31:30.000   22.434276809  114.335386302    63.2890   6  26   0.0813   0.1095   0.1856   0.0108  -0.0077  -0.0606   0.00    0.0
2026/01/15 00:32:00.000   22.434276911  114.335386198    63.2746   6  26   0.0804   0.1084   0.1831   0.0110  -0.0093  -0.0599   0.00    0.0
2026/01/15 00:32:30.000   22.434277008  114.335386107    63.2600   6  26   0.0795   0.1074   0.1808   0.0111  -0.0105  -0.0592   0.00    0.0
2026/01/15 00:33:00.000   22.434277087  114.335386041    63.2494   6  26   0.0786   0.1065   0.1783   0.0112  -0.0115  -0.0585   0.00    0.0
2026/01/15 00:33:30.000   22.434277156  114.335386027    63.2425   6  26   0.0777   0.1055   0.1758   0.0112  -0.0123  -0.0578   0.00    0.0
2026/01/15 00:34:00.000   22.434277224  114.335386049    63.2411   6  26   0.0768   0.1045   0.1733   0.0113  -0.0129  -0.0571   0.00    0.0
2026/01/15 00:34:30.000   22.434277280  114.335386108    63.2424   6  26   0.0759   0.1035   0.1707   0.0113  -0.0135  -0.0564   0.00    0.0
2026/01/15 00:35:00.000   22.434277303  114.335386218    63.2447   6  27   0.0750   0.1026   0.1682   0.0115  -0.0137  -0.0558   0.00    0.0
2026/01/15 00:35:30.000   22.434277339  114.335386302    63.2499   6  26   0.0741   0.1016   0.1658   0.0115  -0.0141  -0.0552   0.00    0.0
2026/01/15 00:36:00.000   22.434277378  114.335386371    63.2527   6  26   0.0732   0.1007   0.1639   0.0115  -0.0144  -0.0545   0.00    0.0
2026/01/15 00:36:30.000   22.434277412  114.335386425    63.2554   6  26   0.0724   0.0999   0.1621   0.0115  -0.0147  -0.0539   0.00    0.0
2026/01/15 00:37:00.000   22.434277453  114.335386482    63.2587   6  26   0.0717   0.0990   0.1604   0.0115  -0.0150  -0.0532   0.00    0.0
2026/01/15 00:37:30.000   22.434277514  114.335386538    63.2593   6  26   0.0710   0.0982   0.1588   0.0115  -0.0153  -0.0527   0.00    0.0
2026/01/15 00:38:00.000   22.434277594  114.335386565    63.2547   6  26   0.0702   0.0974   0.1573   0.0116  -0.0150  -0.0520   0.00    0.0
2026/01/15 00:38:30.000   22.434277690  114.335386574    63.2485   6  26   0.0695   0.0966   0.1558   0.0116  -0.0148  -0.0513   0.00    0.0
2026/01/15 00:39:00.000   22.434277800  114.335386556    63.2434   6  26   0.0687   0.0958   0.1542   0.0116  -0.0144  -0.0506   0.00    0.0
2026/01/15 00:39:30.000   22.434277907  114.335386527    63.2360   6  26   0.0680   0.0950   0.1527   0.0117  -0.0141  -0.0499   0.00    0.0
2026/01/15 00:40:00.000   22.434278007  114.335386488    63.2276   6  26   0.0672   0.0942   0.1511   0.0117  -0.0137  -0.0492   0.00    0.0
2026/01/15 00:40:30.000   22.434278056  114.335386479    63.2145   6  27   0.0665   0.0934   0.1496   0.0118  -0.0131  -0.0486   0.00    0.0
2026/01/15 00:41:00.000   22.434278078  114.335386487    63.2023   6  27   0.0657   0.0926   0.1481   0.0119  -0.0126  -0.0480   0.00    0.0
2026/01/15 00:41:30.000   22.434278072  114.335386494    63.1941   6  27   0.0650   0.0919   0.1467   0.0120  -0.0122  -0.0475   0.00    0.0
2026/01/15 00:42:00.000   22.434278042  114.335386489    63.1906   6  27   0.0644   0.0911   0.1454   0.0120  -0.0117  -0.0470   0.00    0.0
2026/01/15 00:42:30.000   22.434278006  114.335386489    63.1912   6  27   0.0638   0.0905   0.1441   0.0121  -0.0114  -0.0465   0.00    0.0
2026/01/15 00:43:00.000   22.434277972  114.335386500    63.1953   6  27   0.0631   0.0898   0.1428   0.0121  -0.0109  -0.0460   0.00    0.0
2026/01/15 00:43:30.000   22.434277966  114.335386490    63.2061   6  26   0.0625   0.0891   0.1415   0.0121  -0.0105  -0.0454   0.00    0.0
2026/01/15 00:44:00.000   22.434277945  114.335386501    63.2134   6  27   0.0618   0.0883   0.1401   0.0121  -0.0099  -0.0449   0.00    0.0
2026/01/15 00:44:30.000   22.434277944  114.335386502    63.2205   6  27   0.0612   0.0876   0.1387   0.0121  -0.0093  -0.0444   0.00    0.0
2026/01/15 00:45:00.000   22.434277966  114.335386511    63.2201   6  27   0.0605   0.0869   0.1373   0.0121  -0.0087  -0.0439   0.00    0.0
2026/01/15 00:45:30.000   22.434278004  114.335386534    63.2162   6  27   0.0599   0.0863   0.1359   0.0121  -0.0080  -0.0434   0.00    0.0
2026/01/15 00:46:00.000   22.434278052  114.335386540    63.2118   6  27   0.0593   0.0856   0.1346   0.0121  -0.0073  -0.0429   0.00    0.0
2026/01/15 00:46:30.000   22.434278108  114.335386542    63.2084   6  27   0.0587   0.0849   0.1334   0.0121  -0.0067  -0.0425   0.00    0.0
2026/01/15 00:47:00.000   22.434278168  114.335386571    63.2042   6  27   0.0581   0.0843   0.1322   0.0121  -0.0061  -0.0420   0.00    0.0
2026/01/15 00:47:30.000   22.434278240  114.335386603    63.2012   6  27   0.0576   0.0837   0.1311   0.0120  -0.0055  -0.0416   0.00    0.0
2026/01/15 00:48:00.000   22.434278313  114.335386622    63.2012   6  27   0.0571   0.0831   0.1299   0.0120  -0.0047  -0.0412   0.00    0.0
2026/01/15 00:48:30.000   22.434278362  114.335386632    63.2019   6  26   0.0565   0.0825   0.1287   0.0120  -0.0038  -0.0408   0.00    0.0
2026/01/15 00:49:00.000   22.434278390  114.335386642    63.2033   6  26   0.0559   0.0819   0.1275   0.0119  -0.0024  -0.0404   0.00    0.0
2026/01/15 00:49:30.000   22.434278418  114.335386653    63.2054   6  26   0.0554   0.0813   0.1264   0.0119   0.0029  -0.0399   0.00    0.0
2026/01/15 00:50:00.000   22.434278447  114.335386668    63.2053   6  26   0.0548   0.0807   0.1252   0.0119   0.0047  -0.0394   0.00    0.0
2026/01/15 00:50:30.000   22.434278486  114.335386679    63.2051   6  26   0.0543   0.0801   0.1241   0.0119   0.0059  -0.0389   0.00    0.0
2026/01/15 00:51:00.000   22.434278522  114.335386683    63.2057   6  26   0.0538   0.0795   0.1230   0.0119   0.0068  -0.0385   0.00    0.0
2026/01/15 00:51:30.000   22.434278546  114.335386693    63.2069   6  26   0.0533   0.0789   0.1220   0.0119   0.0076  -0.0380   0.00    0.0
2026/01/15 00:52:00.000   22.434278562  114.335386718    63.2050   6  26   0.0528   0.0784   0.1210   0.0119   0.0082  -0.0376   0.00    0.0
2026/01/15 00:52:30.000   22.434278582  114.335386748    63.2010   6  26   0.0524   0.0779   0.1201   0.0118   0.0086  -0.0372   0.00    0.0
2026/01/15 00:53:00.000   22.434278602  114.335386783    63.1966   6  26   0.0520   0.0774   0.1192   0.0118   0.0091  -0.0368   0.00    0.0
2026/01/15 00:53:30.000   22.434278622  114.335386818    63.1908   6  26   0.0515   0.0768   0.1182   0.0118   0.0096  -0.0365   0.00    0.0
2026/01/15 00:54:00.000   22.434278647  114.335386832    63.1858   6  26   0.0510   0.0763   0.1171   0.0117   0.0101  -0.0361   0.00    0.0
2026/01/15 00:54:30.000   22.434278685  114.335386805    63.1845   6  25   0.0505   0.0758   0.1161   0.0116   0.0105  -0.0356   0.00    0.0
2026/01/15 00:55:00.000   22.434278724  114.335386778    63.1854   6  25   0.0501   0.0752   0.1151   0.0115   0.0109  -0.0352   0.00    0.0
2026/01/15 00:55:30.000   22.434278767  114.335386746    63.1865   6  24   0.0496   0.0747   0.1141   0.0115   0.0112  -0.0348   0.00    0.0
2026/01/15 00:56:00.000   22.434278812  114.335386701    63.1868   6  24   0.0492   0.0742   0.1131   0.0114   0.0115  -0.0345   0.00    0.0
2026/01/15 00:56:30.000   22.434278854  114.335386660    63.1862   6  24   0.0487   0.0737   0.1122   0.0113   0.0117  -0.0341   0.00    0.0
2026/01/15 00:57:00.000   22.434278898  114.335386621    63.1846   6  24   0.0484   0.0732   0.1114   0.0112   0.0120  -0.0338   0.00    0.0
2026/01/15 00:57:30.000   22.434278941  114.335386592    63.1826   6  24   0.0480   0.0728   0.1106   0.0111   0.0123  -0.0334   0.00    0.0
2026/01/15 00:58:00.000   22.434278987  114.335386571    63.1810   6  24   0.0476   0.0723   0.1098   0.0110   0.0125  -0.0331   0.00    0.0
2026/01/15 00:58:30.000   22.434279024  114.335386534    63.1800   6  24   0.0472   0.0719   0.1089   0.0109   0.0128  -0.0328   0.00    0.0
2026/01/15 00:59:00.000   22.434279052  114.335386497    63.1798   6  24   0.0468   0.0714   0.1080   0.0109   0.0131  -0.0324   0.00    0.0
2026/01/15 00:59:30.000   22.434279070  114.335386463    63.1792   6  24   0.0464   0.0709   0.1071   0.0108   0.0134  -0.0321   0.00    0.0
2026/01/15 01:00:00.000   22.434279097  114.335386417    63.1778   6  24   0.0460   0.0705   0.1062   0.0107   0.0136  -0.0318   0.00    0.0
2026/01/15 01:00:30.000   22.434279124  114.335386370    63.1769   6  24   0.0456   0.0700   0.1053   0.0106   0.0139  -0.0315   0.00    0.0
2026/01/15 01:01:00.000   22.434279153  114.335386336    63.1771   6  24   0.0452   0.0696   0.1045   0.0105   0.0141  -0.0312   0.00    0.0
2026/01/15 01:01:30.000   22.434279190  114.335386327    63.1775   6  24   0.0448   0.0691   0.1037   0.0104   0.0143  -0.0309   0.00    0.0
2026/01/15 01:02:00.000   22.434279215  114.335386345    63.1763   6  25   0.0444   0.0687   0.1029   0.0103   0.0144  -0.0306   0.00    0.0
2026/01/15 01:02:30.000   22.434279235  114.335386357    63.1749   6  25   0.0441   0.0683   0.1022   0.0103   0.0146  -0.0304   0.00    0.0
2026/01/15 01:03:00.000   22.434279250  114.335386373    63.1749   6  25   0.0438   0.0679   0.1015   0.0102   0.0147  -0.0301   0.00    0.0
2026/01/15 01:03:30.000   22.434279263  114.335386387    63.1759   6  25   0.0434   0.0675   0.1007   0.0102   0.0149  -0.0299   0.00    0.0
2026/01/15 01:04:00.000   22.434279273  114.335386399    63.1771   6  25   0.0430   0.0671   0.0999   0.0101   0.0150  -0.0296   0.00    0.0
2026/01/15 01:04:30.000   22.434279277  114.335386417    63.1792   6  25   0.0427   0.0666   0.0990   0.0100   0.0152  -0.0294   0.00    0.0
2026/01/15 01:05:00.000   22.434279275  114.335386447    63.1826   6  25   0.0423   0.0662   0.0982   0.0099   0.0153  -0.0291   0.00    0.0
2026/01/15 01:05:30.000   22.434279255  114.335386494    63.1857   6  25   0.0419   0.0658   0.0974   0.0098   0.0155  -0.0289   0.00    0.0
2026/01/15 01:06:00.000   22.434279231  114.335386536    63.1884   6  25   0.0416   0.0654   0.0967   0.0097   0.0156  -0.0287   0.00    0.0
2026/01/15 01:06:30.000   22.434279209  114.335386568    63.1916   6  25   0.0413   0.0650   0.0959   0.0097   0.0157  -0.0284   0.00    0.0
2026/01/15 01:07:00.000   22.434279190  114.335386587    63.1961   6  25   0.0409   0.0646   0.0952   0.0096   0.0157  -0.0282   0.00    0.0
2026/01/15 01:07:30.000   22.434279175  114.335386609    63.2004   6  24   0.0407   0.0642   0.0946   0.0095   0.0158  -0.0280   0.00    0.0
2026/01/15 01:08:00.000   22.434279163  114.335386636    63.2053   6  24   0.0403   0.0639   0.0939   0.0094   0.0158  -0.0278   0.00    0.0
2026/01/15 01:08:30.000   22.434279162  114.335386667    63.2083   6  24   0.0400   0.0635   0.0932   0.0093   0.0158  -0.0276   0.00    0.0
2026/01/15 01:09:00.000   22.434279156  114.335386695    63.2094   6  24   0.0397   0.0631   0.0925   0.0092   0.0159  -0.0274   0.00    0.0
2026/01/15 01:09:30.000   22.434279156  114.335386711    63.2091   6  24   0.0394   0.0627   0.0918   0.0091   0.0159  -0.0272   0.00    0.0
2026/01/15 01:10:00.000   22.434279160  114.335386717    63.2099   6  24   0.0391   0.0623   0.0911   0.0090   0.0160  -0.0270   0.00    0.0
2026/01/15 01:10:30.000   22.434279171  114.335386725    63.2102   6  24   0.0387   0.0619   0.0903   0.0089   0.0160  -0.0268   0.00    0.0
2026/01/15 01:11:00.000   22.434279187  114.335386722    63.2094   6  24   0.0384   0.0616   0.0897   0.0088   0.0160  -0.0266   0.00    0.0
2026/01/15 01:11:30.000   22.434279206  114.335386720    63.2084   6  24   0.0381   0.0612   0.0890   0.0087   0.0160  -0.0264   0.00    0.0
2026/01/15 01:12:00.000   22.434279226  114.335386716    63.2084   6  24   0.0379   0.0609   0.0884   0.0086   0.0160  -0.0263   0.00    0.0
2026/01/15 01:12:30.000   22.434279237  114.335386711    63.2087   6  24   0.0376   0.0605   0.0878   0.0086   0.0161  -0.0261   0.00    0.0
2026/01/15 01:13:00.000   22.434279249  114.335386701    63.2103   6  24   0.0373   0.0602   0.0872   0.0085   0.0161  -0.0259   0.00    0.0
2026/01/15 01:13:30.000   22.434279265  114.335386688    63.2134   6  25   0.0371   0.0599   0.0866   0.0084   0.0162  -0.0258   0.00    0.0
2026/01/15 01:14:00.000   22.434279281  114.335386676    63.2166   6  25   0.0368   0.0595   0.0860   0.0083   0.0162  -0.0256   0.00    0.0
2026/01/15 01:14:30.000   22.434279290  114.335386666    63.2196   6  25   0.0365   0.0592   0.0853   0.0082   0.0162  -0.0254   0.00    0.0
2026/01/15 01:15:00.000   22.434279299  114.335386658    63.2216   6  25   0.0362   0.0589   0.0847   0.0081   0.0163  -0.0253   0.00    0.0
2026/01/15 01:15:30.000   22.434279313  114.335386648    63.2222   6  25   0.0359   0.0585   0.0840   0.0080   0.0163  -0.0251   0.00    0.0
2026/01/15 01:16:00.000   22.434279325  114.335386639    63.2229   6  25   0.0357   0.0582   0.0834   0.0080   0.0163  -0.0249   0.00    0.0
2026/01/15 01:16:30.000   22.434279337  114.335386619    63.2235   6  25   0.0354   0.0579   0.0828   0.0079   0.0164  -0.0248   0.00    0.0
2026/01/15 01:17:00.000   22.434279346  114.335386607    63.2231   6  25   0.0352   0.0576   0.0823   0.0078   0.0164  -0.0246   0.00    0.0
2026/01/15 01:17:30.000   22.434279352  114.335386590    63.2221   6  25   0.0349   0.0573   0.0818   0.0077   0.0164  -0.0245   0.00    0.0
2026/01/15 01:18:00.000   22.434279361  114.335386566    63.2226   6  26   0.0347   0.0570   0.0812   0.0076   0.0164  -0.0244   0.00    0.0
2026/01/15 01:18:30.000   22.434279369  114.335386544    63.2232   6  26   0.0344   0.0567   0.0807   0.0075   0.0164  -0.0242   0.00    0.0
2026/01/15 01:19:00.000   22.434279378  114.335386524    63.2248   6  26   0.0342   0.0563   0.0801   0.0074   0.0164  -0.0241   0.00    0.0
2026/01/15 01:19:30.000   22.434279385  114.335386498    63.2259   6  26   0.0339   0.0560   0.0795   0.0073   0.0164  -0.0240   0.00    0.0
2026/01/15 01:20:00.000   22.434279392  114.335386468    63.2281   6  26   0.0337   0.0557   0.0789   0.0072   0.0164  -0.0238   0.00    0.0
2026/01/15 01:20:30.000   22.434279398  114.335386440    63.2297   6  27   0.0334   0.0554   0.0783   0.0072   0.0164  -0.0237   0.00    0.0
2026/01/15 01:21:00.000   22.434279405  114.335386411    63.2311   6  27   0.0332   0.0551   0.0778   0.0071   0.0164  -0.0236   0.00    0.0
2026/01/15 01:21:30.000   22.434279409  114.335386377    63.2330   6  26   0.0330   0.0548   0.0773   0.0069   0.0165  -0.0235   0.00    0.0
2026/01/15 01:22:00.000   22.434279414  114.335386352    63.2351   6  26   0.0328   0.0545   0.0768   0.0067   0.0165  -0.0234   0.00    0.0
2026/01/15 01:22:30.000   22.434279419  114.335386330    63.2372   6  26   0.0326   0.0543   0.0763   0.0065   0.0166  -0.0233   0.00    0.0
2026/01/15 01:23:00.000   22.434279427  114.335386310    63.2395   6  26   0.0324   0.0540   0.0759   0.0063   0.0167  -0.0232   0.00    0.0
2026/01/15 01:23:30.000   22.434279443  114.335386288    63.2412   6  26   0.0322   0.0538   0.0754   0.0061   0.0167  -0.0232   0.00    0.0
2026/01/15 01:24:00.000   22.434279462  114.335386262    63.2433   6  26   0.0320   0.0535   0.0749   0.0059   0.0168  -0.0231   0.00    0.0
2026/01/15 01:24:30.000   22.434279481  114.335386230    63.2465   6  26   0.0317   0.0532   0.0744   0.0057   0.0168  -0.0230   0.00    0.0
2026/01/15 01:25:00.000   22.434279496  114.335386189    63.2497   6  26   0.0315   0.0530   0.0739   0.0054   0.0169  -0.0229   0.00    0.0
2026/01/15 01:25:30.000   22.434279512  114.335386145    63.2527   6  26   0.0313   0.0527   0.0734   0.0052   0.0170  -0.0228   0.00    0.0
2026/01/15 01:26:00.000   22.434279526  114.335386110    63.2553   6  26   0.0311   0.0525   0.0729   0.0049   0.0170  -0.0228   0.00    0.0
2026/01/15 01:26:30.000   22.434279542  114.335386086    63.2573   6  26   0.0309   0.0522   0.0724   0.0047   0.0170  -0.0227   0.00    0.0
2026/01/15 01:27:00.000   22.434279558  114.335386076    63.2584   6  26   0.0307   0.0520   0.0720   0.0045   0.0170  -0.0226   0.00    0.0
2026/01/15 01:27:30.000   22.434279571  114.335386068    63.2596   6  26   0.0306   0.0517   0.0716   0.0043   0.0171  -0.0225   0.00    0.0
2026/01/15 01:28:00.000   22.434279584  114.335386061    63.2609   6  26   0.0304   0.0515   0.0712   0.0040   0.0171  -0.0225   0.00    0.0
2026/01/15 01:28:30.000   22.434279599  114.335386055    63.2627   6  26   0.0302   0.0513   0.0707   0.0037   0.0171  -0.0224   0.00    0.0
2026/01/15 01:29:00.000   22.434279610  114.335386044    63.2653   6  26   0.0300   0.0510   0.0703   0.0034   0.0171  -0.0223   0.00    0.0
2026/01/15 01:29:30.000   22.434279620  114.335386029    63.2685   6  26   0.0298   0.0508   0.0698   0.0031   0.0171  -0.0223   0.00    0.0
2026/01/15 01:30:00.000   22.434279631  114.335386014    63.2710   6  26   0.0296   0.0505   0.0693   0.0027   0.0171  -0.0222   0.00    0.0
2026/01/15 01:30:30.000   22.434279643  114.335386003    63.2740   6  26   0.0294   0.0503   0.0689   0.0023   0.0171  -0.0221   0.00    0.0
2026/01/15 01:31:00.000   22.434279654  114.335386000    63.2776   6  26   0.0292   0.0500   0.0684   0.0018   0.0171  -0.0220   0.00    0.0
2026/01/15 01:31:30.000   22.434279664  114.335386003    63.2808   6  26   0.0291   0.0498   0.0680   0.0011   0.0171  -0.0220   0.00    0.0
2026/01/15 01:32:00.000   22.434279670  114.335386005    63.2834   6  26   0.0289   0.0496   0.0676  -0.0007   0.0171  -0.0219   0.00    0.0
2026/01/15 01:32:30.000   22.434279671  114.335386002    63.2854   6  26   0.0288   0.0494   0.0672  -0.0014   0.0171  -0.0218   0.00    0.0
2026/01/15 01:33:00.000   22.434279676  114.335385999    63.2873   6  26   0.0286   0.0491   0.0668  -0.0019   0.0171  -0.0218   0.00    0.0
2026/01/15 01:33:30.000   22.434279678  114.335385986    63.2898   6  26   0.0284   0.0489   0.0664  -0.0023   0.0171  -0.0217   0.00    0.0
2026/01/15 01:34:00.000   22.434279683  114.335385970    63.2926   6  26   0.0283   0.0487   0.0660  -0.0027   0.0170  -0.0216   0.00    0.0
2026/01/15 01:34:30.000   22.434279687  114.335385956    63.2960   6  25   0.0281   0.0484   0.0655  -0.0030   0.0170  -0.0216   0.00    0.0
2026/01/15 01:35:00.000   22.434279692  114.335385948    63.3002   6  25   0.0279   0.0482   0.0651  -0.0033   0.0170  -0.0215   0.00    0.0
2026/01/15 01:35:30.000   22.434279693  114.335385948    63.3041   6  25   0.0277   0.0480   0.0647  -0.0035   0.0170  -0.0214   0.00    0.0
2026/01/15 01:36:00.000   22.434279697  114.335385954    63.3080   6  26   0.0276   0.0478   0.0643  -0.0037   0.0170  -0.0213   0.00    0.0
2026/01/15 01:36:30.000   22.434279703  114.335385965    63.3111   6  26   0.0274   0.0475   0.0639  -0.0039   0.0169  -0.0213   0.00    0.0
2026/01/15 01:37:00.000   22.434279718  114.335385974    63.3133   6  26   0.0273   0.0473   0.0635  -0.0041   0.0169  -0.0212   0.00    0.0
2026/01/15 01:37:30.000   22.434279735  114.335385986    63.3147   6  26   0.0271   0.0471   0.0632  -0.0042   0.0169  -0.0211   0.00    0.0
2026/01/15 01:38:00.000   22.434279750  114.335385997    63.3164   6  26   0.0270   0.0469   0.0628  -0.0044   0.0168  -0.0211   0.00    0.0
2026/01/15 01:38:30.000   22.434279766  114.335386005    63.3184   6  26   0.0268   0.0467   0.0624  -0.0045   0.0168  -0.0210   0.00    0.0
2026/01/15 01:39:00.000   22.434279782  114.335386007    63.3204   6  26   0.0267   0.0465   0.0620  -0.0047   0.0167  -0.0209   0.00    0.0
2026/01/15 01:39:30.000   22.434279799  114.335385997    63.3227   6  26   0.0265   0.0463   0.0616  -0.0048   0.0167  -0.0209   0.00    0.0
2026/01/15 01:40:00.000   22.434279817  114.335385984    63.3251   6  26   0.0264   0.0461   0.0612  -0.0049   0.0166  -0.0208   0.00    0.0
2026/01/15 01:40:30.000   22.434279834  114.335385969    63.3273   6  26   0.0262   0.0458   0.0608  -0.0051   0.0166  -0.0207   0.00    0.0
2026/01/15 01:41:00.000   22.434279850  114.335385954    63.3295   6  26   0.0261   0.0456   0.0604  -0.0052   0.0165  -0.0206   0.00    0.0
2026/01/15 01:41:30.000   22.434279866  114.335385944    63.3318   6  26   0.0259   0.0454   0.0601  -0.0053   0.0164  -0.0206   0.00    0.0
2026/01/15 01:42:00.000   22.434279878  114.335385940    63.3338   6  26   0.0258   0.0452   0.0597  -0.0054   0.0164  -0.0205   0.00    0.0
2026/01/15 01:42:30.000   22.434279879  114.335385939    63.3361   6  27   0.0257   0.0450   0.0594  -0.0055   0.0163  -0.0204   0.00    0.0
2026/01/15 01:43:00.000   22.434279881  114.335385942    63.3389   6  27   0.0256   0.0448   0.0591  -0.0055   0.0163  -0.0204   0.00    0.0
2026/01/15 01:43:30.000   22.434279881  114.335385946    63.3422   6  27   0.0254   0.0446   0.0587  -0.0056   0.0162  -0.0203   0.00    0.0
2026/01/15 01:44:00.000   22.434279887  114.335385954    63.3461   6  26   0.0253   0.0444   0.0583  -0.0057   0.0162  -0.0202   0.00    0.0
2026/01/15 01:44:30.000   22.434279898  114.335385962    63.3493   6  26   0.0251   0.0442   0.0580  -0.0058   0.0161  -0.0202   0.00    0.0
2026/01/15 01:45:00.000   22.434279909  114.335385970    63.3516   6  26   0.0250   0.0440   0.0576  -0.0059   0.0160  -0.0201   0.00    0.0
2026/01/15 01:45:30.000   22.434279919  114.335385976    63.3537   6  26   0.0249   0.0438   0.0572  -0.0060   0.0160  -0.0200   0.00    0.0
2026/01/15 01:46:00.000   22.434279931  114.335385978    63.3556   6  27   0.0247   0.0436   0.0569  -0.0061   0.0159  -0.0199   0.00    0.0
2026/01/15 01:46:30.000   22.434279942  114.335385974    63.3571   6  27   0.0246   0.0434   0.0565  -0.0061   0.0158  -0.0199   0.00    0.0
2026/01/15 01:47:00.000   22.434279952  114.335385962    63.3589   6  27   0.0245   0.0432   0.0562  -0.0062   0.0157  -0.0198   0.00    0.0
2026/01/15 01:47:30.000   22.434279961  114.335385951    63.3598   6  28   0.0244   0.0431   0.0559  -0.0062   0.0157  -0.0197   0.00    0.0
2026/01/15 01:48:00.000   22.434279968  114.335385940    63.3605   6  28   0.0242   0.0429   0.0556  -0.0063   0.0156  -0.0197   0.00    0.0
2026/01/15 01:48:30.000   22.434279978  114.335385929    63.3613   6  28   0.0241   0.0427   0.0552  -0.0063   0.0155  -0.0196   0.00    0.0
2026/01/15 01:49:00.000   22.434279986  114.335385921    63.3627   6  29   0.0240   0.0425   0.0549  -0.0064   0.0155  -0.0195   0.00    0.0
2026/01/15 01:49:30.000   22.434279997  114.335385919    63.3645   6  28   0.0239   0.0423   0.0545  -0.0064   0.0154  -0.0195   0.00    0.0
2026/01/15 01:50:00.000   22.434280004  114.335385916    63.3668   6  28   0.0237   0.0421   0.0542  -0.0065   0.0153  -0.0194   0.00    0.0
2026/01/15 01:50:30.000   22.434280008  114.335385911    63.3689   6  28   0.0236   0.0419   0.0538  -0.0065   0.0152  -0.0193   0.00    0.0
2026/01/15 01:51:00.000   22.434280012  114.335385908    63.3710   6  28   0.0235   0.0417   0.0535  -0.0066   0.0151  -0.0192   0.00    0.0
2026/01/15 01:51:30.000   22.434280014  114.335385909    63.3736   6  28   0.0234   0.0416   0.0532  -0.0066   0.0151  -0.0192   0.00    0.0
2026/01/15 01:52:00.000   22.434280015  114.335385913    63.3762   6  28   0.0233   0.0414   0.0529  -0.0067   0.0150  -0.0191   0.00    0.0
2026/01/15 01:52:30.000   22.434280015  114.335385916    63.3787   6  28   0.0232   0.0412   0.0526  -0.0067   0.0149  -0.0190   0.00    0.0
2026/01/15 01:53:00.000   22.434280013  114.335385916    63.3818   6  28   0.0230   0.0411   0.0523  -0.0067   0.0148  -0.0190   0.00    0.0
2026/01/15 01:53:30.000   22.434280013  114.335385915    63.3847   6  28   0.0229   0.0409   0.0520  -0.0068   0.0148  -0.0189   0.00    0.0
2026/01/15 01:54:00.000   22.434280011  114.335385908    63.3878   6  28   0.0228   0.0407   0.0517  -0.0068   0.0147  -0.0188   0.00    0.0
2026/01/15 01:54:30.000   22.434280006  114.335385897    63.3906   6  29   0.0227   0.0405   0.0514  -0.0069   0.0146  -0.0187   0.00    0.0
2026/01/15 01:55:00.000   22.434280002  114.335385892    63.3930   6  29   0.0226   0.0403   0.0510  -0.0069   0.0145  -0.0187   0.00    0.0
2026/01/15 01:55:30.000   22.434280004  114.335385889    63.3948   6  28   0.0225   0.0402   0.0507  -0.0069   0.0144  -0.0186   0.00    0.0
2026/01/15 01:56:00.000   22.434280007  114.335385879    63.3959   6  27   0.0224   0.0400   0.0505  -0.0070   0.0144  -0.0186   0.00    0.0
2026/01/15 01:56:30.000   22.434280011  114.335385862    63.3970   6  27   0.0223   0.0398   0.0503  -0.0070   0.0143  -0.0185   0.00    0.0
2026/01/15 01:57:00.000   22.434280015  114.335385845    63.3984   6  27   0.0222   0.0397   0.0501  -0.0070   0.0142  -0.0185   0.00    0.0
2026/01/15 01:57:30.000   22.434280016  114.335385829    63.3996   6  27   0.0221   0.0395   0.0499  -0.0071   0.0142  -0.0185   0.00    0.0
2026/01/15 01:58:00.000   22.434280016  114.335385812    63.4009   6  27   0.0220   0.0394   0.0497  -0.0071   0.0141  -0.0185   0.00    0.0
2026/01/15 01:58:30.000   22.434280013  114.335385793    63.4028   6  27   0.0219   0.0392   0.0495  -0.0071   0.0141  -0.0184   0.00    0.0
2026/01/15 01:59:00.000   22.434280008  114.335385778    63.4053   6  27   0.0218   0.0390   0.0492  -0.0071   0.0140  -0.0184   0.00    0.0
2026/01/15 01:59:30.000   22.434280003  114.335385766    63.4077   6  27   0.0217   0.0389   0.0490  -0.0072   0.0139  -0.0183   0.00    0.0
2026/01/15 02:00:00.000   22.434279995  114.335385753    63.4105   6  27   0.0216   0.0387   0.0488  -0.0072   0.0139  -0.0183   0.00    0.0
2026/01/15 02:00:30.000   22.434279986  114.335385738    63.4129   6  28   0.0215   0.0385   0.0485  -0.0072   0.0138  -0.0183   0.00    0.0
2026/01/15 02:01:00.000   22.434279978  114.335385728    63.4153   6  28   0.0214   0.0384   0.0483  -0.0073   0.0137  -0.0182   0.00    0.0
2026/01/15 02:01:30.000   22.434279969  114.335385717    63.4177   6  28   0.0213   0.0382   0.0481  -0.0073   0.0136  -0.0182   0.00    0.0
2026/01/15 02:02:00.000   22.434279964  114.335385714    63.4200   6  28   0.0212   0.0381   0.0479  -0.0073   0.0136  -0.0182   0.00    0.0
2026/01/15 02:02:30.000   22.434279959  114.335385710    63.4219   6  28   0.0211   0.0379   0.0477  -0.0073   0.0135  -0.0181   0.00    0.0
2026/01/15 02:03:00.000   22.434279955  114.335385705    63.4235   6  28   0.0210   0.0378   0.0475  -0.0073   0.0134  -0.0181   0.00    0.0
2026/01/15 02:03:30.000   22.434279952  114.335385699    63.4252   6  28   0.0209   0.0376   0.0473  -0.0074   0.0134  -0.0180   0.00    0.0
2026/01/15 02:04:00.000   22.434279950  114.335385698    63.4269   6  28   0.0208   0.0375   0.0471  -0.0074   0.0133  -0.0180   0.00    0.0
2026/01/15 02:04:30.000   22.434279949  114.335385698    63.4288   6  28   0.0208   0.0373   0.0468  -0.0074   0.0132  -0.0180   0.00    0.0
2026/01/15 02:05:00.000   22.434279948  114.335385699    63.4311   6  28   0.0207   0.0372   0.0466  -0.0074   0.0131  -0.0179   0.00    0.0
2026/01/15 02:05:30.000   22.434279947  114.335385698    63.4330   6  28   0.0206   0.0370   0.0464  -0.0075   0.0131  -0.0179   0.00    0.0
2026/01/15 02:06:00.000   22.434279948  114.335385695    63.4348   6  28   0.0205   0.0368   0.0461  -0.0075   0.0130  -0.0178   0.00    0.0
2026/01/15 02:06:30.000   22.434279948  114.335385688    63.4364   6  28   0.0204   0.0367   0.0459  -0.0075   0.0129  -0.0178   0.00    0.0
2026/01/15 02:07:00.000   22.434279949  114.335385683    63.4379   6  28   0.0203   0.0366   0.0457  -0.0075   0.0129  -0.0177   0.00    0.0
2026/01/15 02:07:30.000   22.434279949  114.335385684    63.4396   6  28   0.0202   0.0364   0.0456  -0.0075   0.0128  -0.0177   0.00    0.0
2026/01/15 02:08:00.000   22.434279950  114.335385689    63.4416   6  28   0.0202   0.0363   0.0454  -0.0075   0.0127  -0.0177   0.00    0.0
2026/01/15 02:08:30.000   22.434279949  114.335385696    63.4439   6  28   0.0201   0.0362   0.0451  -0.0075   0.0127  -0.0176   0.00    0.0
2026/01/15 02:09:00.000   22.434279947  114.335385703    63.4465   6  28   0.0200   0.0360   0.0449  -0.0076   0.0126  -0.0176   0.00    0.0
2026/01/15 02:09:30.000   22.434279944  114.335385704    63.4489   6  27   0.0199   0.0359   0.0447  -0.0076   0.0125  -0.0175   0.00    0.0
2026/01/15 02:10:00.000   22.434279940  114.335385698    63.4517   6  28   0.0198   0.0357   0.0445  -0.0076   0.0124  -0.0175   0.00    0.0
2026/01/15 02:10:30.000   22.434279935  114.335385687    63.4547   6  28   0.0197   0.0356   0.0443  -0.0076   0.0124  -0.0174   0.00    0.0
2026/01/15 02:11:00.000   22.434279930  114.335385678    63.4578   6  28   0.0196   0.0354   0.0441  -0.0076   0.0124  -0.0173   0.00    0.0
2026/01/15 02:11:30.000   22.434279925  114.335385669    63.4603   6  27   0.0196   0.0353   0.0439  -0.0076   0.0124  -0.0173   0.00    0.0
2026/01/15 02:12:00.000   22.434279920  114.335385665    63.4625   6  29   0.0195   0.0352   0.0438  -0.0076   0.0123  -0.0172   0.00    0.0
2026/01/15 02:12:30.000   22.434279916  114.335385662    63.4640   6  28   0.0194   0.0351   0.0436  -0.0076   0.0123  -0.0172   0.00    0.0
2026/01/15 02:13:00.000   22.434279912  114.335385660    63.4659   6  28   0.0193   0.0350   0.0435  -0.0076   0.0123  -0.0171   0.00    0.0
2026/01/15 02:13:30.000   22.434279908  114.335385661    63.4678   6  28   0.0193   0.0348   0.0433  -0.0076   0.0123  -0.0171   0.00    0.0
2026/01/15 02:14:00.000   22.434279903  114.335385663    63.4700   6  28   0.0192   0.0347   0.0431  -0.0076   0.0123  -0.0170   0.00    0.0
2026/01/15 02:14:30.000   22.434279899  114.335385662    63.4723   6  28   0.0191   0.0346   0.0429  -0.0076   0.0122  -0.0169   0.00    0.0
2026/01/15 02:15:00.000   22.434279896  114.335385658    63.4750   6  28   0.0190   0.0344   0.0427  -0.0076   0.0122  -0.0169   0.00    0.0
2026/01/15 02:15:30.000   22.434279893  114.335385653    63.4772   6  28   0.0189   0.0343   0.0426  -0.0075   0.0122  -0.0168   0.00    0.0
2026/01/15 02:16:00.000   22.434279890  114.335385647    63.4790   6  28   0.0189   0.0342   0.0424  -0.0075   0.0122  -0.0167   0.00    0.0
2026/01/15 02:16:30.000   22.434279887  114.335385643    63.4807   6  28   0.0188   0.0341   0.0423  -0.0075   0.0123  -0.0166   0.00    0.0
2026/01/15 02:17:00.000   22.434279884  114.335385641    63.4824   6  28   0.0187   0.0340   0.0421  -0.0075   0.0123  -0.0166   0.00    0.0
2026/01/15 02:17:30.000   22.434279881  114.335385641    63.4834   6  28   0.0187   0.0339   0.0420  -0.0074   0.0123  -0.0165   0.00    0.0
2026/01/15 02:18:00.000   22.434279878  114.335385639    63.4844   6  28   0.0186   0.0338   0.0419  -0.0074   0.0123  -0.0164   0.00    0.0
2026/01/15 02:18:30.000   22.434279874  114.335385636    63.4858   6  28   0.0185   0.0337   0.0417  -0.0074   0.0123  -0.0163   0.00    0.0
2026/01/15 02:19:00.000   22.434279870  114.335385631    63.4874   6  29   0.0185   0.0336   0.0415  -0.0074   0.0124  -0.0163   0.00    0.0
2026/01/15 02:19:30.000   22.434279866  114.335385621    63.4891   6  29   0.0184   0.0335   0.0414  -0.0073   0.0124  -0.0162   0.00    0.0
2026/01/15 02:20:00.000   22.434279862  114.335385611    63.4912   6  29   0.0183   0.0334   0.0412  -0.0073   0.0124  -0.0161   0.00    0.0
2026/01/15 02:20:30.000   22.434279859  114.335385601    63.4931   6  29   0.0183   0.0333   0.0411  -0.0073   0.0124  -0.0160   0.00    0.0
2026/01/15 02:21:00.000   22.434279856  114.335385591    63.4951   6  29   0.0182   0.0332   0.0409  -0.0073   0.0124  -0.0160   0.00    0.0
2026/01/15 02:21:30.000   22.434279853  114.335385582    63.4972   6  29   0.0181   0.0331   0.0408  -0.0072   0.0124  -0.0159   0.00    0.0
2026/01/15 02:22:00.000   22.434279849  114.335385576    63.4991   6  29   0.0181   0.0330   0.0406  -0.0072   0.0124  -0.0158   0.00    0.0
2026/01/15 02:22:30.000   22.434279845  114.335385572    63.5011   6  29   0.0180   0.0329   0.0405  -0.0072   0.0125  -0.0158   0.00    0.0
2026/01/15 02:23:00.000   22.434279842  114.335385567    63.5032   6  29   0.0179   0.0328   0.0403  -0.0072   0.0125  -0.0157   0.00    0.0
2026/01/15 02:23:30.000   22.434279839  114.335385561    63.5054   6  29   0.0179   0.0327   0.0402  -0.0072   0.0125  -0.0156   0.00    0.0
2026/01/15 02:24:00.000   22.434279837  114.335385555    63.5079   6  29   0.0178   0.0326   0.0400  -0.0071   0.0125  -0.0155   0.00    0.0
2026/01/15 02:24:30.000   22.434279834  114.335385549    63.5102   6  29   0.0177   0.0325   0.0399  -0.0071   0.0125  -0.0155   0.00    0.0
2026/01/15 02:25:00.000   22.434279831  114.335385542    63.5122   6  30   0.0177   0.0324   0.0397  -0.0071   0.0125  -0.0154   0.00    0.0
2026/01/15 02:25:30.000   22.434279828  114.335385538    63.5140   6  30   0.0176   0.0323   0.0396  -0.0071   0.0125  -0.0153   0.00    0.0
2026/01/15 02:26:00.000   22.434279825  114.335385536    63.5155   6  30   0.0175   0.0322   0.0394  -0.0071   0.0125  -0.0152   0.00    0.0
2026/01/15 02:26:30.000   22.434279823  114.335385535    63.5165   6  30   0.0175   0.0321   0.0393  -0.0070   0.0125  -0.0152   0.00    0.0
2026/01/15 02:27:00.000   22.434279822  114.335385532    63.5171   6  30   0.0174   0.0320   0.0391  -0.0070   0.0125  -0.0151   0.00    0.0
2026/01/15 02:27:30.000   22.434279823  114.335385528    63.5174   6  30   0.0174   0.0319   0.0390  -0.0070   0.0125  -0.0150   0.00    0.0
2026/01/15 02:28:00.000   22.434279822  114.335385522    63.5176   6  29   0.0173   0.0318   0.0389  -0.0070   0.0125  -0.0150   0.00    0.0
2026/01/15 02:28:30.000   22.434279822  114.335385514    63.5180   6  29   0.0172   0.0317   0.0387  -0.0070   0.0125  -0.0149   0.00    0.0
2026/01/15 02:29:00.000   22.434279821  114.335385508    63.5189   6  29   0.0172   0.0316   0.0386  -0.0070   0.0126  -0.0148   0.00    0.0
2026/01/15 02:29:30.000   22.434279820  114.335385499    63.5204   6  29   0.0171   0.0315   0.0384  -0.0069   0.0126  -0.0148   0.00    0.0
2026/01/15 02:30:00.000   22.434279819  114.335385491    63.5224   6  29   0.0170   0.0314   0.0382  -0.0069   0.0126  -0.0147   0.00    0.0
2026/01/15 02:30:30.000   22.434279816  114.335385485    63.5247   6  29   0.0170   0.0313   0.0381  -0.0069   0.0126  -0.0146   0.00    0.0
2026/01/15 02:31:00.000   22.434279812  114.335385484    63.5270   6  29   0.0169   0.0312   0.0379  -0.0069   0.0126  -0.0146   0.00    0.0
2026/01/15 02:31:30.000   22.434279807  114.335385485    63.5296   6  29   0.0168   0.0311   0.0378  -0.0069   0.0126  -0.0145   0.00    0.0
2026/01/15 02:32:00.000   22.434279801  114.335385484    63.5320   6  29   0.0168   0.0311   0.0377  -0.0069   0.0126  -0.0144   0.00    0.0
2026/01/15 02:32:30.000   22.434279795  114.335385483    63.5342   6  29   0.0167   0.0310   0.0375  -0.0069   0.0126  -0.0144   0.00    0.0
2026/01/15 02:33:00.000   22.434279789  114.335385481    63.5367   6  29   0.0167   0.0309   0.0374  -0.0068   0.0126  -0.0143   0.00    0.0
2026/01/15 02:33:30.000   22.434279781  114.335385480    63.5393   6  29   0.0166   0.0308   0.0373  -0.0068   0.0126  -0.0143   0.00    0.0
2026/01/15 02:34:00.000   22.434279774  114.335385483    63.5418   6  28   0.0166   0.0307   0.0371  -0.0068   0.0126  -0.0142   0.00    0.0
2026/01/15 02:34:30.000   22.434279767  114.335385487    63.5439   6  28   0.0165   0.0306   0.0370  -0.0068   0.0126  -0.0141   0.00    0.0
2026/01/15 02:35:00.000   22.434279761  114.335385489    63.5458   6  28   0.0164   0.0305   0.0368  -0.0068   0.0126  -0.0140   0.00    0.0
2026/01/15 02:35:30.000   22.434279756  114.335385489    63.5474   6  28   0.0164   0.0304   0.0367  -0.0068   0.0126  -0.0140   0.00    0.0
2026/01/15 02:36:00.000   22.434279752  114.335385486    63.5489   6  28   0.0163   0.0304   0.0365  -0.0068   0.0126  -0.0139   0.00    0.0
2026/01/15 02:36:30.000   22.434279749  114.335385480    63.5501   6  28   0.0163   0.0303   0.0364  -0.0068   0.0126  -0.0139   0.00    0.0
2026/01/15 02:37:00.000   22.434279747  114.335385472    63.5513   6  28   0.0162   0.0302   0.0363  -0.0067   0.0126  -0.0138   0.00    0.0
2026/01/15 02:37:30.000   22.434279745  114.335385457    63.5525   6  28   0.0162   0.0301   0.0361  -0.0067   0.0126  -0.0137   0.00    0.0
2026/01/15 02:38:00.000   22.434279741  114.335385439    63.5538   6  28   0.0161   0.0300   0.0360  -0.0067   0.0126  -0.0137   0.00    0.0
2026/01/15 02:38:30.000   22.434279737  114.335385422    63.5553   6  28   0.0160   0.0300   0.0359  -0.0067   0.0126  -0.0136   0.00    0.0
2026/01/15 02:39:00.000   22.434279731  114.335385409    63.5569   6  28   0.0160   0.0299   0.0357  -0.0067   0.0126  -0.0136   0.00    0.0
2026/01/15 02:39:30.000   22.434279726  114.335385398    63.5586   6  28   0.0159   0.0298   0.0356  -0.0067   0.0126  -0.0135   0.00    0.0
2026/01/15 02:40:00.000   22.434279722  114.335385388    63.5604   6  28   0.0159   0.0297   0.0354  -0.0067   0.0126  -0.0134   0.00    0.0
2026/01/15 02:40:30.000   22.434279718  114.335385377    63.5624   6  28   0.0158   0.0296   0.0353  -0.0067   0.0125  -0.0134   0.00    0.0
2026/01/15 02:41:00.000   22.434279714  114.335385368    63.5642   6  28   0.0157   0.0295   0.0352  -0.0067   0.0125  -0.0133   0.00    0.0
2026/01/15 02:41:30.000   22.434279710  114.335385360    63.5660   6  28   0.0157   0.0294   0.0350  -0.0067   0.0125  -0.0132   0.00    0.0
2026/01/15 02:42:00.000   22.434279708  114.335385358    63.5673   6  28   0.0156   0.0294   0.0349  -0.0066   0.0125  -0.0132   0.00    0.0
2026/01/15 02:42:30.000   22.434279707  114.335385355    63.5683   6  28   0.0156   0.0293   0.0348  -0.0066   0.0125  -0.0131   0.00    0.0
2026/01/15 02:43:00.000   22.434279705  114.335385349    63.5694   6  28   0.0155   0.0292   0.0347  -0.0066   0.0125  -0.0131   0.00    0.0
2026/01/15 02:43:30.000   22.434279703  114.335385345    63.5703   6  28   0.0155   0.0291   0.0345  -0.0066   0.0125  -0.0130   0.00    0.0
2026/01/15 02:44:00.000   22.434279700  114.335385341    63.5713   6  28   0.0154   0.0291   0.0344  -0.0066   0.0125  -0.0130   0.00    0.0
2026/01/15 02:44:30.000   22.434279697  114.335385339    63.5724   6  28   0.0154   0.0290   0.0342  -0.0066   0.0125  -0.0129   0.00    0.0
2026/01/15 02:45:00.000   22.434279693  114.335385334    63.5736   6  28   0.0153   0.0289   0.0341  -0.0066   0.0125  -0.0128   0.00    0.0
2026/01/15 02:45:30.000   22.434279687  114.335385328    63.5752   6  28   0.0153   0.0288   0.0340  -0.0066   0.0125  -0.0128   0.00    0.0
2026/01/15 02:46:00.000   22.434279681  114.335385322    63.5766   6  28   0.0152   0.0287   0.0338  -0.0066   0.0125  -0.0127   0.00    0.0
2026/01/15 02:46:30.000   22.434279674  114.335385317    63.5781   6  28   0.0152   0.0287   0.0337  -0.0066   0.0125  -0.0127   0.00    0.0
2026/01/15 02:47:00.000   22.434279667  114.335385311    63.5799   6  28   0.0151   0.0286   0.0336  -0.0066   0.0125  -0.0126   0.00    0.0
2026/01/15 02:47:30.000   22.434279661  114.335385306    63.5815   6  28   0.0151   0.0285   0.0335  -0.0066   0.0125  -0.0126   0.00    0.0
2026/01/15 02:48:00.000   22.434279655  114.335385301    63.5829   6  28   0.0150   0.0285   0.0334  -0.0065   0.0125  -0.0125   0.00    0.0
2026/01/15 02:48:30.000   22.434279649  114.335385298    63.5842   6  28   0.0150   0.0284   0.0332  -0.0065   0.0125  -0.0125   0.00    0.0
2026/01/15 02:49:00.000   22.434279642  114.335385293    63.5854   6  28   0.0149   0.0283   0.0331  -0.0065   0.0124  -0.0124   0.00    0.0
2026/01/15 02:49:30.000   22.434279636  114.335385286    63.5866   6  28   0.0149   0.0282   0.0330  -0.0065   0.0124  -0.0124   0.00    0.0
2026/01/15 02:50:00.000   22.434279630  114.335385279    63.5877   6  28   0.0148   0.0281   0.0328  -0.0065   0.0124  -0.0123   0.00    0.0
2026/01/15 02:50:30.000   22.434279624  114.335385270    63.5889   6  28   0.0148   0.0281   0.0327  -0.0065   0.0124  -0.0123   0.00    0.0
2026/01/15 02:51:00.000   22.434279620  114.335385258    63.5900   6  28   0.0147   0.0280   0.0326  -0.0065   0.0124  -0.0122   0.00    0.0
2026/01/15 02:51:30.000   22.434279616  114.335385248    63.5913   6  28   0.0147   0.0279   0.0325  -0.0065   0.0124  -0.0121   0.00    0.0
2026/01/15 02:52:00.000   22.434279612  114.335385237    63.5924   6  28   0.0146   0.0279   0.0323  -0.0065   0.0124  -0.0121   0.00    0.0
2026/01/15 02:52:30.000   22.434279609  114.335385227    63.5933   6  28   0.0146   0.0278   0.0322  -0.0065   0.0124  -0.0121   0.00    0.0
2026/01/15 02:53:00.000   22.434279605  114.335385221    63.5942   6  28   0.0145   0.0277   0.0321  -0.0065   0.0124  -0.0120   0.00    0.0
2026/01/15 02:53:30.000   22.434279601  114.335385214    63.5950   6  28   0.0145   0.0277   0.0320  -0.0065   0.0124  -0.0120   0.00    0.0
2026/01/15 02:54:00.000   22.434279598  114.335385209    63.5963   6  28   0.0144   0.0276   0.0319  -0.0065   0.0124  -0.0119   0.00    0.0
2026/01/15 02:54:30.000   22.434279593  114.335385207    63.5974   6  28   0.0144   0.0275   0.0317  -0.0065   0.0124  -0.0119   0.00    0.0
2026/01/15 02:55:00.000   22.434279589  114.335385202    63.5987   6  28   0.0143   0.0274   0.0316  -0.0065   0.0123  -0.0118   0.00    0.0
2026/01/15 02:55:30.000   22.434279584  114.335385196    63.5999   6  28   0.0143   0.0274   0.0315  -0.0064   0.0123  -0.0117   0.00    0.0
2026/01/15 02:56:00.000   22.434279579  114.335385189    63.6014   6  28   0.0142   0.0273   0.0314  -0.0064   0.0123  -0.0117   0.00    0.0
2026/01/15 02:56:30.000   22.434279575  114.335385184    63.6030   6  29   0.0142   0.0272   0.0313  -0.0064   0.0123  -0.0116   0.00    0.0
2026/01/15 02:57:00.000   22.434279570  114.335385178    63.6046   6  29   0.0141   0.0272   0.0311  -0.0064   0.0123  -0.0116   0.00    0.0
2026/01/15 02:57:30.000   22.434279565  114.335385173    63.6063   6  29   0.0141   0.0271   0.0310  -0.0064   0.0123  -0.0116   0.00    0.0
2026/01/15 02:58:00.000   22.434279560  114.335385170    63.6080   6  29   0.0140   0.0270   0.0309  -0.0064   0.0123  -0.0115   0.00    0.0
2026/01/15 02:58:30.000   22.434279556  114.335385170    63.6095   6  29   0.0140   0.0270   0.0308  -0.0064   0.0123  -0.0115   0.00    0.0
2026/01/15 02:59:00.000   22.434279552  114.335385168    63.6109   6  29   0.0139   0.0269   0.0307  -0.0064   0.0123  -0.0114   0.00    0.0
2026/01/15 02:59:30.000   22.434279548  114.335385167    63.6119   6  29   0.0139   0.0268   0.0306  -0.0064   0.0122  -0.0114   0.00    0.0
2026/01/15 03:00:00.000   22.434279545  114.335385163    63.6126   6  29   0.0138   0.0267   0.0305  -0.0064   0.0122  -0.0113   0.00    0.0
2026/01/15 03:00:30.000   22.434279542  114.335385156    63.6134   6  29   0.0138   0.0267   0.0304  -0.0064   0.0122  -0.0113   0.00    0.0
2026/01/15 03:01:00.000   22.434279539  114.335385150    63.6139   6  29   0.0138   0.0266   0.0303  -0.0064   0.0122  -0.0112   0.00    0.0
2026/01/15 03:01:30.000   22.434279536  114.335385146    63.6145   6  29   0.0137   0.0265   0.0302  -0.0064   0.0122  -0.0112   0.00    0.0
2026/01/15 03:02:00.000   22.434279533  114.335385143    63.6154   6  29   0.0137   0.0265   0.0301  -0.0064   0.0122  -0.0111   0.00    0.0
2026/01/15 03:02:30.000   22.434279530  114.335385139    63.6163   6  29   0.0136   0.0264   0.0300  -0.0064   0.0122  -0.0111   0.00    0.0
2026/01/15 03:03:00.000   22.434279525  114.335385135    63.6174   6  29   0.0136   0.0264   0.0299  -0.0064   0.0122  -0.0110   0.00    0.0
2026/01/15 03:03:30.000   22.434279520  114.335385133    63.6184   6  29   0.0136   0.0263   0.0298  -0.0063   0.0122  -0.0110   0.00    0.0
2026/01/15 03:04:00.000   22.434279515  114.335385133    63.6193   6  29   0.0135   0.0262   0.0297  -0.0063   0.0122  -0.0109   0.00    0.0
2026/01/15 03:04:30.000   22.434279510  114.335385132    63.6204   6  28   0.0135   0.0262   0.0296  -0.0063   0.0122  -0.0109   0.00    0.0
2026/01/15 03:05:00.000   22.434279505  114.335385129    63.6213   6  27   0.0134   0.0261   0.0295  -0.0063   0.0121  -0.0108   0.00    0.0
2026/01/15 03:05:30.000   22.434279500  114.335385126    63.6222   6  27   0.0134   0.0260   0.0294  -0.0063   0.0121  -0.0108   0.00    0.0
2026/01/15 03:06:00.000   22.434279495  114.335385123    63.6230   6  27   0.0133   0.0260   0.0293  -0.0063   0.0121  -0.0107   0.00    0.0
2026/01/15 03:06:30.000   22.434279490  114.335385119    63.6238   6  27   0.0133   0.0259   0.0293  -0.0063   0.0121  -0.0107   0.00    0.0
2026/01/15 03:07:00.000   22.434279486  114.335385114    63.6245   6  27   0.0133   0.0259   0.0292  -0.0063   0.0121  -0.0106   0.00    0.0
2026/01/15 03:07:30.000   22.434279482  114.335385109    63.6252   6  27   0.0132   0.0258   0.0291  -0.0063   0.0120  -0.0106   0.00    0.0
2026/01/15 03:08:00.000   22.434279479  114.335385104    63.6259   6  27   0.0132   0.0258   0.0290  -0.0063   0.0120  -0.0105   0.00    0.0
2026/01/15 03:08:30.000   22.434279474  114.335385098    63.6265   6  27   0.0131   0.0257   0.0290  -0.0063   0.0120  -0.0105   0.00    0.0
2026/01/15 03:09:00.000   22.434279470  114.335385090    63.6271   6  27   0.0131   0.0257   0.0289  -0.0063   0.0120  -0.0105   0.00    0.0
2026/01/15 03:09:30.000   22.434279465  114.335385083    63.6278   6  27   0.0131   0.0256   0.0288  -0.0063   0.0120  -0.0104   0.00    0.0
2026/01/15 03:10:00.000   22.434279462  114.335385074    63.6282   6  27   0.0130   0.0255   0.0287  -0.0063   0.0120  -0.0104   0.00    0.0
2026/01/15 03:10:30.000   22.434279460  114.335385065    63.6285   6  27   0.0130   0.0255   0.0287  -0.0063   0.0120  -0.0103   0.00    0.0
2026/01/15 03:11:00.000   22.434279457  114.335385056    63.6287   6  27   0.0129   0.0254   0.0286  -0.0063   0.0120  -0.0103   0.00    0.0
2026/01/15 03:11:30.000   22.434279455  114.335385048    63.6290   6  27   0.0129   0.0254   0.0285  -0.0063   0.0120  -0.0102   0.00    0.0
2026/01/15 03:12:00.000   22.434279452  114.335385042    63.6293   6  27   0.0129   0.0253   0.0285  -0.0063   0.0120  -0.0102   0.00    0.0
2026/01/15 03:12:30.000   22.434279449  114.335385036    63.6296   6  27   0.0128   0.0253   0.0284  -0.0063   0.0120  -0.0101   0.00    0.0
2026/01/15 03:13:00.000   22.434279446  114.335385035    63.6303   6  26   0.0128   0.0253   0.0283  -0.0063   0.0120  -0.0101   0.00    0.0
2026/01/15 03:13:30.000   22.434279443  114.335385036    63.6310   6  26   0.0128   0.0252   0.0283  -0.0062   0.0120  -0.0100   0.00    0.0
2026/01/15 03:14:00.000   22.434279439  114.335385037    63.6318   6  26   0.0127   0.0252   0.0282  -0.0062   0.0120  -0.0100   0.00    0.0
2026/01/15 03:14:30.000   22.434279434  114.335385038    63.6327   6  26   0.0127   0.0251   0.0282  -0.0062   0.0120  -0.0099   0.00    0.0
2026/01/15 03:15:00.000   22.434279430  114.335385042    63.6336   6  26   0.0126   0.0251   0.0281  -0.0062   0.0120  -0.0099   0.00    0.0
2026/01/15 03:15:30.000   22.434279425  114.335385047    63.6346   6  26   0.0126   0.0250   0.0280  -0.0062   0.0120  -0.0098   0.00    0.0
2026/01/15 03:16:00.000   22.434279420  114.335385051    63.6356   6  26   0.0126   0.0250   0.0280  -0.0062   0.0120  -0.0098   0.00    0.0
2026/01/15 03:16:30.000   22.434279415  114.335385055    63.6365   6  26   0.0125   0.0249   0.0279  -0.0062   0.0120  -0.0097   0.00    0.0
2026/01/15 03:17:00.000   22.434279411  114.335385056    63.6373   6  26   0.0125   0.0249   0.0279  -0.0062   0.0120  -0.0097   0.00    0.0
2026/01/15 03:17:30.000   22.434279408  114.335385054    63.6380   6  26   0.0125   0.0248   0.0278  -0.0061   0.0120  -0.0096   0.00    0.0
2026/01/15 03:18:00.000   22.434279405  114.335385051    63.6386   6  26   0.0125   0.0248   0.0278  -0.0061   0.0120  -0.0096   0.00    0.0
2026/01/15 03:18:30.000   22.434279401  114.335385048    63.6394   6  27   0.0124   0.0248   0.0277  -0.0061   0.0120  -0.0095   0.00    0.0
2026/01/15 03:19:00.000   22.434279398  114.335385046    63.6402   6  27   0.0124   0.0247   0.0277  -0.0061   0.0120  -0.0095   0.00    0.0
2026/01/15 03:19:30.000   22.434279394  114.335385045    63.6410   6  27   0.0124   0.0247   0.0276  -0.0061   0.0120  -0.0094   0.00    0.0
2026/01/15 03:20:00.000   22.434279391  114.335385042    63.6417   6  27   0.0123   0.0246   0.0275  -0.0061   0.0120  -0.0094   0.00    0.0
2026/01/15 03:20:30.000   22.434279388  114.335385039    63.6424   6  27   0.0123   0.0246   0.0275  -0.0061   0.0121  -0.0093   0.00    0.0
2026/01/15 03:21:00.000   22.434279386  114.335385035    63.6429   6  27   0.0123   0.0245   0.0274  -0.0061   0.0121  -0.0092   0.00    0.0
2026/01/15 03:21:30.000   22.434279383  114.335385030    63.6435   6  27   0.0122   0.0245   0.0274  -0.0061   0.0121  -0.0092   0.00    0.0
2026/01/15 03:22:00.000   22.434279381  114.335385026    63.6442   6  27   0.0122   0.0244   0.0273  -0.0061   0.0121  -0.0091   0.00    0.0
2026/01/15 03:22:30.000   22.434279378  114.335385023    63.6449   6  27   0.0122   0.0244   0.0273  -0.0061   0.0121  -0.0091   0.00    0.0
2026/01/15 03:23:00.000   22.434279376  114.335385020    63.6456   6  27   0.0122   0.0244   0.0272  -0.0061   0.0121  -0.0091   0.00    0.0
2026/01/15 03:23:30.000   22.434279373  114.335385018    63.6464   6  27   0.0121   0.0243   0.0272  -0.0061   0.0121  -0.0090   0.00    0.0
2026/01/15 03:24:00.000   22.434279371  114.335385016    63.6472   6  27   0.0121   0.0243   0.0271  -0.0060   0.0121  -0.0090   0.00    0.0
2026/01/15 03:24:30.000   22.434279369  114.335385012    63.6479   6  27   0.0121   0.0242   0.0271  -0.0060   0.0121  -0.0089   0.00    0.0
2026/01/15 03:25:00.000   22.434279367  114.335385009    63.6484   6  26   0.0120   0.0242   0.0270  -0.0060   0.0121  -0.0089   0.00    0.0
2026/01/15 03:25:30.000   22.434279365  114.335385005    63.6490   6  26   0.0120   0.0241   0.0270  -0.0060   0.0121  -0.0088   0.00    0.0
2026/01/15 03:26:00.000   22.434279362  114.335385003    63.6495   6  26   0.0120   0.0241   0.0269  -0.0060   0.0121  -0.0088   0.00    0.0
2026/01/15 03:26:30.000   22.434279359  114.335385002    63.6501   6  26   0.0119   0.0241   0.0269  -0.0060   0.0121  -0.0087   0.00    0.0
2026/01/15 03:27:00.000   22.434279356  114.335385003    63.6506   6  26   0.0119   0.0240   0.0268  -0.0060   0.0121  -0.0087   0.00    0.0
2026/01/15 03:27:30.000   22.434279353  114.335385006    63.6511   6  26   0.0119   0.0240   0.0268  -0.0060   0.0121  -0.0086   0.00    0.0
2026/01/15 03:28:00.000   22.434279350  114.335385010    63.6516   6  26   0.0119   0.0239   0.0267  -0.0060   0.0121  -0.0086   0.00    0.0
