% program   : RTKPOST ver.demo5 b34d
% inp file  : E:\Master courses\SNDP-PROJECT\Old_data\data\HKWS00HKG_R_20260150000_01D_30S_MO.rnx
% inp file  : E:\Master courses\SNDP-PROJECT\New_Data\nav\BRDC00IGS_R_20260150000_01D_MN.rnx
% inp file  : E:\Master courses\SNDP-PROJECT\New_Data\DATA_FINAL_ANT_EXTRA\COD0MGXFIN_20260150000_01D_05M_ORB.SP3
% inp file  : E:\Master courses\SNDP-PROJECT\New_Data\DATA_FINAL_ANT_EXTRA\COD0MGXFIN_20260150000_01D_30S_CLK.CLK
% inp file  : E:\Master courses\SNDP-PROJECT\New_Data\DATA_FINAL_ANT_EXTRA\COD0MGXFIN_20260150000_01D_01D_OSB.BIA
% obs start : 2026/01/15 00:00:00.0 GPST (week2401 345600.0s)
% obs end   : 2026/01/15 23:59:30.0 GPST (week2401 431970.0s)
% pos mode  : PPP Static
% solution  : Forward
% elev mask : 15.0 deg
% dynamics  : off
% tidecorr  : off
% tropo opt : Saastamoinen
% ephemeris : Precise
% navi sys  : GPS Galileo BDS
% antenna1  : LEIAR25.R4      LEIT  ( 0.0000  0.0000  0.0083)
%
% (lat/lon/height=WGS84/ellipsoidal,Q=1:fix,2:float,3:sbas,4:dgps,5:single,6:ppp,ns=# of satellites)
%  GPST                  latitude(deg) longitude(deg)  height(m)   Q  ns   sdn(m)   sde(m)   sdu(m)  sdne(m)  sdeu(m)  sdun(m) age(s)  ratio
2026/01/15 00:00:00.000   22.434276703  114.335383808    63.4230   6  21   0.7823   1.0577   2.2952  -0.2275   0.4316  -0.5253   0.00    0.0
2026/01/15 00:00:30.000   22.434276499  114.335385961    63.5784   6  21   0.5532   0.7481   1.6219  -0.1611   0.3060  -0.3716   0.00    0.0
2026/01/15 00:01:00.000   22.434275809  114.335388201    63.9782   6  19   0.4590   0.6177   1.3573  -0.1548   0.2316  -0.2722   0.00    0.0
2026/01/15 00:01:30.000   22.434275187  114.335389410    64.2265   6  19   0.4011   0.5382   1.1910  -0.1442   0.1911  -0.2184   0.00    0.0
2026/01/15 00:02:00.000   22.434275044  114.335389443    64.1368   6  20   0.3601   0.4811   1.0716  -0.1306   0.1563  -0.1808   0.00    0.0
2026/01/15 00:02:30.000   22.434274349  114.335389696    63.8887   6  21   0.3269   0.4380   0.9674  -0.1149   0.1511  -0.1766   0.00    0.0
2026/01/15 00:03:00.000   22.434274029  114.335389401    63.8638   6  21   0.3014   0.4046   0.8878  -0.1035   0.1448  -0.1703   0.00    0.0
2026/01/15 00:03:30.000   22.434273814  114.335389139    63.8297   6  21   0.2810   0.3778   0.8241  -0.0947   0.1386  -0.1636   0.00    0.0
2026/01/15 00:04:00.000   22.434273694  114.335389064    63.8241   6  21   0.2641   0.3557   0.7717  -0.0878   0.1328  -0.1571   0.00    0.0
2026/01/15 00:04:30.000   22.434273687  114.335389041    63.8494   6  21   0.2499   0.3370   0.7274  -0.0821   0.1274  -0.1511   0.00    0.0
2026/01/15 00:05:00.000   22.434273818  114.335388864    63.8488   6  21   0.2377   0.3209   0.6894  -0.0773   0.1226  -0.1456   0.00    0.0
2026/01/15 00:05:30.000   22.434274056  114.335388653    63.7904   6  21   0.2271   0.3069   0.6564  -0.0733   0.1182  -0.1406   0.00    0.0
2026/01/15 00:06:00.000   22.434274324  114.335388360    63.7059   6  21   0.2178   0.2946   0.6272  -0.0698   0.1141  -0.1360   0.00    0.0
2026/01/15 00:06:30.000   22.434274538  114.335388161    63.6265   6  21   0.2095   0.2837   0.6013  -0.0667   0.1105  -0.1318   0.00    0.0
2026/01/15 00:07:00.000   22.434274645  114.335388059    63.5699   6  21   0.2021   0.2739   0.5781  -0.0640   0.1071  -0.1280   0.00    0.0
2026/01/15 00:07:30.000   22.434274627  114.335388048    63.5460   6  21   0.1954   0.2650   0.5573  -0.0616   0.1041  -0.1244   0.00    0.0
2026/01/15 00:08:00.000   22.434274605  114.335387980    63.5541   6  21   0.1893   0.2569   0.5379  -0.0594   0.1012  -0.1211   0.00    0.0
2026/01/15 00:08:30.000   22.434274628  114.335387792    63.5669   6  21   0.1836   0.2495   0.5198  -0.0573   0.0984  -0.1180   0.00    0.0
2026/01/15 00:09:00.000   22.434274695  114.335387547    63.5786   6  21   0.1784   0.2426   0.5030  -0.0555   0.0958  -0.1151   0.00    0.0
2026/01/15 00:09:30.000   22.434274793  114.335387371    63.5706   6  21   0.1735   0.2363   0.4872  -0.0537   0.0933  -0.1123   0.00    0.0
2026/01/15 00:10:00.000   22.434274800  114.335387211    63.5540   6  21   0.1690   0.2304   0.4725  -0.0521   0.0909  -0.1098   0.00    0.0
2026/01/15 00:10:30.000   22.434274750  114.335387055    63.5277   6  21   0.1648   0.2249   0.4588  -0.0506   0.0887  -0.1073   0.00    0.0
2026/01/15 00:11:00.000   22.434274679  114.335386878    63.4918   6  21   0.1609   0.2197   0.4460  -0.0492   0.0866  -0.1051   0.00    0.0
2026/01/15 00:11:30.000   22.434274651  114.335386700    63.4588   6  21   0.1573   0.2149   0.4341  -0.0480   0.0846  -0.1029   0.00    0.0
2026/01/15 00:12:00.000   22.434274721  114.335386605    63.4414   6  21   0.1538   0.2104   0.4230  -0.0468   0.0828  -0.1009   0.00    0.0
2026/01/15 00:12:30.000   22.434274757  114.335386601    63.4223   6  21   0.1506   0.2062   0.4127  -0.0457   0.0811  -0.0990   0.00    0.0
2026/01/15 00:13:00.000   22.434274800  114.335386605    63.4075   6  21   0.1476   0.2022   0.4027  -0.0446   0.0795  -0.0972   0.00    0.0
2026/01/15 00:13:30.000   22.434274879  114.335386579    63.3863   6  21   0.1446   0.1984   0.3929  -0.0435   0.0778  -0.0954   0.00    0.0
2026/01/15 00:14:00.000   22.434274969  114.335386507    63.3818   6  21   0.1418   0.1947   0.3834  -0.0425   0.0762  -0.0937   0.00    0.0
2026/01/15 00:14:30.000   22.434274995  114.335386429    63.3719   6  21   0.1391   0.1913   0.3743  -0.0415   0.0746  -0.0921   0.00    0.0
2026/01/15 00:15:00.000   22.434274977  114.335386335    63.3571   6  21   0.1365   0.1880   0.3655  -0.0406   0.0730  -0.0905   0.00    0.0
2026/01/15 00:15:30.000   22.434274965  114.335386223    63.3369   6  21   0.1341   0.1848   0.3572  -0.0397   0.0716  -0.0891   0.00    0.0
2026/01/15 00:16:00.000   22.434274988  114.335386123    63.3102   6  21   0.1318   0.1818   0.3493  -0.0389   0.0702  -0.0876   0.00    0.0
2026/01/15 00:16:30.000   22.434275037  114.335386047    63.2700   6  21   0.1295   0.1789   0.3419  -0.0381   0.0689  -0.0863   0.00    0.0
2026/01/15 00:17:00.000   22.434275085  114.335385996    63.2169   6  21   0.1274   0.1762   0.3349  -0.0373   0.0677  -0.0850   0.00    0.0
2026/01/15 00:17:30.000   22.434275154  114.335385920    63.1544   6  21   0.1254   0.1736   0.3284  -0.0366   0.0665  -0.0838   0.00    0.0
2026/01/15 00:18:00.000   22.434275290  114.335385775    63.0852   6  21   0.1235   0.1711   0.3219  -0.0359   0.0654  -0.0825   0.00    0.0
2026/01/15 00:18:30.000   22.434275452  114.335385670    63.0180   6  21   0.1216   0.1686   0.3154  -0.0352   0.0642  -0.0814   0.00    0.0
2026/01/15 00:19:00.000   22.434275571  114.335385661    62.9632   6  21   0.1197   0.1662   0.3090  -0.0345   0.0630  -0.0802   0.00    0.0
2026/01/15 00:19:30.000   22.434275641  114.335385645    62.9307   6  21   0.1179   0.1639   0.3027  -0.0338   0.0618  -0.0791   0.00    0.0
2026/01/15 00:20:00.000   22.434275685  114.335385609    62.9138   6  21   0.1161   0.1617   0.2967  -0.0331   0.0607  -0.0780   0.00    0.0
2026/01/15 00:20:30.000   22.434275717  114.335385603    62.9112   6  21   0.1144   0.1596   0.2909  -0.0325   0.0596  -0.0770   0.00    0.0
2026/01/15 00:21:00.000   22.434275738  114.335385607    62.9150   6  21   0.1128   0.1575   0.2853  -0.0318   0.0586  -0.0760   0.00    0.0
2026/01/15 00:21:30.000   22.434275731  114.335385622    62.9175   6  21   0.1113   0.1555   0.2801  -0.0312   0.0576  -0.0750   0.00    0.0
2026/01/15 00:22:00.000   22.434275696  114.335385614    62.9231   6  21   0.1098   0.1536   0.2752  -0.0307   0.0567  -0.0741   0.00    0.0
2026/01/15 00:22:30.000   22.434275670  114.335385572    62.9271   6  21   0.1083   0.1518   0.2706  -0.0302   0.0558  -0.0732   0.00    0.0
2026/01/15 00:23:00.000   22.434275674  114.335385493    62.9387   6  21   0.1069   0.1500   0.2660  -0.0296   0.0549  -0.0723   0.00    0.0
2026/01/15 00:23:30.000   22.434275665  114.335385447    62.9598   6  21   0.1055   0.1483   0.2613  -0.0291   0.0540  -0.0714   0.00    0.0
2026/01/15 00:24:00.000   22.434275648  114.335385418    62.9809   6  22   0.1041   0.1464   0.2564  -0.0283   0.0525  -0.0704   0.00    0.0
2026/01/15 00:24:30.000   22.434275645  114.335385362    62.9971   6  20   0.1029   0.1447   0.2524  -0.0276   0.0509  -0.0694   0.00    0.0
2026/01/15 00:25:00.000   22.434275648  114.335385291    63.0098   6  20   0.1016   0.1430   0.2485  -0.0270   0.0492  -0.0685   0.00    0.0
2026/01/15 00:25:30.000   22.434275647  114.335385247    63.0161   6  22   0.1003   0.1413   0.2445  -0.0259   0.0476  -0.0677   0.00    0.0
2026/01/15 00:26:00.000   22.434275680  114.335385213    63.0167   6  22   0.0990   0.1397   0.2406  -0.0249   0.0460  -0.0669   0.00    0.0
2026/01/15 00:26:30.000   22.434275721  114.335385151    63.0095   6  22   0.0978   0.1381   0.2369  -0.0239   0.0445  -0.0661   0.00    0.0
2026/01/15 00:27:00.000   22.434275806  114.335385034    63.0024   6  22   0.0966   0.1365   0.2334  -0.0230   0.0431  -0.0653   0.00    0.0
2026/01/15 00:27:30.000   22.434275902  114.335384873    62.9907   6  22   0.0955   0.1350   0.2302  -0.0221   0.0418  -0.0646   0.00    0.0
2026/01/15 00:28:00.000   22.434276016  114.335384698    62.9769   6  22   0.0944   0.1336   0.2268  -0.0212   0.0405  -0.0639   0.00    0.0
2026/01/15 00:28:30.000   22.434276135  114.335384571    62.9604   6  22   0.0933   0.1321   0.2234  -0.0203   0.0392  -0.0631   0.00    0.0
2026/01/15 00:29:00.000   22.434276288  114.335384482    62.9461   6  22   0.0922   0.1307   0.2201  -0.0194   0.0379  -0.0624   0.00    0.0
2026/01/15 00:29:30.000   22.434276447  114.335384412    62.9297   6  22   0.0911   0.1293   0.2167  -0.0185   0.0367  -0.0618   0.00    0.0
2026/01/15 00:30:00.000   22.434276583  114.335384346    62.9130   6  22   0.0900   0.1280   0.2134  -0.0177   0.0356  -0.0611   0.00    0.0
2026/01/15 00:30:30.000   22.434276698  114.335384280    62.8970   6  22   0.0890   0.1266   0.2102  -0.0168   0.0344  -0.0605   0.00    0.0
2026/01/15 00:31:00.000   22.434276811  114.335384197    62.8855   6  21   0.0880   0.1254   0.2072  -0.0162   0.0332  -0.0597   0.00    0.0
2026/01/15 00:31:30.000   22.434276919  114.335384114    62.8763   6  21   0.0871   0.1241   0.2044  -0.0156   0.0320  -0.0590   0.00    0.0
2026/01/15 00:32:00.000   22.434277019  114.335384025    62.8645   6  21   0.0862   0.1229   0.2017  -0.0151   0.0308  -0.0583   0.00    0.0
2026/01/15 00:32:30.000   22.434277111  114.335383939    62.8506   6  21   0.0853   0.1218   0.1992  -0.0146   0.0297  -0.0576   0.00    0.0
2026/01/15 00:33:00.000   22.434277184  114.335383877    62.8416   6  21   0.0845   0.1207   0.1966  -0.0140   0.0286  -0.0569   0.00    0.0
2026/01/15 00:33:30.000   22.434277250  114.335383868    62.8384   6  21   0.0836   0.1195   0.1940  -0.0135   0.0276  -0.0563   0.00    0.0
2026/01/15 00:34:00.000   22.434277314  114.335383886    62.8431   6  21   0.0827   0.1184   0.1913  -0.0129   0.0265  -0.0556   0.00    0.0
2026/01/15 00:34:30.000   22.434277361  114.335383946    62.8517   6  21   0.0819   0.1173   0.1887  -0.0123   0.0255  -0.0550   0.00    0.0
2026/01/15 00:35:00.000   22.434277369  114.335384069    62.8604   6  22   0.0810   0.1162   0.1860  -0.0115   0.0247  -0.0545   0.00    0.0
2026/01/15 00:35:30.000   22.434277388  114.335384175    62.8756   6  21   0.0801   0.1151   0.1834  -0.0109   0.0238  -0.0539   0.00    0.0
2026/01/15 00:36:00.000   22.434277403  114.335384257    62.8855   6  21   0.0793   0.1141   0.1816  -0.0103   0.0231  -0.0532   0.00    0.0
2026/01/15 00:36:30.000   22.434277428  114.335384310    62.8940   6  21   0.0785   0.1131   0.1798  -0.0098   0.0224  -0.0526   0.00    0.0
2026/01/15 00:37:00.000   22.434277457  114.335384350    62.9010   6  21   0.0778   0.1121   0.1780  -0.0092   0.0218  -0.0520   0.00    0.0
2026/01/15 00:37:30.000   22.434277506  114.335384391    62.9049   6  21   0.0771   0.1112   0.1764  -0.0087   0.0211  -0.0514   0.00    0.0
2026/01/15 00:38:00.000   22.434277580  114.335384416    62.9040   6  21   0.0764   0.1102   0.1747  -0.0082   0.0205  -0.0508   0.00    0.0
2026/01/15 00:38:30.000   22.434277676  114.335384420    62.9008   6  21   0.0756   0.1093   0.1730  -0.0076   0.0199  -0.0502   0.00    0.0
2026/01/15 00:39:00.000   22.434277794  114.335384390    62.8984   6  21   0.0749   0.1083   0.1712  -0.0070   0.0194  -0.0496   0.00    0.0
2026/01/15 00:39:30.000   22.434277912  114.335384349    62.8934   6  21   0.0742   0.1074   0.1694  -0.0063   0.0188  -0.0490   0.00    0.0
2026/01/15 00:40:00.000   22.434278019  114.335384302    62.8873   6  21   0.0734   0.1065   0.1677  -0.0056   0.0183  -0.0485   0.00    0.0
2026/01/15 00:40:30.000   22.434278069  114.335384302    62.8738   6  22   0.0727   0.1056   0.1659  -0.0044   0.0179  -0.0480   0.00    0.0
2026/01/15 00:41:00.000   22.434278083  114.335384320    62.8626   6  22   0.0720   0.1047   0.1642  -0.0028   0.0176  -0.0475   0.00    0.0
2026/01/15 00:41:30.000   22.434278070  114.335384339    62.8561   6  22   0.0713   0.1038   0.1626   0.0014   0.0172  -0.0471   0.00    0.0
2026/01/15 00:42:00.000   22.434278033  114.335384351    62.8529   6  22   0.0706   0.1029   0.1611   0.0033   0.0169  -0.0466   0.00    0.0
2026/01/15 00:42:30.000   22.434277986  114.335384371    62.8544   6  22   0.0700   0.1021   0.1596   0.0043   0.0166  -0.0462   0.00    0.0
2026/01/15 00:43:00.000   22.434277944  114.335384401    62.8591   6  22   0.0693   0.1013   0.1581   0.0052   0.0163  -0.0458   0.00    0.0
2026/01/15 00:43:30.000   22.434277937  114.335384396    62.8722   6  21   0.0687   0.1005   0.1566   0.0056   0.0159  -0.0453   0.00    0.0
2026/01/15 00:44:00.000   22.434277908  114.335384415    62.8809   6  22   0.0680   0.0997   0.1550   0.0063   0.0156  -0.0449   0.00    0.0
2026/01/15 00:44:30.000   22.434277909  114.335384422    62.8886   6  22   0.0674   0.0989   0.1534   0.0069   0.0153  -0.0445   0.00    0.0
2026/01/15 00:45:00.000   22.434277920  114.335384432    62.8911   6  22   0.0667   0.0981   0.1518   0.0074   0.0150  -0.0441   0.00    0.0
2026/01/15 00:45:30.000   22.434277940  114.335384449    62.8914   6  22   0.0661   0.0973   0.1503   0.0078   0.0147  -0.0437   0.00    0.0
2026/01/15 00:46:00.000   22.434277969  114.335384445    62.8918   6  22   0.0655   0.0965   0.1488   0.0082   0.0145  -0.0433   0.00    0.0
2026/01/15 00:46:30.000   22.434278020  114.335384442    62.8921   6  22   0.0649   0.0957   0.1474   0.0085   0.0142  -0.0429   0.00    0.0
2026/01/15 00:47:00.000   22.434278078  114.335384472    62.8903   6  22   0.0643   0.0950   0.1461   0.0088   0.0139  -0.0426   0.00    0.0
2026/01/15 00:47:30.000   22.434278148  114.335384507    62.8899   6  22   0.0638   0.0943   0.1448   0.0090   0.0137  -0.0422   0.00    0.0
2026/01/15 00:48:00.000   22.434278221  114.335384533    62.8921   6  22   0.0632   0.0936   0.1435   0.0092   0.0135  -0.0419   0.00    0.0
2026/01/15 00:48:30.000   22.434278273  114.335384558    62.8949   6  21   0.0627   0.0929   0.1421   0.0094   0.0132  -0.0415   0.00    0.0
2026/01/15 00:49:00.000   22.434278300  114.335384585    62.8990   6  21   0.0621   0.0922   0.1408   0.0096   0.0129  -0.0411   0.00    0.0
2026/01/15 00:49:30.000   22.434278328  114.335384603    62.9034   6  21   0.0615   0.0915   0.1395   0.0100   0.0130  -0.0407   0.00    0.0
2026/01/15 00:50:00.000   22.434278360  114.335384622    62.9047   6  21   0.0610   0.0908   0.1382   0.0102   0.0131  -0.0402   0.00    0.0
2026/01/15 00:50:30.000   22.434278401  114.335384635    62.9068   6  21   0.0605   0.0901   0.1370   0.0105   0.0131  -0.0397   0.00    0.0
2026/01/15 00:51:00.000   22.434278443  114.335384641    62.9103   6  21   0.0599   0.0894   0.1358   0.0107   0.0132  -0.0393   0.00    0.0
2026/01/15 00:51:30.000   22.434278475  114.335384655    62.9133   6  21   0.0595   0.0888   0.1347   0.0109   0.0132  -0.0389   0.00    0.0
2026/01/15 00:52:00.000   22.434278488  114.335384681    62.9128   6  21   0.0590   0.0881   0.1336   0.0111   0.0132  -0.0385   0.00    0.0
2026/01/15 00:52:30.000   22.434278501  114.335384713    62.9106   6  21   0.0585   0.0875   0.1326   0.0113   0.0132  -0.0381   0.00    0.0
2026/01/15 00:53:00.000   22.434278516  114.335384751    62.9083   6  21   0.0581   0.0869   0.1315   0.0114   0.0133  -0.0377   0.00    0.0
2026/01/15 00:53:30.000   22.434278527  114.335384790    62.9060   6  21   0.0576   0.0863   0.1304   0.0115   0.0133  -0.0373   0.00    0.0
2026/01/15 00:54:00.000   22.434278544  114.335384807    62.9055   6  21   0.0571   0.0857   0.1293   0.0117   0.0133  -0.0369   0.00    0.0
2026/01/15 00:54:30.000   22.434278580  114.335384781    62.9082   6  20   0.0566   0.0851   0.1281   0.0118   0.0132  -0.0365   0.00    0.0
2026/01/15 00:55:00.000   22.434278624  114.335384764    62.9121   6  20   0.0562   0.0845   0.1270   0.0118   0.0132  -0.0361   0.00    0.0
2026/01/15 00:55:30.000   22.434278677  114.335384741    62.9159   6  20   0.0557   0.0839   0.1259   0.0119   0.0131  -0.0357   0.00    0.0
2026/01/15 00:56:00.000   22.434278739  114.335384704    62.9177   6  20   0.0553   0.0833   0.1248   0.0119   0.0131  -0.0353   0.00    0.0
2026/01/15 00:56:30.000   22.434278801  114.335384669    62.9180   6  20   0.0548   0.0827   0.1238   0.0120   0.0130  -0.0350   0.00    0.0
2026/01/15 00:57:00.000   22.434278866  114.335384633    62.9167   6  20   0.0544   0.0822   0.1229   0.0120   0.0131  -0.0346   0.00    0.0
2026/01/15 00:57:30.000   22.434278929  114.335384601    62.9155   6  20   0.0541   0.0817   0.1220   0.0121   0.0131  -0.0343   0.00    0.0
2026/01/15 00:58:00.000   22.434278996  114.335384574    62.9152   6  20   0.0537   0.0812   0.1211   0.0121   0.0132  -0.0340   0.00    0.0
2026/01/15 00:58:30.000   22.434279049  114.335384537    62.9159   6  20   0.0532   0.0806   0.1201   0.0122   0.0133  -0.0336   0.00    0.0
2026/01/15 00:59:00.000   22.434279093  114.335384505    62.9174   6  20   0.0528   0.0801   0.1191   0.0122   0.0133  -0.0333   0.00    0.0
2026/01/15 00:59:30.000   22.434279121  114.335384488    62.9198   6  20   0.0524   0.0796   0.1181   0.0123   0.0134  -0.0329   0.00    0.0
2026/01/15 01:00:00.000   22.434279147  114.335384466    62.9222   6  20   0.0520   0.0790   0.1171   0.0123   0.0135  -0.0326   0.00    0.0
2026/01/15 01:00:30.000   22.434279174  114.335384443    62.9248   6  20   0.0516   0.0785   0.1162   0.0123   0.0135  -0.0323   0.00    0.0
2026/01/15 01:01:00.000   22.434279209  114.335384435    62.9272   6  20   0.0512   0.0780   0.1152   0.0124   0.0136  -0.0319   0.00    0.0
2026/01/15 01:01:30.000   22.434279256  114.335384454    62.9292   6  20   0.0508   0.0775   0.1143   0.0124   0.0136  -0.0316   0.00    0.0
2026/01/15 01:02:00.000   22.434279282  114.335384495    62.9288   6  21   0.0504   0.0770   0.1135   0.0124   0.0136  -0.0314   0.00    0.0
2026/01/15 01:02:30.000   22.434279304  114.335384523    62.9280   6  21   0.0501   0.0765   0.1127   0.0125   0.0137  -0.0311   0.00    0.0
2026/01/15 01:03:00.000   22.434279322  114.335384553    62.9282   6  21   0.0497   0.0761   0.1118   0.0125   0.0137  -0.0309   0.00    0.0
2026/01/15 01:03:30.000   22.434279335  114.335384582    62.9299   6  21   0.0493   0.0756   0.1110   0.0126   0.0138  -0.0306   0.00    0.0
2026/01/15 01:04:00.000   22.434279344  114.335384604    62.9321   6  21   0.0489   0.0751   0.1101   0.0126   0.0138  -0.0303   0.00    0.0
2026/01/15 01:04:30.000   22.434279347  114.335384627    62.9356   6  21   0.0485   0.0746   0.1092   0.0126   0.0138  -0.0301   0.00    0.0
2026/01/15 01:05:00.000   22.434279344  114.335384662    62.9401   6  21   0.0481   0.0741   0.1083   0.0127   0.0138  -0.0298   0.00    0.0
2026/01/15 01:05:30.000   22.434279314  114.335384713    62.9445   6  21   0.0478   0.0736   0.1074   0.0127   0.0138  -0.0296   0.00    0.0
2026/01/15 01:06:00.000   22.434279281  114.335384757    62.9483   6  21   0.0474   0.0732   0.1065   0.0127   0.0138  -0.0293   0.00    0.0
2026/01/15 01:06:30.000   22.434279250  114.335384797    62.9524   6  21   0.0471   0.0727   0.1057   0.0127   0.0138  -0.0291   0.00    0.0
2026/01/15 01:07:00.000   22.434279225  114.335384824    62.9578   6  21   0.0467   0.0723   0.1049   0.0127   0.0138  -0.0289   0.00    0.0
2026/01/15 01:07:30.000   22.434279206  114.335384850    62.9634   6  20   0.0464   0.0719   0.1042   0.0127   0.0137  -0.0287   0.00    0.0
2026/01/15 01:08:00.000   22.434279193  114.335384883    62.9686   6  20   0.0461   0.0714   0.1035   0.0127   0.0137  -0.0285   0.00    0.0
2026/01/15 01:08:30.000   22.434279188  114.335384912    62.9731   6  20   0.0457   0.0710   0.1027   0.0127   0.0136  -0.0282   0.00    0.0
2026/01/15 01:09:00.000   22.434279175  114.335384940    62.9755   6  20   0.0454   0.0706   0.1019   0.0127   0.0135  -0.0280   0.00    0.0
2026/01/15 01:09:30.000   22.434279168  114.335384955    62.9775   6  20   0.0451   0.0701   0.1011   0.0127   0.0135  -0.0278   0.00    0.0
2026/01/15 01:10:00.000   22.434279174  114.335384971    62.9792   6  20   0.0447   0.0697   0.1003   0.0127   0.0134  -0.0276   0.00    0.0
2026/01/15 01:10:30.000   22.434279185  114.335384985    62.9802   6  20   0.0444   0.0693   0.0995   0.0126   0.0133  -0.0274   0.00    0.0
2026/01/15 01:11:00.000   22.434279198  114.335384987    62.9804   6  20   0.0440   0.0688   0.0987   0.0126   0.0132  -0.0272   0.00    0.0
2026/01/15 01:11:30.000   22.434279214  114.335384988    62.9808   6  20   0.0437   0.0684   0.0980   0.0126   0.0131  -0.0270   0.00    0.0
2026/01/15 01:12:00.000   22.434279232  114.335384986    62.9821   6  20   0.0434   0.0680   0.0973   0.0126   0.0130  -0.0268   0.00    0.0
2026/01/15 01:12:30.000   22.434279240  114.335384982    62.9835   6  20   0.0432   0.0677   0.0967   0.0126   0.0130  -0.0266   0.00    0.0
2026/01/15 01:13:00.000   22.434279251  114.335384975    62.9864   6  20   0.0429   0.0673   0.0961   0.0126   0.0131  -0.0264   0.00    0.0
2026/01/15 01:13:30.000   22.434279270  114.335384968    62.9910   6  21   0.0426   0.0669   0.0954   0.0126   0.0131  -0.0262   0.00    0.0
2026/01/15 01:14:00.000   22.434279288  114.335384965    62.9963   6  21   0.0423   0.0666   0.0947   0.0126   0.0131  -0.0260   0.00    0.0
2026/01/15 01:14:30.000   22.434279300  114.335384970    63.0008   6  21   0.0419   0.0662   0.0939   0.0126   0.0131  -0.0258   0.00    0.0
2026/01/15 01:15:00.000   22.434279308  114.335384975    63.0042   6  21   0.0416   0.0658   0.0932   0.0125   0.0131  -0.0256   0.00    0.0
2026/01/15 01:15:30.000   22.434279321  114.335384976    63.0069   6  21   0.0413   0.0654   0.0925   0.0125   0.0130  -0.0254   0.00    0.0
2026/01/15 01:16:00.000   22.434279329  114.335384975    63.0096   6  21   0.0410   0.0650   0.0918   0.0125   0.0130  -0.0253   0.00    0.0
2026/01/15 01:16:30.000   22.434279335  114.335384966    63.0121   6  21   0.0407   0.0647   0.0912   0.0125   0.0130  -0.0251   0.00    0.0
2026/01/15 01:17:00.000   22.434279337  114.335384967    63.0136   6  21   0.0405   0.0643   0.0906   0.0125   0.0130  -0.0249   0.00    0.0
2026/01/15 01:17:30.000   22.434279337  114.335384958    63.0140   6  21   0.0402   0.0640   0.0900   0.0124   0.0129  -0.0248   0.00    0.0
2026/01/15 01:18:00.000   22.434279340  114.335384939    63.0164   6  22   0.0400   0.0637   0.0894   0.0124   0.0129  -0.0246   0.00    0.0
2026/01/15 01:18:30.000   22.434279343  114.335384918    63.0190   6  22   0.0397   0.0633   0.0888   0.0124   0.0129  -0.0245   0.00    0.0
2026/01/15 01:19:00.000   22.434279349  114.335384903    63.0217   6  22   0.0394   0.0630   0.0881   0.0124   0.0129  -0.0243   0.00    0.0
2026/01/15 01:19:30.000   22.434279356  114.335384880    63.0242   6  22   0.0391   0.0626   0.0875   0.0123   0.0129  -0.0242   0.00    0.0
2026/01/15 01:20:00.000   22.434279363  114.335384856    63.0276   6  22   0.0388   0.0622   0.0868   0.0123   0.0129  -0.0240   0.00    0.0
2026/01/15 01:20:30.000   22.434279368  114.335384832    63.0306   6  22   0.0386   0.0619   0.0862   0.0123   0.0128  -0.0239   0.00    0.0
2026/01/15 01:21:00.000   22.434279375  114.335384807    63.0335   6  22   0.0383   0.0615   0.0855   0.0123   0.0128  -0.0237   0.00    0.0
2026/01/15 01:21:30.000   22.434279381  114.335384778    63.0359   6  21   0.0381   0.0612   0.0850   0.0121   0.0130  -0.0236   0.00    0.0
2026/01/15 01:22:00.000   22.434279388  114.335384755    63.0383   6  21   0.0378   0.0610   0.0845   0.0120   0.0131  -0.0236   0.00    0.0
2026/01/15 01:22:30.000   22.434279394  114.335384735    63.0408   6  21   0.0376   0.0607   0.0840   0.0119   0.0132  -0.0235   0.00    0.0
2026/01/15 01:23:00.000   22.434279404  114.335384715    63.0443   6  21   0.0374   0.0604   0.0835   0.0118   0.0133  -0.0234   0.00    0.0
2026/01/15 01:23:30.000   22.434279418  114.335384686    63.0480   6  21   0.0372   0.0602   0.0829   0.0116   0.0135  -0.0233   0.00    0.0
2026/01/15 01:24:00.000   22.434279437  114.335384657    63.0523   6  21   0.0369   0.0599   0.0824   0.0115   0.0136  -0.0233   0.00    0.0
2026/01/15 01:24:30.000   22.434279458  114.335384626    63.0575   6  21   0.0367   0.0596   0.0818   0.0114   0.0137  -0.0232   0.00    0.0
2026/01/15 01:25:00.000   22.434279475  114.335384588    63.0630   6  21   0.0365   0.0593   0.0812   0.0112   0.0138  -0.0231   0.00    0.0
2026/01/15 01:25:30.000   22.434279489  114.335384546    63.0684   6  21   0.0362   0.0590   0.0807   0.0111   0.0139  -0.0230   0.00    0.0
2026/01/15 01:26:00.000   22.434279502  114.335384515    63.0731   6  21   0.0360   0.0587   0.0801   0.0109   0.0140  -0.0229   0.00    0.0
2026/01/15 01:26:30.000   22.434279513  114.335384492    63.0773   6  21   0.0358   0.0585   0.0796   0.0108   0.0140  -0.0229   0.00    0.0
2026/01/15 01:27:00.000   22.434279521  114.335384481    63.0809   6  21   0.0356   0.0582   0.0792   0.0107   0.0141  -0.0228   0.00    0.0
2026/01/15 01:27:30.000   22.434279529  114.335384471    63.0844   6  21   0.0354   0.0580   0.0787   0.0106   0.0141  -0.0227   0.00    0.0
2026/01/15 01:28:00.000   22.434279535  114.335384462    63.0880   6  21   0.0352   0.0577   0.0782   0.0104   0.0142  -0.0226   0.00    0.0
2026/01/15 01:28:30.000   22.434279544  114.335384460    63.0923   6  21   0.0350   0.0575   0.0777   0.0103   0.0142  -0.0226   0.00    0.0
2026/01/15 01:29:00.000   22.434279551  114.335384458    63.0968   6  21   0.0348   0.0572   0.0772   0.0102   0.0143  -0.0225   0.00    0.0
2026/01/15 01:29:30.000   22.434279561  114.335384453    63.1015   6  21   0.0345   0.0569   0.0767   0.0100   0.0143  -0.0224   0.00    0.0
2026/01/15 01:30:00.000   22.434279574  114.335384450    63.1057   6  21   0.0343   0.0567   0.0762   0.0099   0.0144  -0.0223   0.00    0.0
2026/01/15 01:30:30.000   22.434279591  114.335384452    63.1102   6  21   0.0341   0.0564   0.0757   0.0098   0.0144  -0.0223   0.00    0.0
2026/01/15 01:31:00.000   22.434279609  114.335384464    63.1148   6  21   0.0339   0.0561   0.0752   0.0096   0.0144  -0.0222   0.00    0.0
2026/01/15 01:31:30.000   22.434279623  114.335384477    63.1189   6  21   0.0337   0.0559   0.0747   0.0095   0.0144  -0.0221   0.00    0.0
2026/01/15 01:32:00.000   22.434279632  114.335384483    63.1224   6  21   0.0335   0.0557   0.0743   0.0094   0.0144  -0.0220   0.00    0.0
2026/01/15 01:32:30.000   22.434279635  114.335384483    63.1249   6  21   0.0333   0.0554   0.0739   0.0093   0.0145  -0.0220   0.00    0.0
2026/01/15 01:33:00.000   22.434279639  114.335384483    63.1276   6  21   0.0332   0.0552   0.0734   0.0092   0.0145  -0.0219   0.00    0.0
2026/01/15 01:33:30.000   22.434279640  114.335384477    63.1309   6  21   0.0330   0.0550   0.0730   0.0090   0.0145  -0.0218   0.00    0.0
2026/01/15 01:34:00.000   22.434279643  114.335384468    63.1348   6  21   0.0328   0.0547   0.0725   0.0089   0.0145  -0.0218   0.00    0.0
2026/01/15 01:34:30.000   22.434279647  114.335384456    63.1394   6  20   0.0326   0.0545   0.0720   0.0088   0.0145  -0.0217   0.00    0.0
2026/01/15 01:35:00.000   22.434279652  114.335384452    63.1448   6  20   0.0324   0.0542   0.0716   0.0086   0.0145  -0.0216   0.00    0.0
2026/01/15 01:35:30.000   22.434279654  114.335384454    63.1500   6  20   0.0322   0.0540   0.0711   0.0085   0.0145  -0.0215   0.00    0.0
2026/01/15 01:36:00.000   22.434279657  114.335384463    63.1552   6  21   0.0320   0.0537   0.0706   0.0084   0.0144  -0.0215   0.00    0.0
2026/01/15 01:36:30.000   22.434279661  114.335384475    63.1596   6  21   0.0318   0.0535   0.0702   0.0083   0.0144  -0.0214   0.00    0.0
2026/01/15 01:37:00.000   22.434279680  114.335384485    63.1629   6  21   0.0316   0.0533   0.0698   0.0082   0.0144  -0.0213   0.00    0.0
2026/01/15 01:37:30.000   22.434279699  114.335384497    63.1654   6  21   0.0315   0.0531   0.0694   0.0081   0.0144  -0.0213   0.00    0.0
2026/01/15 01:38:00.000   22.434279718  114.335384509    63.1679   6  21   0.0313   0.0528   0.0690   0.0079   0.0143  -0.0212   0.00    0.0
2026/01/15 01:38:30.000   22.434279742  114.335384524    63.1706   6  21   0.0311   0.0526   0.0686   0.0078   0.0143  -0.0211   0.00    0.0
2026/01/15 01:39:00.000   22.434279766  114.335384531    63.1737   6  21   0.0310   0.0524   0.0682   0.0077   0.0142  -0.0210   0.00    0.0
2026/01/15 01:39:30.000   22.434279789  114.335384525    63.1769   6  21   0.0308   0.0521   0.0677   0.0076   0.0142  -0.0210   0.00    0.0
2026/01/15 01:40:00.000   22.434279814  114.335384515    63.1804   6  21   0.0306   0.0519   0.0673   0.0075   0.0141  -0.0209   0.00    0.0
2026/01/15 01:40:30.000   22.434279838  114.335384501    63.1836   6  21   0.0304   0.0517   0.0668   0.0074   0.0141  -0.0208   0.00    0.0
2026/01/15 01:41:00.000   22.434279862  114.335384491    63.1866   6  21   0.0303   0.0515   0.0664   0.0072   0.0140  -0.0207   0.00    0.0
2026/01/15 01:41:30.000   22.434279884  114.335384491    63.1895   6  21   0.0301   0.0512   0.0660   0.0071   0.0140  -0.0207   0.00    0.0
2026/01/15 01:42:00.000   22.434279902  114.335384498    63.1917   6  21   0.0299   0.0510   0.0656   0.0070   0.0139  -0.0206   0.00    0.0
2026/01/15 01:42:30.000   22.434279907  114.335384506    63.1939   6  22   0.0298   0.0508   0.0653   0.0069   0.0139  -0.0205   0.00    0.0
2026/01/15 01:43:00.000   22.434279912  114.335384516    63.1967   6  22   0.0296   0.0506   0.0649   0.0068   0.0138  -0.0205   0.00    0.0
2026/01/15 01:43:30.000   22.434279918  114.335384531    63.2000   6  22   0.0295   0.0504   0.0645   0.0067   0.0138  -0.0204   0.00    0.0
2026/01/15 01:44:00.000   22.434279931  114.335384551    63.2040   6  21   0.0293   0.0502   0.0641   0.0066   0.0137  -0.0203   0.00    0.0
2026/01/15 01:44:30.000   22.434279947  114.335384571    63.2082   6  21   0.0291   0.0500   0.0637   0.0065   0.0137  -0.0202   0.00    0.0
2026/01/15 01:45:00.000   22.434279962  114.335384588    63.2117   6  21   0.0290   0.0498   0.0633   0.0064   0.0136  -0.0201   0.00    0.0
2026/01/15 01:45:30.000   22.434279975  114.335384599    63.2149   6  21   0.0288   0.0495   0.0629   0.0062   0.0135  -0.0201   0.00    0.0
2026/01/15 01:46:00.000   22.434279988  114.335384605    63.2180   6  22   0.0287   0.0493   0.0625   0.0061   0.0135  -0.0200   0.00    0.0
2026/01/15 01:46:30.000   22.434280000  114.335384602    63.2211   6  22   0.0285   0.0491   0.0621   0.0060   0.0134  -0.0199   0.00    0.0
2026/01/15 01:47:00.000   22.434280011  114.335384590    63.2242   6  22   0.0284   0.0489   0.0618   0.0059   0.0133  -0.0198   0.00    0.0
2026/01/15 01:47:30.000   22.434280021  114.335384577    63.2267   6  22   0.0282   0.0487   0.0615   0.0059   0.0132  -0.0198   0.00    0.0
2026/01/15 01:48:00.000   22.434280030  114.335384565    63.2289   6  22   0.0281   0.0485   0.0611   0.0058   0.0132  -0.0197   0.00    0.0
2026/01/15 01:48:30.000   22.434280043  114.335384554    63.2316   6  22   0.0279   0.0483   0.0608   0.0057   0.0131  -0.0196   0.00    0.0
2026/01/15 01:49:00.000   22.434280050  114.335384547    63.2345   6  23   0.0278   0.0481   0.0604   0.0056   0.0130  -0.0196   0.00    0.0
2026/01/15 01:49:30.000   22.434280061  114.335384549    63.2382   6  22   0.0276   0.0479   0.0600   0.0054   0.0129  -0.0195   0.00    0.0
2026/01/15 01:50:00.000   22.434280071  114.335384555    63.2417   6  22   0.0275   0.0477   0.0596   0.0053   0.0128  -0.0194   0.00    0.0
2026/01/15 01:50:30.000   22.434280077  114.335384561    63.2449   6  22   0.0273   0.0475   0.0592   0.0052   0.0127  -0.0193   0.00    0.0
2026/01/15 01:51:00.000   22.434280081  114.335384567    63.2481   6  22   0.0272   0.0473   0.0589   0.0051   0.0126  -0.0192   0.00    0.0
2026/01/15 01:51:30.000   22.434280083  114.335384579    63.2516   6  22   0.0271   0.0471   0.0585   0.0050   0.0126  -0.0192   0.00    0.0
2026/01/15 01:52:00.000   22.434280083  114.335384591    63.2550   6  22   0.0269   0.0470   0.0582   0.0049   0.0125  -0.0191   0.00    0.0
2026/01/15 01:52:30.000   22.434280082  114.335384598    63.2581   6  22   0.0268   0.0468   0.0579   0.0048   0.0124  -0.0190   0.00    0.0
2026/01/15 01:53:00.000   22.434280080  114.335384604    63.2617   6  22   0.0267   0.0466   0.0576   0.0047   0.0123  -0.0190   0.00    0.0
2026/01/15 01:53:30.000   22.434280078  114.335384605    63.2654   6  22   0.0265   0.0464   0.0573   0.0046   0.0122  -0.0189   0.00    0.0
2026/01/15 01:54:00.000   22.434280076  114.335384603    63.2690   6  22   0.0264   0.0462   0.0569   0.0045   0.0121  -0.0188   0.00    0.0
2026/01/15 01:54:30.000   22.434280071  114.335384596    63.2724   6  23   0.0263   0.0460   0.0566   0.0044   0.0120  -0.0188   0.00    0.0
2026/01/15 01:55:00.000   22.434280065  114.335384593    63.2756   6  23   0.0261   0.0458   0.0562   0.0043   0.0119  -0.0187   0.00    0.0
2026/01/15 01:55:30.000   22.434280067  114.335384591    63.2786   6  22   0.0260   0.0456   0.0558   0.0042   0.0118  -0.0186   0.00    0.0
2026/01/15 01:56:00.000   22.434280070  114.335384582    63.2806   6  21   0.0258   0.0455   0.0556   0.0040   0.0118  -0.0186   0.00    0.0
2026/01/15 01:56:30.000   22.434280077  114.335384568    63.2822   6  21   0.0257   0.0453   0.0554   0.0039   0.0117  -0.0186   0.00    0.0
2026/01/15 01:57:00.000   22.434280085  114.335384557    63.2839   6  21   0.0256   0.0451   0.0552   0.0038   0.0116  -0.0185   0.00    0.0
2026/01/15 01:57:30.000   22.434280087  114.335384545    63.2853   6  21   0.0255   0.0450   0.0550   0.0037   0.0115  -0.0185   0.00    0.0
2026/01/15 01:58:00.000   22.434280088  114.335384530    63.2870   6  21   0.0254   0.0448   0.0548   0.0036   0.0114  -0.0185   0.00    0.0
2026/01/15 01:58:30.000   22.434280085  114.335384515    63.2893   6  21   0.0253   0.0446   0.0546   0.0035   0.0113  -0.0185   0.00    0.0
2026/01/15 01:59:00.000   22.434280080  114.335384504    63.2922   6  21   0.0251   0.0444   0.0544   0.0034   0.0113  -0.0185   0.00    0.0
2026/01/15 01:59:30.000   22.434280073  114.335384492    63.2954   6  21   0.0250   0.0443   0.0541   0.0033   0.0112  -0.0184   0.00    0.0
2026/01/15 02:00:00.000   22.434280063  114.335384481    63.2988   6  21   0.0249   0.0441   0.0539   0.0032   0.0111  -0.0184   0.00    0.0
2026/01/15 02:00:30.000   22.434280052  114.335384469    63.3019   6  22   0.0248   0.0439   0.0537   0.0030   0.0110  -0.0184   0.00    0.0
2026/01/15 02:01:00.000   22.434280040  114.335384461    63.3050   6  22   0.0247   0.0437   0.0534   0.0029   0.0109  -0.0184   0.00    0.0
2026/01/15 02:01:30.000   22.434280030  114.335384456    63.3081   6  22   0.0245   0.0436   0.0532   0.0028   0.0108  -0.0183   0.00    0.0
2026/01/15 02:02:00.000   22.434280024  114.335384456    63.3114   6  22   0.0244   0.0434   0.0530   0.0027   0.0107  -0.0183   0.00    0.0
2026/01/15 02:02:30.000   22.434280018  114.335384456    63.3143   6  22   0.0243   0.0433   0.0528   0.0025   0.0106  -0.0183   0.00    0.0
2026/01/15 02:03:00.000   22.434280013  114.335384454    63.3168   6  22   0.0242   0.0431   0.0526   0.0024   0.0105  -0.0182   0.00    0.0
2026/01/15 02:03:30.000   22.434280008  114.335384449    63.3193   6  22   0.0241   0.0430   0.0524   0.0023   0.0104  -0.0182   0.00    0.0
2026/01/15 02:04:00.000   22.434280004  114.335384448    63.3219   6  22   0.0240   0.0428   0.0522   0.0021   0.0103  -0.0182   0.00    0.0
2026/01/15 02:04:30.000   22.434280003  114.335384448    63.3248   6  22   0.0239   0.0426   0.0520   0.0019   0.0102  -0.0182   0.00    0.0
2026/01/15 02:05:00.000   22.434280002  114.335384452    63.3278   6  22   0.0238   0.0425   0.0517   0.0017   0.0101  -0.0181   0.00    0.0
2026/01/15 02:05:30.000   22.434280002  114.335384453    63.3305   6  22   0.0237   0.0423   0.0515   0.0015   0.0100  -0.0181   0.00    0.0
2026/01/15 02:06:00.000   22.434280004  114.335384450    63.3330   6  22   0.0236   0.0421   0.0513   0.0013   0.0099  -0.0180   0.00    0.0
2026/01/15 02:06:30.000   22.434280005  114.335384442    63.3351   6  22   0.0234   0.0420   0.0511   0.0010   0.0098  -0.0180   0.00    0.0
2026/01/15 02:07:00.000   22.434280007  114.335384435    63.3372   6  22   0.0234   0.0418   0.0509   0.0007   0.0097  -0.0180   0.00    0.0
2026/01/15 02:07:30.000   22.434280009  114.335384434    63.3393   6  22   0.0233   0.0417   0.0507  -0.0001   0.0096  -0.0179   0.00    0.0
2026/01/15 02:08:00.000   22.434280011  114.335384440    63.3418   6  22   0.0232   0.0416   0.0505  -0.0007   0.0095  -0.0179   0.00    0.0
2026/01/15 02:08:30.000   22.434280009  114.335384449    63.3446   6  22   0.0231   0.0414   0.0503  -0.0011   0.0094  -0.0179   0.00    0.0
2026/01/15 02:09:00.000   22.434280007  114.335384460    63.3477   6  22   0.0230   0.0413   0.0500  -0.0013   0.0093  -0.0178   0.00    0.0
2026/01/15 02:09:30.000   22.434280003  114.335384464    63.3507   6  21   0.0228   0.0411   0.0498  -0.0015   0.0092  -0.0178   0.00    0.0
2026/01/15 02:10:00.000   22.434279998  114.335384464    63.3540   6  22   0.0227   0.0409   0.0496  -0.0017   0.0091  -0.0177   0.00    0.0
2026/01/15 02:10:30.000   22.434279992  114.335384457    63.3570   6  22   0.0226   0.0408   0.0494  -0.0017   0.0091  -0.0177   0.00    0.0
2026/01/15 02:11:00.000   22.434279984  114.335384452    63.3598   6  22   0.0225   0.0407   0.0492  -0.0017   0.0092  -0.0176   0.00    0.0
2026/01/15 02:11:30.000   22.434279976  114.335384445    63.3623   6  21   0.0224   0.0406   0.0491  -0.0017   0.0092  -0.0175   0.00    0.0
2026/01/15 02:12:00.000   22.434279969  114.335384446    63.3647   6  23   0.0224   0.0404   0.0489  -0.0018   0.0092  -0.0175   0.00    0.0
2026/01/15 02:12:30.000   22.434279962  114.335384444    63.3667   6  22   0.0223   0.0403   0.0488  -0.0018   0.0093  -0.0174   0.00    0.0
2026/01/15 02:13:00.000   22.434279955  114.335384443    63.3688   6  22   0.0222   0.0402   0.0486  -0.0018   0.0093  -0.0174   0.00    0.0
2026/01/15 02:13:30.000   22.434279948  114.335384446    63.3711   6  22   0.0221   0.0401   0.0485  -0.0018   0.0093  -0.0173   0.00    0.0
2026/01/15 02:14:00.000   22.434279943  114.335384452    63.3737   6  22   0.0220   0.0400   0.0483  -0.0018   0.0094  -0.0172   0.00    0.0
2026/01/15 02:14:30.000   22.434279939  114.335384454    63.3763   6  22   0.0219   0.0398   0.0481  -0.0019   0.0094  -0.0172   0.00    0.0
2026/01/15 02:15:00.000   22.434279936  114.335384451    63.3791   6  22   0.0218   0.0397   0.0480  -0.0019   0.0094  -0.0171   0.00    0.0
2026/01/15 02:15:30.000   22.434279933  114.335384444    63.3818   6  22   0.0217   0.0396   0.0478  -0.0019   0.0095  -0.0170   0.00    0.0
2026/01/15 02:16:00.000   22.434279929  114.335384434    63.3841   6  22   0.0216   0.0395   0.0476  -0.0020   0.0095  -0.0170   0.00    0.0
2026/01/15 02:16:30.000   22.434279926  114.335384426    63.3863   6  22   0.0215   0.0393   0.0475  -0.0020   0.0095  -0.0169   0.00    0.0
2026/01/15 02:17:00.000   22.434279923  114.335384424    63.3883   6  22   0.0214   0.0392   0.0473  -0.0020   0.0095  -0.0168   0.00    0.0
2026/01/15 02:17:30.000   22.434279919  114.335384425    63.3902   6  22   0.0214   0.0391   0.0472  -0.0020   0.0095  -0.0168   0.00    0.0
2026/01/15 02:18:00.000   22.434279915  114.335384423    63.3920   6  22   0.0213   0.0390   0.0470  -0.0020   0.0095  -0.0167   0.00    0.0
2026/01/15 02:18:30.000   22.434279911  114.335384419    63.3941   6  22   0.0212   0.0389   0.0468  -0.0021   0.0096  -0.0167   0.00    0.0
2026/01/15 02:19:00.000   22.434279907  114.335384416    63.3964   6  22   0.0211   0.0388   0.0467  -0.0021   0.0096  -0.0166   0.00    0.0
2026/01/15 02:19:30.000   22.434279904  114.335384408    63.3987   6  22   0.0210   0.0387   0.0465  -0.0021   0.0096  -0.0165   0.00    0.0
2026/01/15 02:20:00.000   22.434279900  114.335384402    63.4013   6  22   0.0209   0.0386   0.0463  -0.0022   0.0096  -0.0165   0.00    0.0
2026/01/15 02:20:30.000   22.434279896  114.335384393    63.4040   6  22   0.0208   0.0384   0.0461  -0.0022   0.0096  -0.0164   0.00    0.0
2026/01/15 02:21:00.000   22.434279893  114.335384383    63.4067   6  22   0.0207   0.0383   0.0460  -0.0023   0.0096  -0.0163   0.00    0.0
2026/01/15 02:21:30.000   22.434279890  114.335384374    63.4095   6  22   0.0206   0.0382   0.0458  -0.0023   0.0097  -0.0163   0.00    0.0
2026/01/15 02:22:00.000   22.434279886  114.335384367    63.4121   6  22   0.0206   0.0381   0.0456  -0.0023   0.0097  -0.0162   0.00    0.0
2026/01/15 02:22:30.000   22.434279882  114.335384361    63.4146   6  22   0.0205   0.0380   0.0455  -0.0023   0.0097  -0.0162   0.00    0.0
2026/01/15 02:23:00.000   22.434279879  114.335384356    63.4172   6  22   0.0204   0.0379   0.0454  -0.0024   0.0097  -0.0161   0.00    0.0
2026/01/15 02:23:30.000   22.434279876  114.335384350    63.4198   6  22   0.0203   0.0378   0.0452  -0.0024   0.0097  -0.0161   0.00    0.0
2026/01/15 02:24:00.000   22.434279876  114.335384345    63.4224   6  22   0.0202   0.0377   0.0450  -0.0024   0.0097  -0.0160   0.00    0.0
2026/01/15 02:24:30.000   22.434279874  114.335384339    63.4249   6  22   0.0202   0.0376   0.0448  -0.0025   0.0097  -0.0159   0.00    0.0
2026/01/15 02:25:00.000   22.434279872  114.335384333    63.4273   6  22   0.0201   0.0375   0.0447  -0.0025   0.0097  -0.0159   0.00    0.0
2026/01/15 02:25:30.000   22.434279868  114.335384328    63.4295   6  22   0.0200   0.0374   0.0445  -0.0025   0.0097  -0.0158   0.00    0.0
2026/01/15 02:26:00.000   22.434279864  114.335384325    63.4316   6  22   0.0199   0.0373   0.0443  -0.0026   0.0097  -0.0157   0.00    0.0
2026/01/15 02:26:30.000   22.434279862  114.335384324    63.4335   6  22   0.0198   0.0372   0.0442  -0.0026   0.0097  -0.0157   0.00    0.0
2026/01/15 02:27:00.000   22.434279861  114.335384320    63.4351   6  22   0.0198   0.0371   0.0440  -0.0026   0.0097  -0.0156   0.00    0.0
2026/01/15 02:27:30.000   22.434279860  114.335384315    63.4365   6  22   0.0197   0.0370   0.0439  -0.0027   0.0097  -0.0156   0.00    0.0
2026/01/15 02:28:00.000   22.434279859  114.335384308    63.4378   6  21   0.0196   0.0369   0.0437  -0.0027   0.0097  -0.0155   0.00    0.0
2026/01/15 02:28:30.000   22.434279858  114.335384301    63.4392   6  21   0.0195   0.0368   0.0435  -0.0027   0.0097  -0.0155   0.00    0.0
2026/01/15 02:29:00.000   22.434279858  114.335384295    63.4408   6  21   0.0195   0.0367   0.0434  -0.0028   0.0097  -0.0154   0.00    0.0
2026/01/15 02:29:30.000   22.434279859  114.335384286    63.4429   6  21   0.0194   0.0366   0.0432  -0.0028   0.0097  -0.0153   0.00    0.0
2026/01/15 02:30:00.000   22.434279858  114.335384279    63.4453   6  21   0.0193   0.0365   0.0430  -0.0029   0.0098  -0.0153   0.00    0.0
2026/01/15 02:30:30.000   22.434279857  114.335384274    63.4479   6  21   0.0192   0.0364   0.0429  -0.0029   0.0098  -0.0152   0.00    0.0
2026/01/15 02:31:00.000   22.434279854  114.335384275    63.4507   6  21   0.0191   0.0363   0.0427  -0.0029   0.0098  -0.0152   0.00    0.0
2026/01/15 02:31:30.000   22.434279849  114.335384280    63.4537   6  21   0.0191   0.0362   0.0425  -0.0030   0.0098  -0.0151   0.00    0.0
2026/01/15 02:32:00.000   22.434279843  114.335384281    63.4566   6  21   0.0190   0.0361   0.0424  -0.0030   0.0098  -0.0150   0.00    0.0
2026/01/15 02:32:30.000   22.434279837  114.335384278    63.4594   6  21   0.0189   0.0360   0.0422  -0.0030   0.0097  -0.0150   0.00    0.0
2026/01/15 02:33:00.000   22.434279832  114.335384277    63.4622   6  21   0.0189   0.0359   0.0421  -0.0030   0.0097  -0.0149   0.00    0.0
2026/01/15 02:33:30.000   22.434279824  114.335384278    63.4650   6  21   0.0188   0.0358   0.0419  -0.0031   0.0097  -0.0149   0.00    0.0
2026/01/15 02:34:00.000   22.434279817  114.335384285    63.4677   6  21   0.0187   0.0357   0.0418  -0.0031   0.0097  -0.0148   0.00    0.0
2026/01/15 02:34:30.000   22.434279812  114.335384293    63.4700   6  21   0.0186   0.0356   0.0416  -0.0031   0.0097  -0.0148   0.00    0.0
2026/01/15 02:35:00.000   22.434279806  114.335384298    63.4722   6  21   0.0185   0.0355   0.0414  -0.0032   0.0097  -0.0147   0.00    0.0
2026/01/15 02:35:30.000   22.434279801  114.335384297    63.4744   6  21   0.0185   0.0354   0.0412  -0.0032   0.0097  -0.0146   0.00    0.0
2026/01/15 02:36:00.000   22.434279798  114.335384295    63.4765   6  21   0.0184   0.0353   0.0411  -0.0033   0.0097  -0.0146   0.00    0.0
2026/01/15 02:36:30.000   22.434279796  114.335384291    63.4785   6  21   0.0183   0.0353   0.0409  -0.0033   0.0097  -0.0145   0.00    0.0
2026/01/15 02:37:00.000   22.434279794  114.335384282    63.4803   6  21   0.0183   0.0352   0.0408  -0.0033   0.0097  -0.0145   0.00    0.0
2026/01/15 02:37:30.000   22.434279793  114.335384269    63.4820   6  21   0.0182   0.0351   0.0406  -0.0033   0.0097  -0.0144   0.00    0.0
2026/01/15 02:38:00.000   22.434279790  114.335384249    63.4836   6  21   0.0181   0.0350   0.0405  -0.0034   0.0097  -0.0144   0.00    0.0
2026/01/15 02:38:30.000   22.434279785  114.335384229    63.4856   6  21   0.0181   0.0349   0.0403  -0.0034   0.0097  -0.0143   0.00    0.0
2026/01/15 02:39:00.000   22.434279779  114.335384212    63.4878   6  21   0.0180   0.0348   0.0402  -0.0034   0.0097  -0.0143   0.00    0.0
2026/01/15 02:39:30.000   22.434279774  114.335384198    63.4902   6  21   0.0179   0.0347   0.0400  -0.0035   0.0097  -0.0142   0.00    0.0
2026/01/15 02:40:00.000   22.434279769  114.335384185    63.4927   6  21   0.0179   0.0347   0.0398  -0.0035   0.0097  -0.0141   0.00    0.0
2026/01/15 02:40:30.000   22.434279766  114.335384173    63.4950   6  21   0.0178   0.0346   0.0397  -0.0035   0.0097  -0.0141   0.00    0.0
2026/01/15 02:41:00.000   22.434279762  114.335384164    63.4971   6  21   0.0177   0.0345   0.0395  -0.0036   0.0097  -0.0140   0.00    0.0
2026/01/15 02:41:30.000   22.434279758  114.335384159    63.4991   6  21   0.0176   0.0344   0.0394  -0.0036   0.0097  -0.0140   0.00    0.0
2026/01/15 02:42:00.000   22.434279757  114.335384158    63.5008   6  21   0.0176   0.0343   0.0392  -0.0036   0.0097  -0.0139   0.00    0.0
2026/01/15 02:42:30.000   22.434279757  114.335384154    63.5020   6  21   0.0175   0.0342   0.0391  -0.0036   0.0097  -0.0139   0.00    0.0
2026/01/15 02:43:00.000   22.434279756  114.335384147    63.5032   6  21   0.0175   0.0342   0.0389  -0.0037   0.0097  -0.0138   0.00    0.0
2026/01/15 02:43:30.000   22.434279755  114.335384140    63.5044   6  21   0.0174   0.0341   0.0388  -0.0037   0.0097  -0.0138   0.00    0.0
2026/01/15 02:44:00.000   22.434279753  114.335384135    63.5057   6  21   0.0173   0.0340   0.0386  -0.0037   0.0097  -0.0137   0.00    0.0
2026/01/15 02:44:30.000   22.434279750  114.335384130    63.5074   6  21   0.0173   0.0339   0.0385  -0.0038   0.0097  -0.0137   0.00    0.0
2026/01/15 02:45:00.000   22.434279746  114.335384124    63.5091   6  21   0.0172   0.0338   0.0383  -0.0038   0.0097  -0.0136   0.00    0.0
2026/01/15 02:45:30.000   22.434279740  114.335384119    63.5111   6  21   0.0171   0.0338   0.0381  -0.0038   0.0097  -0.0136   0.00    0.0
2026/01/15 02:46:00.000   22.434279734  114.335384114    63.5131   6  21   0.0171   0.0337   0.0380  -0.0039   0.0097  -0.0135   0.00    0.0
2026/01/15 02:46:30.000   22.434279726  114.335384111    63.5151   6  21   0.0170   0.0336   0.0378  -0.0039   0.0097  -0.0135   0.00    0.0
2026/01/15 02:47:00.000   22.434279718  114.335384108    63.5173   6  21   0.0169   0.0335   0.0377  -0.0039   0.0097  -0.0134   0.00    0.0
2026/01/15 02:47:30.000   22.434279712  114.335384106    63.5192   6  21   0.0169   0.0335   0.0376  -0.0039   0.0097  -0.0134   0.00    0.0
2026/01/15 02:48:00.000   22.434279706  114.335384101    63.5210   6  21   0.0168   0.0334   0.0374  -0.0040   0.0097  -0.0133   0.00    0.0
2026/01/15 02:48:30.000   22.434279698  114.335384095    63.5230   6  21   0.0168   0.0333   0.0373  -0.0040   0.0097  -0.0133   0.00    0.0
2026/01/15 02:49:00.000   22.434279691  114.335384088    63.5249   6  21   0.0167   0.0332   0.0371  -0.0040   0.0097  -0.0132   0.00    0.0
2026/01/15 02:49:30.000   22.434279684  114.335384076    63.5268   6  21   0.0166   0.0331   0.0370  -0.0040   0.0097  -0.0132   0.00    0.0
2026/01/15 02:50:00.000   22.434279677  114.335384064    63.5285   6  21   0.0166   0.0331   0.0368  -0.0041   0.0097  -0.0131   0.00    0.0
2026/01/15 02:50:30.000   22.434279671  114.335384050    63.5300   6  21   0.0165   0.0330   0.0367  -0.0041   0.0097  -0.0131   0.00    0.0
2026/01/15 02:51:00.000   22.434279667  114.335384033    63.5315   6  21   0.0165   0.0329   0.0365  -0.0041   0.0097  -0.0130   0.00    0.0
2026/01/15 02:51:30.000   22.434279663  114.335384018    63.5331   6  21   0.0164   0.0328   0.0364  -0.0041   0.0097  -0.0130   0.00    0.0
2026/01/15 02:52:00.000   22.434279660  114.335384005    63.5346   6  21   0.0163   0.0328   0.0362  -0.0042   0.0097  -0.0129   0.00    0.0
2026/01/15 02:52:30.000   22.434279656  114.335383992    63.5360   6  21   0.0163   0.0327   0.0361  -0.0042   0.0097  -0.0129   0.00    0.0
2026/01/15 02:53:00.000   22.434279652  114.335383982    63.5374   6  21   0.0162   0.0326   0.0360  -0.0042   0.0097  -0.0128   0.00    0.0
2026/01/15 02:53:30.000   22.434279649  114.335383970    63.5388   6  21   0.0162   0.0326   0.0358  -0.0042   0.0097  -0.0128   0.00    0.0
2026/01/15 02:54:00.000   22.434279645  114.335383962    63.5405   6  21   0.0161   0.0325   0.0357  -0.0043   0.0097  -0.0127   0.00    0.0
2026/01/15 02:54:30.000   22.434279641  114.335383955    63.5423   6  21   0.0161   0.0324   0.0355  -0.0043   0.0097  -0.0127   0.00    0.0
2026/01/15 02:55:00.000   22.434279636  114.335383947    63.5442   6  21   0.0160   0.0324   0.0354  -0.0043   0.0097  -0.0126   0.00    0.0
2026/01/15 02:55:30.000   22.434279631  114.335383940    63.5460   6  21   0.0159   0.0323   0.0352  -0.0044   0.0097  -0.0126   0.00    0.0
2026/01/15 02:56:00.000   22.434279626  114.335383935    63.5479   6  21   0.0159   0.0322   0.0351  -0.0044   0.0097  -0.0125   0.00    0.0
2026/01/15 02:56:30.000   22.434279622  114.335383931    63.5499   6  22   0.0158   0.0321   0.0349  -0.0044   0.0097  -0.0125   0.00    0.0
2026/01/15 02:57:00.000   22.434279617  114.335383926    63.5517   6  22   0.0158   0.0321   0.0348  -0.0044   0.0097  -0.0124   0.00    0.0
2026/01/15 02:57:30.000   22.434279612  114.335383922    63.5535   6  22   0.0157   0.0320   0.0347  -0.0044   0.0097  -0.0124   0.00    0.0
2026/01/15 02:58:00.000   22.434279608  114.335383920    63.5553   6  22   0.0157   0.0319   0.0346  -0.0045   0.0097  -0.0123   0.00    0.0
2026/01/15 02:58:30.000   22.434279605  114.335383921    63.5568   6  22   0.0156   0.0319   0.0344  -0.0045   0.0097  -0.0123   0.00    0.0
2026/01/15 02:59:00.000   22.434279602  114.335383921    63.5583   6  22   0.0156   0.0318   0.0343  -0.0045   0.0097  -0.0122   0.00    0.0
2026/01/15 02:59:30.000   22.434279599  114.335383919    63.5596   6  22   0.0155   0.0317   0.0341  -0.0045   0.0097  -0.0122   0.00    0.0
2026/01/15 03:00:00.000   22.434279595  114.335383912    63.5609   6  22   0.0154   0.0317   0.0340  -0.0045   0.0096  -0.0122   0.00    0.0
2026/01/15 03:00:30.000   22.434279593  114.335383900    63.5620   6  22   0.0154   0.0316   0.0339  -0.0046   0.0097  -0.0121   0.00    0.0
2026/01/15 03:01:00.000   22.434279590  114.335383888    63.5631   6  22   0.0153   0.0315   0.0338  -0.0046   0.0097  -0.0120   0.00    0.0
2026/01/15 03:01:30.000   22.434279587  114.335383879    63.5642   6  22   0.0153   0.0315   0.0336  -0.0046   0.0097  -0.0120   0.00    0.0
2026/01/15 03:02:00.000   22.434279585  114.335383874    63.5654   6  22   0.0152   0.0314   0.0335  -0.0046   0.0097  -0.0119   0.00    0.0
2026/01/15 03:02:30.000   22.434279582  114.335383868    63.5666   6  22   0.0152   0.0313   0.0334  -0.0046   0.0097  -0.0119   0.00    0.0
2026/01/15 03:03:00.000   22.434279577  114.335383861    63.5678   6  22   0.0152   0.0313   0.0333  -0.0046   0.0097  -0.0118   0.00    0.0
2026/01/15 03:03:30.000   22.434279572  114.335383857    63.5690   6  22   0.0151   0.0312   0.0332  -0.0047   0.0097  -0.0118   0.00    0.0
2026/01/15 03:04:00.000   22.434279566  114.335383854    63.5702   6  22   0.0151   0.0311   0.0331  -0.0047   0.0097  -0.0117   0.00    0.0
2026/01/15 03:04:30.000   22.434279561  114.335383849    63.5715   6  22   0.0150   0.0311   0.0330  -0.0047   0.0097  -0.0117   0.00    0.0
2026/01/15 03:05:00.000   22.434279555  114.335383844    63.5728   6  22   0.0149   0.0310   0.0329  -0.0047   0.0097  -0.0116   0.00    0.0
2026/01/15 03:05:30.000   22.434279550  114.335383837    63.5739   6  22   0.0149   0.0310   0.0327  -0.0047   0.0097  -0.0115   0.00    0.0
2026/01/15 03:06:00.000   22.434279545  114.335383833    63.5749   6  22   0.0148   0.0309   0.0326  -0.0047   0.0097  -0.0115   0.00    0.0
2026/01/15 03:06:30.000   22.434279540  114.335383827    63.5758   6  22   0.0148   0.0308   0.0325  -0.0048   0.0098  -0.0114   0.00    0.0
2026/01/15 03:07:00.000   22.434279536  114.335383819    63.5767   6  22   0.0148   0.0308   0.0324  -0.0048   0.0098  -0.0114   0.00    0.0
2026/01/15 03:07:30.000   22.434279532  114.335383810    63.5775   6  22   0.0147   0.0307   0.0323  -0.0048   0.0098  -0.0113   0.00    0.0
2026/01/15 03:08:00.000   22.434279529  114.335383801    63.5785   6  22   0.0147   0.0307   0.0322  -0.0048   0.0098  -0.0113   0.00    0.0
2026/01/15 03:08:30.000   22.434279524  114.335383791    63.5794   6  22   0.0146   0.0306   0.0321  -0.0048   0.0098  -0.0113   0.00    0.0
2026/01/15 03:09:00.000   22.434279519  114.335383779    63.5803   6  22   0.0146   0.0305   0.0320  -0.0048   0.0098  -0.0112   0.00    0.0
2026/01/15 03:09:30.000   22.434279515  114.335383768    63.5813   6  22   0.0145   0.0305   0.0319  -0.0049   0.0098  -0.0111   0.00    0.0
2026/01/15 03:10:00.000   22.434279511  114.335383754    63.5817   6  22   0.0145   0.0304   0.0318  -0.0049   0.0098  -0.0111   0.00    0.0
2026/01/15 03:10:30.000   22.434279508  114.335383739    63.5821   6  22   0.0144   0.0304   0.0317  -0.0049   0.0099  -0.0110   0.00    0.0
2026/01/15 03:11:00.000   22.434279505  114.335383724    63.5823   6  22   0.0144   0.0303   0.0316  -0.0049   0.0099  -0.0110   0.00    0.0
2026/01/15 03:11:30.000   22.434279504  114.335383712    63.5826   6  22   0.0143   0.0302   0.0315  -0.0049   0.0100  -0.0109   0.00    0.0
2026/01/15 03:12:00.000   22.434279501  114.335383702    63.5829   6  22   0.0143   0.0302   0.0315  -0.0049   0.0100  -0.0109   0.00    0.0
2026/01/15 03:12:30.000   22.434279498  114.335383692    63.5833   6  22   0.0143   0.0301   0.0314  -0.0049   0.0100  -0.0108   0.00    0.0
2026/01/15 03:13:00.000   22.434279494  114.335383687    63.5839   6  21   0.0142   0.0301   0.0313  -0.0049   0.0101  -0.0108   0.00    0.0
2026/01/15 03:13:30.000   22.434279490  114.335383684    63.5847   6  21   0.0142   0.0301   0.0312  -0.0049   0.0101  -0.0107   0.00    0.0
2026/01/15 03:14:00.000   22.434279485  114.335383681    63.5855   6  21   0.0141   0.0300   0.0311  -0.0049   0.0102  -0.0106   0.00    0.0
2026/01/15 03:14:30.000   22.434279480  114.335383679    63.5864   6  21   0.0141   0.0300   0.0311  -0.0048   0.0102  -0.0106   0.00    0.0
2026/01/15 03:15:00.000   22.434279475  114.335383678    63.5874   6  21   0.0140   0.0299   0.0310  -0.0048   0.0103  -0.0105   0.00    0.0
2026/01/15 03:15:30.000   22.434279469  114.335383678    63.5884   6  21   0.0140   0.0299   0.0309  -0.0048   0.0103  -0.0104   0.00    0.0
2026/01/15 03:16:00.000   22.434279463  114.335383679    63.5893   6  21   0.0140   0.0298   0.0308  -0.0048   0.0104  -0.0104   0.00    0.0
2026/01/15 03:16:30.000   22.434279458  114.335383680    63.5902   6  21   0.0139   0.0298   0.0307  -0.0048   0.0104  -0.0103   0.00    0.0
2026/01/15 03:17:00.000   22.434279453  114.335383678    63.5910   6  21   0.0139   0.0298   0.0307  -0.0048   0.0105  -0.0103   0.00    0.0
2026/01/15 03:17:30.000   22.434279449  114.335383673    63.5917   6  21   0.0139   0.0297   0.0306  -0.0048   0.0105  -0.0102   0.00    0.0
2026/01/15 03:18:00.000   22.434279445  114.335383668    63.5923   6  21   0.0138   0.0297   0.0305  -0.0047   0.0106  -0.0101   0.00    0.0
2026/01/15 03:18:30.000   22.434279442  114.335383664    63.5930   6  21   0.0138   0.0297   0.0305  -0.0047   0.0106  -0.0101   0.00    0.0
2026/01/15 03:19:00.000   22.434279438  114.335383660    63.5938   6  21   0.0138   0.0296   0.0304  -0.0047   0.0107  -0.0100   0.00    0.0
2026/01/15 03:19:30.000   22.434279435  114.335383657    63.5945   6  21   0.0137   0.0296   0.0303  -0.0047   0.0107  -0.0099   0.00    0.0
2026/01/15 03:20:00.000   22.434279431  114.335383653    63.5952   6  21   0.0137   0.0295   0.0302  -0.0047   0.0108  -0.0099   0.00    0.0
2026/01/15 03:20:30.000   22.434279428  114.335383646    63.5958   6  21   0.0136   0.0295   0.0302  -0.0047   0.0108  -0.0098   0.00    0.0
2026/01/15 03:21:00.000   22.434279425  114.335383638    63.5963   6  21   0.0136   0.0294   0.0301  -0.0047   0.0109  -0.0097   0.00    0.0
2026/01/15 03:21:30.000   22.434279422  114.335383631    63.5969   6  21   0.0136   0.0294   0.0300  -0.0046   0.0109  -0.0097   0.00    0.0
2026/01/15 03:22:00.000   22.434279419  114.335383624    63.5975   6  21   0.0135   0.0294   0.0300  -0.0046   0.0110  -0.0096   0.00    0.0
2026/01/15 03:22:30.000   22.434279416  114.335383618    63.5982   6  21   0.0135   0.0293   0.0299  -0.0046   0.0110  -0.0096   0.00    0.0
2026/01/15 03:23:00.000   22.434279413  114.335383610    63.5989   6  21   0.0135   0.0293   0.0299  -0.0046   0.0110  -0.0095   0.00    0.0
2026/01/15 03:23:30.000   22.434279411  114.335383602    63.5996   6  21   0.0135   0.0293   0.0298  -0.0046   0.0111  -0.0094   0.00    0.0
2026/01/15 03:24:00.000   22.434279408  114.335383592    63.6002   6  21   0.0134   0.0292   0.0297  -0.0046   0.0111  -0.0094   0.00    0.0
2026/01/15 03:24:30.000   22.434279406  114.335383582    63.6007   6  21   0.0134   0.0292   0.0296  -0.0046   0.0112  -0.0093   0.00    0.0
2026/01/15 03:25:00.000   22.434279404  114.335383572    63.6009   6  18   0.0133   0.0291   0.0296  -0.0046   0.0112  -0.0093   0.00    0.0
2026/01/15 03:25:30.000   22.434279402  114.335383563    63.6010   6  18   0.0133   0.0291   0.0295  -0.0046   0.0113  -0.0092   0.00    0.0
2026/01/15 03:26:00.000   22.434279398  114.335383559    63.6015   6  19   0.0133   0.0291   0.0294  -0.0045   0.0113  -0.0091   0.00    0.0
2026/01/15 03:26:30.000   22.434279393  114.335383556    63.6021   6  19   0.0132   0.0290   0.0294  -0.0045   0.0114  -0.0091   0.00    0.0
2026/01/15 03:27:00.000   22.434279390  114.335383558    63.6024   6  17   0.0132   0.0290   0.0293  -0.0045   0.0114  -0.0090   0.00    0.0
2026/01/15 03:27:30.000   22.434279388  114.335383563    63.6026   6  17   0.0132   0.0290   0.0293  -0.0045   0.0114  -0.0090   0.00    0.0
2026/01/15 03:28:00.000   22.434279383  114.335383565    63.6029   6  19   0.0132   0.0289   0.0292  -0.0045   0.0115  -0.0089   0.00    0.0
