% program   : RTKPOST ver.demo5 b34d
% inp file  : E:\Master courses\SNDP-PROJECT\Old_data\data\HKWS00HKG_R_20260150000_01D_30S_MO.rnx
% inp file  : E:\Master courses\SNDP-PROJECT\New_Data\nav\BRDC00IGS_R_20260150000_01D_MN.rnx
% inp file  : E:\Master courses\SNDP-PROJECT\New_Data\DATA_FINAL_ANT_EXTRA\COD0MGXFIN_20260150000_01D_05M_ORB.SP3
% inp file  : E:\Master courses\SNDP-PROJECT\New_Data\DATA_FINAL_ANT_EXTRA\COD0MGXFIN_20260150000_01D_30S_CLK.CLK
% obs start : 2026/01/15 00:00:00.0 GPST (week2401 345600.0s)
% obs end   : 2026/01/15 23:59:30.0 GPST (week2401 431970.0s)
% pos mode  : PPP Static
% solution  : Forward
% elev mask : 15.0 deg
% dynamics  : off
% tidecorr  : off
% tropo opt : Saastamoinen
% ephemeris : Precise
% navi sys  : GPS Galileo BDS
% antenna1  : LEIAR25.R4      LEIT  ( 0.0000  0.0000  0.0083)
%
% (lat/lon/height=WGS84/ellipsoidal,Q=1:fix,2:float,3:sbas,4:dgps,5:single,6:ppp,ns=# of satellites)
%  GPST                  latitude(deg) longitude(deg)  height(m)   Q  ns   sdn(m)   sde(m)   sdu(m)  sdne(m)  sdeu(m)  sdun(m) age(s)  ratio
2026/01/15 00:00:00.000   22.434276703  114.335383808    63.4230   6  21   0.7823   1.0577   2.2952  -0.2275   0.4316  -0.5253   0.00    0.0
2026/01/15 00:00:30.000   22.434276499  114.335385961    63.5784   6  21   0.5532   0.7481   1.6219  -0.1611   0.3060  -0.3716   0.00    0.0
2026/01/15 00:01:00.000   22.434275809  114.335388201    63.9782   6  19   0.4590   0.6177   1.3573  -0.1548   0.2316  -0.2722   0.00    0.0
2026/01/15 00:01:30.000   22.434275187  114.335389410    64.2265   6  19   0.4011   0.5382   1.1910  -0.1442   0.1911  -0.2184   0.00    0.0
2026/01/15 00:02:00.000   22.434275044  114.335389443    64.1368   6  20   0.3601   0.4811   1.0716  -0.1306   0.1563  -0.1808   0.00    0.0
2026/01/15 00:02:30.000   22.434274349  114.335389696    63.8887   6  21   0.3269   0.4380   0.9674  -0.1149   0.1511  -0.1766   0.00    0.0
2026/01/15 00:03:00.000   22.434274029  114.335389401    63.8638   6  21   0.3014   0.4046   0.8878  -0.1035   0.1448  -0.1703   0.00    0.0
2026/01/15 00:03:30.000   22.434273814  114.335389139    63.8297   6  21   0.2810   0.3778   0.8241  -0.0947   0.1386  -0.1636   0.00    0.0
2026/01/15 00:04:00.000   22.434273694  114.335389064    63.8241   6  21   0.2641   0.3557   0.7717  -0.0878   0.1328  -0.1571   0.00    0.0
2026/01/15 00:04:30.000   22.434273687  114.335389041    63.8494   6  21   0.2499   0.3370   0.7274  -0.0821   0.1274  -0.1511   0.00    0.0
2026/01/15 00:05:00.000   22.434273818  114.335388864    63.8488   6  21   0.2377   0.3209   0.6894  -0.0773   0.1226  -0.1456   0.00    0.0
2026/01/15 00:05:30.000   22.434274056  114.335388653    63.7904   6  21   0.2271   0.3069   0.6564  -0.0733   0.1182  -0.1406   0.00    0.0
2026/01/15 00:06:00.000   22.434274324  114.335388360    63.7059   6  21   0.2178   0.2946   0.6272  -0.0698   0.1141  -0.1360   0.00    0.0
2026/01/15 00:06:30.000   22.434274538  114.335388161    63.6265   6  21   0.2095   0.2837   0.6013  -0.0667   0.1105  -0.1318   0.00    0.0
2026/01/15 00:07:00.000   22.434274645  114.335388059    63.5699   6  21   0.2021   0.2739   0.5781  -0.0640   0.1071  -0.1280   0.00    0.0
2026/01/15 00:07:30.000   22.434274627  114.335388048    63.5460   6  21   0.1954   0.2650   0.5573  -0.0616   0.1041  -0.1244   0.00    0.0
2026/01/15 00:08:00.000   22.434274605  114.335387980    63.5541   6  21   0.1893   0.2569   0.5379  -0.0594   0.1012  -0.1211   0.00    0.0
2026/01/15 00:08:30.000   22.434274628  114.335387792    63.5669   6  21   0.1836   0.2495   0.5198  -0.0573   0.0984  -0.1180   0.00    0.0
2026/01/15 00:09:00.000   22.434274695  114.335387547    63.5786   6  21   0.1784   0.2426   0.5030  -0.0555   0.0958  -0.1151   0.00    0.0
2026/01/15 00:09:30.000   22.434274793  114.335387371    63.5706   6  21   0.1735   0.2363   0.4872  -0.0537   0.0933  -0.1123   0.00    0.0
2026/01/15 00:10:00.000   22.434274800  114.335387211    63.5540   6  21   0.1690   0.2304   0.4725  -0.0521   0.0909  -0.1098   0.00    0.0
2026/01/15 00:10:30.000   22.434274750  114.335387055    63.5277   6  21   0.1648   0.2249   0.4588  -0.0506   0.0887  -0.1073   0.00    0.0
2026/01/15 00:11:00.000   22.434274679  114.335386878    63.4918   6  21   0.1609   0.2197   0.4460  -0.0492   0.0866  -0.1051   0.00    0.0
2026/01/15 00:11:30.000   22.434274651  114.335386700    63.4588   6  21   0.1573   0.2149   0.4341  -0.0480   0.0846  -0.1029   0.00    0.0
2026/01/15 00:12:00.000   22.434274721  114.335386605    63.4414   6  21   0.1538   0.2104   0.4230  -0.0468   0.0828  -0.1009   0.00    0.0
2026/01/15 00:12:30.000   22.434274757  114.335386601    63.4223   6  21   0.1506   0.2062   0.4127  -0.0457   0.0811  -0.0990   0.00    0.0
2026/01/15 00:13:00.000   22.434274800  114.335386605    63.4075   6  21   0.1476   0.2022   0.4027  -0.0446   0.0795  -0.0972   0.00    0.0
2026/01/15 00:13:30.000   22.434274879  114.335386579    63.3863   6  21   0.1446   0.1984   0.3929  -0.0435   0.0778  -0.0954   0.00    0.0
2026/01/15 00:14:00.000   22.434274969  114.335386507    63.3818   6  21   0.1418   0.1947   0.3834  -0.0425   0.0762  -0.0937   0.00    0.0
2026/01/15 00:14:30.000   22.434274995  114.335386429    63.3719   6  21   0.1391   0.1913   0.3743  -0.0415   0.0746  -0.0921   0.00    0.0
2026/01/15 00:15:00.000   22.434274977  114.335386335    63.3571   6  21   0.1365   0.1880   0.3655  -0.0406   0.0730  -0.0905   0.00    0.0
2026/01/15 00:15:30.000   22.434274965  114.335386223    63.3369   6  21   0.1341   0.1848   0.3572  -0.0397   0.0716  -0.0891   0.00    0.0
2026/01/15 00:16:00.000   22.434274988  114.335386123    63.3102   6  21   0.1318   0.1818   0.3493  -0.0389   0.0702  -0.0876   0.00    0.0
2026/01/15 00:16:30.000   22.434275037  114.335386047    63.2700   6  21   0.1295   0.1789   0.3419  -0.0381   0.0689  -0.0863   0.00    0.0
2026/01/15 00:17:00.000   22.434275085  114.335385996    63.2169   6  21   0.1274   0.1762   0.3349  -0.0373   0.0677  -0.0850   0.00    0.0
2026/01/15 00:17:30.000   22.434275154  114.335385920    63.1544   6  21   0.1254   0.1736   0.3284  -0.0366   0.0665  -0.0838   0.00    0.0
2026/01/15 00:18:00.000   22.434275290  114.335385775    63.0852   6  21   0.1235   0.1711   0.3219  -0.0359   0.0654  -0.0825   0.00    0.0
2026/01/15 00:18:30.000   22.434275569  114.335385644    63.0105   6  20   0.1217   0.1686   0.3154  -0.0352   0.0642  -0.0814   0.00    0.0
2026/01/15 00:19:00.000   22.434275682  114.335385635    62.9560   6  21   0.1198   0.1663   0.3090  -0.0345   0.0630  -0.0803   0.00    0.0
2026/01/15 00:19:30.000   22.434275870  114.335385594    62.9160   6  20   0.1181   0.1640   0.3028  -0.0338   0.0618  -0.0793   0.00    0.0
2026/01/15 00:20:00.000   22.434276033  114.335385533    62.8915   6  20   0.1164   0.1617   0.2967  -0.0332   0.0607  -0.0782   0.00    0.0
2026/01/15 00:20:30.000   22.434276182  114.335385502    62.8816   6  20   0.1148   0.1596   0.2909  -0.0325   0.0596  -0.0772   0.00    0.0
2026/01/15 00:21:00.000   22.434276315  114.335385484    62.8784   6  20   0.1132   0.1575   0.2854  -0.0319   0.0586  -0.0763   0.00    0.0
2026/01/15 00:21:30.000   22.434276407  114.335385480    62.8748   6  20   0.1117   0.1556   0.2802  -0.0313   0.0576  -0.0754   0.00    0.0
2026/01/15 00:22:00.000   22.434276459  114.335385455    62.8750   6  20   0.1103   0.1537   0.2753  -0.0308   0.0567  -0.0745   0.00    0.0
2026/01/15 00:22:30.000   22.434276514  114.335385399    62.8741   6  20   0.1090   0.1519   0.2707  -0.0303   0.0559  -0.0736   0.00    0.0
2026/01/15 00:23:00.000   22.434276595  114.335385307    62.8810   6  20   0.1076   0.1501   0.2661  -0.0297   0.0550  -0.0728   0.00    0.0
2026/01/15 00:23:30.000   22.434276560  114.335385265    62.9037   6  21   0.1062   0.1483   0.2614  -0.0292   0.0541  -0.0719   0.00    0.0
2026/01/15 00:24:00.000   22.434276618  114.335385226    62.9206   6  21   0.1048   0.1465   0.2565  -0.0283   0.0526  -0.0709   0.00    0.0
2026/01/15 00:24:30.000   22.434276684  114.335385162    62.9320   6  19   0.1036   0.1448   0.2525  -0.0277   0.0509  -0.0700   0.00    0.0
2026/01/15 00:25:00.000   22.434276753  114.335385083    62.9402   6  19   0.1024   0.1431   0.2486  -0.0270   0.0493  -0.0691   0.00    0.0
2026/01/15 00:25:30.000   22.434276817  114.335385033    62.9427   6  21   0.1011   0.1414   0.2446  -0.0259   0.0477  -0.0683   0.00    0.0
2026/01/15 00:26:00.000   22.434276907  114.335384994    62.9399   6  21   0.0999   0.1397   0.2407  -0.0249   0.0461  -0.0675   0.00    0.0
2026/01/15 00:26:30.000   22.434277000  114.335384928    62.9298   6  21   0.0987   0.1381   0.2370  -0.0239   0.0446  -0.0667   0.00    0.0
2026/01/15 00:27:00.000   22.434277127  114.335384811    62.9202   6  21   0.0976   0.1366   0.2335  -0.0229   0.0432  -0.0660   0.00    0.0
2026/01/15 00:27:30.000   22.434277264  114.335384648    62.9063   6  21   0.0965   0.1351   0.2303  -0.0220   0.0418  -0.0653   0.00    0.0
2026/01/15 00:28:00.000   22.434277416  114.335384474    62.8905   6  21   0.0954   0.1337   0.2269  -0.0211   0.0405  -0.0646   0.00    0.0
2026/01/15 00:28:30.000   22.434277575  114.335384348    62.8718   6  21   0.0943   0.1322   0.2236  -0.0202   0.0393  -0.0639   0.00    0.0
2026/01/15 00:29:00.000   22.434277695  114.335384267    62.8596   6  22   0.0932   0.1308   0.2202  -0.0192   0.0380  -0.0632   0.00    0.0
2026/01/15 00:29:30.000   22.434277822  114.335384204    62.8451   6  22   0.0921   0.1294   0.2168  -0.0183   0.0368  -0.0625   0.00    0.0
2026/01/15 00:30:00.000   22.434278000  114.335384139    62.8261   6  21   0.0910   0.1280   0.2135  -0.0174   0.0356  -0.0618   0.00    0.0
2026/01/15 00:30:30.000   22.434278158  114.335384076    62.8078   6  21   0.0900   0.1267   0.2103  -0.0164   0.0345  -0.0612   0.00    0.0
2026/01/15 00:31:00.000   22.434278312  114.335383997    62.7936   6  20   0.0891   0.1254   0.2073  -0.0158   0.0332  -0.0604   0.00    0.0
2026/01/15 00:31:30.000   22.434278463  114.335383917    62.7818   6  20   0.0882   0.1242   0.2045  -0.0151   0.0320  -0.0597   0.00    0.0
2026/01/15 00:32:00.000   22.434278543  114.335383833    62.7711   6  20   0.0873   0.1231   0.2019  -0.0145   0.0309  -0.0590   0.00    0.0
2026/01/15 00:32:30.000   22.434278621  114.335383750    62.7583   6  20   0.0865   0.1219   0.1994  -0.0139   0.0300  -0.0583   0.00    0.0
2026/01/15 00:33:00.000   22.434278680  114.335383691    62.7505   6  20   0.0856   0.1208   0.1968  -0.0133   0.0290  -0.0576   0.00    0.0
2026/01/15 00:33:30.000   22.434278738  114.335383685    62.7482   6  20   0.0848   0.1197   0.1942  -0.0127   0.0280  -0.0569   0.00    0.0
2026/01/15 00:34:00.000   22.434278801  114.335383705    62.7536   6  20   0.0839   0.1186   0.1916  -0.0120   0.0271  -0.0563   0.00    0.0
2026/01/15 00:34:30.000   22.434278855  114.335383766    62.7628   6  20   0.0830   0.1175   0.1889  -0.0113   0.0262  -0.0556   0.00    0.0
2026/01/15 00:35:00.000   22.434278852  114.335383870    62.7775   6  21   0.0822   0.1164   0.1863  -0.0106   0.0254  -0.0550   0.00    0.0
2026/01/15 00:35:30.000   22.434278883  114.335383977    62.7933   6  20   0.0813   0.1154   0.1838  -0.0099   0.0245  -0.0544   0.00    0.0
2026/01/15 00:36:00.000   22.434278908  114.335384062    62.8043   6  20   0.0805   0.1144   0.1820  -0.0092   0.0240  -0.0537   0.00    0.0
2026/01/15 00:36:30.000   22.434278937  114.335384118    62.8138   6  20   0.0798   0.1134   0.1802  -0.0084   0.0234  -0.0530   0.00    0.0
2026/01/15 00:37:00.000   22.434278967  114.335384160    62.8221   6  20   0.0790   0.1124   0.1785  -0.0077   0.0229  -0.0524   0.00    0.0
2026/01/15 00:37:30.000   22.434279009  114.335384205    62.8271   6  20   0.0783   0.1115   0.1769  -0.0071   0.0224  -0.0518   0.00    0.0
2026/01/15 00:38:00.000   22.434279067  114.335384234    62.8277   6  20   0.0776   0.1106   0.1752  -0.0063   0.0219  -0.0512   0.00    0.0
2026/01/15 00:38:30.000   22.434279139  114.335384245    62.8263   6  20   0.0769   0.1096   0.1735  -0.0054   0.0214  -0.0505   0.00    0.0
2026/01/15 00:39:00.000   22.434279226  114.335384221    62.8257   6  20   0.0762   0.1087   0.1717  -0.0043   0.0210  -0.0499   0.00    0.0
2026/01/15 00:39:30.000   22.434279309  114.335384185    62.8224   6  20   0.0754   0.1078   0.1700  -0.0028   0.0205  -0.0493   0.00    0.0
2026/01/15 00:40:00.000   22.434279385  114.335384142    62.8177   6  20   0.0747   0.1069   0.1682   0.0015   0.0201  -0.0488   0.00    0.0
2026/01/15 00:40:30.000   22.434279444  114.335384107    62.8118   6  21   0.0740   0.1060   0.1665   0.0034   0.0198  -0.0482   0.00    0.0
2026/01/15 00:41:00.000   22.434279471  114.335384085    62.8086   6  21   0.0732   0.1051   0.1649   0.0045   0.0194  -0.0476   0.00    0.0
2026/01/15 00:41:30.000   22.434279466  114.335384067    62.8088   6  21   0.0725   0.1042   0.1633   0.0053   0.0190  -0.0471   0.00    0.0
2026/01/15 00:42:00.000   22.434279437  114.335384043    62.8121   6  21   0.0719   0.1034   0.1618   0.0059   0.0187  -0.0466   0.00    0.0
2026/01/15 00:42:30.000   22.434279398  114.335384029    62.8196   6  21   0.0713   0.1027   0.1604   0.0063   0.0183  -0.0461   0.00    0.0
2026/01/15 00:43:00.000   22.434279360  114.335384030    62.8299   6  21   0.0706   0.1019   0.1589   0.0068   0.0180  -0.0456   0.00    0.0
2026/01/15 00:43:30.000   22.434279366  114.335384031    62.8434   6  20   0.0700   0.1011   0.1574   0.0073   0.0177  -0.0452   0.00    0.0
2026/01/15 00:44:00.000   22.434279343  114.335384057    62.8524   6  21   0.0693   0.1002   0.1558   0.0079   0.0175  -0.0447   0.00    0.0
2026/01/15 00:44:30.000   22.434279343  114.335384069    62.8605   6  21   0.0687   0.0994   0.1542   0.0084   0.0174  -0.0443   0.00    0.0
2026/01/15 00:45:00.000   22.434279350  114.335384085    62.8631   6  21   0.0680   0.0986   0.1527   0.0089   0.0172  -0.0439   0.00    0.0
2026/01/15 00:45:30.000   22.434279360  114.335384108    62.8635   6  21   0.0674   0.0978   0.1511   0.0094   0.0171  -0.0435   0.00    0.0
2026/01/15 00:46:00.000   22.434279377  114.335384109    62.8639   6  21   0.0667   0.0971   0.1496   0.0098   0.0169  -0.0431   0.00    0.0
2026/01/15 00:46:30.000   22.434279414  114.335384110    62.8641   6  21   0.0661   0.0963   0.1482   0.0101   0.0168  -0.0427   0.00    0.0
2026/01/15 00:47:00.000   22.434279458  114.335384144    62.8624   6  21   0.0656   0.0956   0.1469   0.0104   0.0166  -0.0424   0.00    0.0
2026/01/15 00:47:30.000   22.434279515  114.335384185    62.8622   6  21   0.0650   0.0949   0.1456   0.0106   0.0165  -0.0420   0.00    0.0
2026/01/15 00:48:00.000   22.434279575  114.335384217    62.8647   6  21   0.0645   0.0942   0.1443   0.0108   0.0163  -0.0417   0.00    0.0
2026/01/15 00:48:30.000   22.434279612  114.335384246    62.8677   6  20   0.0639   0.0935   0.1430   0.0111   0.0162  -0.0413   0.00    0.0
2026/01/15 00:49:00.000   22.434279622  114.335384279    62.8720   6  20   0.0633   0.0928   0.1416   0.0113   0.0160  -0.0409   0.00    0.0
2026/01/15 00:49:30.000   22.434279631  114.335384302    62.8770   6  20   0.0628   0.0921   0.1403   0.0116   0.0162  -0.0404   0.00    0.0
2026/01/15 00:50:00.000   22.434279645  114.335384327    62.8789   6  20   0.0622   0.0914   0.1391   0.0119   0.0163  -0.0399   0.00    0.0
2026/01/15 00:50:30.000   22.434279670  114.335384346    62.8817   6  20   0.0617   0.0907   0.1379   0.0122   0.0164  -0.0394   0.00    0.0
2026/01/15 00:51:00.000   22.434279698  114.335384358    62.8858   6  20   0.0612   0.0901   0.1367   0.0124   0.0165  -0.0390   0.00    0.0
2026/01/15 00:51:30.000   22.434279717  114.335384376    62.8891   6  20   0.0607   0.0894   0.1355   0.0126   0.0166  -0.0385   0.00    0.0
2026/01/15 00:52:00.000   22.434279723  114.335384407    62.8888   6  20   0.0602   0.0888   0.1345   0.0128   0.0167  -0.0381   0.00    0.0
2026/01/15 00:52:30.000   22.434279731  114.335384443    62.8867   6  20   0.0598   0.0882   0.1334   0.0130   0.0167  -0.0377   0.00    0.0
2026/01/15 00:53:00.000   22.434279740  114.335384485    62.8845   6  20   0.0593   0.0876   0.1324   0.0131   0.0168  -0.0373   0.00    0.0
2026/01/15 00:53:30.000   22.434279743  114.335384527    62.8822   6  20   0.0588   0.0870   0.1313   0.0133   0.0169  -0.0369   0.00    0.0
2026/01/15 00:54:00.000   22.434279748  114.335384546    62.8816   6  20   0.0583   0.0864   0.1302   0.0134   0.0169  -0.0365   0.00    0.0
2026/01/15 00:54:30.000   22.434279771  114.335384523    62.8845   6  19   0.0578   0.0858   0.1290   0.0135   0.0169  -0.0361   0.00    0.0
2026/01/15 00:55:00.000   22.434279799  114.335384510    62.8887   6  19   0.0574   0.0852   0.1279   0.0136   0.0169  -0.0357   0.00    0.0
2026/01/15 00:55:30.000   22.434279836  114.335384489    62.8927   6  19   0.0569   0.0846   0.1268   0.0137   0.0169  -0.0353   0.00    0.0
2026/01/15 00:56:00.000   22.434279881  114.335384453    62.8946   6  19   0.0564   0.0840   0.1258   0.0138   0.0169  -0.0349   0.00    0.0
2026/01/15 00:56:30.000   22.434279931  114.335384419    62.8949   6  19   0.0560   0.0835   0.1247   0.0138   0.0169  -0.0345   0.00    0.0
2026/01/15 00:57:00.000   22.434279985  114.335384389    62.8944   6  19   0.0556   0.0829   0.1238   0.0138   0.0169  -0.0341   0.00    0.0
2026/01/15 00:57:30.000   22.434280040  114.335384362    62.8939   6  19   0.0552   0.0824   0.1229   0.0139   0.0168  -0.0338   0.00    0.0
2026/01/15 00:58:00.000   22.434280096  114.335384341    62.8943   6  19   0.0548   0.0819   0.1219   0.0139   0.0168  -0.0334   0.00    0.0
2026/01/15 00:58:30.000   22.434280140  114.335384310    62.8958   6  19   0.0544   0.0813   0.1210   0.0139   0.0168  -0.0331   0.00    0.0
2026/01/15 00:59:00.000   22.434280173  114.335384284    62.8980   6  19   0.0540   0.0808   0.1200   0.0140   0.0168  -0.0327   0.00    0.0
2026/01/15 00:59:30.000   22.434280197  114.335384276    62.9013   6  19   0.0535   0.0802   0.1189   0.0140   0.0167  -0.0324   0.00    0.0
2026/01/15 01:00:00.000   22.434280218  114.335384261    62.9045   6  19   0.0531   0.0797   0.1179   0.0140   0.0167  -0.0321   0.00    0.0
2026/01/15 01:00:30.000   22.434280238  114.335384245    62.9079   6  19   0.0527   0.0792   0.1169   0.0140   0.0167  -0.0317   0.00    0.0
2026/01/15 01:01:00.000   22.434280269  114.335384245    62.9111   6  19   0.0523   0.0786   0.1160   0.0141   0.0166  -0.0314   0.00    0.0
2026/01/15 01:01:30.000   22.434280307  114.335384271    62.9138   6  19   0.0519   0.0781   0.1151   0.0141   0.0166  -0.0311   0.00    0.0
2026/01/15 01:02:00.000   22.434280334  114.335384300    62.9156   6  20   0.0515   0.0777   0.1142   0.0141   0.0165  -0.0309   0.00    0.0
2026/01/15 01:02:30.000   22.434280358  114.335384314    62.9173   6  20   0.0511   0.0772   0.1134   0.0140   0.0165  -0.0306   0.00    0.0
2026/01/15 01:03:00.000   22.434280375  114.335384335    62.9194   6  20   0.0508   0.0767   0.1126   0.0140   0.0164  -0.0303   0.00    0.0
2026/01/15 01:03:30.000   22.434280384  114.335384357    62.9227   6  20   0.0504   0.0762   0.1117   0.0140   0.0163  -0.0301   0.00    0.0
2026/01/15 01:04:00.000   22.434280389  114.335384370    62.9266   6  20   0.0500   0.0757   0.1108   0.0140   0.0163  -0.0298   0.00    0.0
2026/01/15 01:04:30.000   22.434280385  114.335384386    62.9314   6  20   0.0496   0.0752   0.1098   0.0140   0.0162  -0.0295   0.00    0.0
2026/01/15 01:05:00.000   22.434280370  114.335384428    62.9362   6  20   0.0492   0.0747   0.1089   0.0140   0.0162  -0.0293   0.00    0.0
2026/01/15 01:05:30.000   22.434280327  114.335384486    62.9409   6  20   0.0488   0.0742   0.1080   0.0140   0.0161  -0.0290   0.00    0.0
2026/01/15 01:06:00.000   22.434280276  114.335384536    62.9448   6  20   0.0484   0.0738   0.1071   0.0140   0.0161  -0.0288   0.00    0.0
2026/01/15 01:06:30.000   22.434280228  114.335384579    62.9488   6  20   0.0481   0.0733   0.1063   0.0140   0.0160  -0.0286   0.00    0.0
2026/01/15 01:07:00.000   22.434280194  114.335384612    62.9547   6  20   0.0477   0.0729   0.1055   0.0140   0.0160  -0.0283   0.00    0.0
2026/01/15 01:07:30.000   22.434280149  114.335384654    62.9615   6  19   0.0474   0.0725   0.1048   0.0140   0.0159  -0.0281   0.00    0.0
2026/01/15 01:08:00.000   22.434280109  114.335384702    62.9680   6  19   0.0471   0.0720   0.1041   0.0140   0.0158  -0.0279   0.00    0.0
2026/01/15 01:08:30.000   22.434280077  114.335384746    62.9736   6  19   0.0467   0.0716   0.1033   0.0140   0.0157  -0.0277   0.00    0.0
2026/01/15 01:09:00.000   22.434280037  114.335384789    62.9771   6  19   0.0464   0.0712   0.1025   0.0140   0.0156  -0.0275   0.00    0.0
2026/01/15 01:09:30.000   22.434280003  114.335384818    62.9801   6  19   0.0461   0.0707   0.1016   0.0140   0.0155  -0.0273   0.00    0.0
2026/01/15 01:10:00.000   22.434279981  114.335384848    62.9829   6  19   0.0457   0.0703   0.1008   0.0139   0.0154  -0.0271   0.00    0.0
2026/01/15 01:10:30.000   22.434279965  114.335384878    62.9850   6  19   0.0454   0.0698   0.1000   0.0139   0.0152  -0.0269   0.00    0.0
2026/01/15 01:11:00.000   22.434279950  114.335384896    62.9864   6  19   0.0450   0.0694   0.0992   0.0139   0.0151  -0.0267   0.00    0.0
2026/01/15 01:11:30.000   22.434279938  114.335384913    62.9880   6  19   0.0447   0.0690   0.0985   0.0139   0.0150  -0.0265   0.00    0.0
2026/01/15 01:12:00.000   22.434279929  114.335384928    62.9906   6  19   0.0444   0.0686   0.0978   0.0138   0.0149  -0.0264   0.00    0.0
2026/01/15 01:12:30.000   22.434279912  114.335384942    62.9934   6  19   0.0442   0.0682   0.0972   0.0138   0.0149  -0.0262   0.00    0.0
2026/01/15 01:13:00.000   22.434279898  114.335384952    62.9978   6  19   0.0439   0.0679   0.0965   0.0138   0.0149  -0.0260   0.00    0.0
2026/01/15 01:13:30.000   22.434279914  114.335384950    63.0027   6  20   0.0436   0.0675   0.0958   0.0137   0.0149  -0.0258   0.00    0.0
2026/01/15 01:14:00.000   22.434279928  114.335384951    63.0083   6  20   0.0432   0.0671   0.0951   0.0137   0.0148  -0.0257   0.00    0.0
2026/01/15 01:14:30.000   22.434279939  114.335384962    63.0133   6  20   0.0429   0.0667   0.0944   0.0137   0.0148  -0.0255   0.00    0.0
2026/01/15 01:15:00.000   22.434279948  114.335384959    63.0175   6  20   0.0426   0.0663   0.0937   0.0137   0.0147  -0.0253   0.00    0.0
2026/01/15 01:15:30.000   22.434279961  114.335384951    63.0208   6  20   0.0423   0.0659   0.0929   0.0136   0.0147  -0.0251   0.00    0.0
2026/01/15 01:16:00.000   22.434279973  114.335384940    63.0244   6  20   0.0420   0.0656   0.0923   0.0136   0.0146  -0.0249   0.00    0.0
2026/01/15 01:16:30.000   22.434279982  114.335384921    63.0279   6  20   0.0417   0.0652   0.0916   0.0136   0.0145  -0.0248   0.00    0.0
2026/01/15 01:17:00.000   22.434279988  114.335384909    63.0303   6  20   0.0415   0.0649   0.0910   0.0135   0.0144  -0.0246   0.00    0.0
2026/01/15 01:17:30.000   22.434279991  114.335384891    63.0315   6  20   0.0412   0.0645   0.0904   0.0135   0.0144  -0.0245   0.00    0.0
2026/01/15 01:18:00.000   22.434279995  114.335384863    63.0345   6  21   0.0409   0.0642   0.0898   0.0134   0.0143  -0.0243   0.00    0.0
2026/01/15 01:18:30.000   22.434280000  114.335384831    63.0379   6  21   0.0407   0.0638   0.0892   0.0134   0.0143  -0.0242   0.00    0.0
2026/01/15 01:19:00.000   22.434280010  114.335384805    63.0414   6  21   0.0404   0.0635   0.0885   0.0133   0.0142  -0.0240   0.00    0.0
2026/01/15 01:19:30.000   22.434280019  114.335384773    63.0445   6  21   0.0401   0.0631   0.0878   0.0133   0.0142  -0.0239   0.00    0.0
2026/01/15 01:20:00.000   22.434280028  114.335384740    63.0484   6  21   0.0398   0.0627   0.0872   0.0132   0.0141  -0.0237   0.00    0.0
2026/01/15 01:20:30.000   22.434280033  114.335384708    63.0517   6  21   0.0395   0.0623   0.0865   0.0132   0.0140  -0.0236   0.00    0.0
2026/01/15 01:21:00.000   22.434280040  114.335384677    63.0549   6  21   0.0393   0.0620   0.0859   0.0131   0.0140  -0.0234   0.00    0.0
2026/01/15 01:21:30.000   22.434280046  114.335384641    63.0573   6  20   0.0390   0.0617   0.0853   0.0130   0.0141  -0.0234   0.00    0.0
2026/01/15 01:22:00.000   22.434280052  114.335384611    63.0598   6  20   0.0388   0.0614   0.0848   0.0128   0.0142  -0.0233   0.00    0.0
2026/01/15 01:22:30.000   22.434280060  114.335384582    63.0625   6  20   0.0386   0.0612   0.0843   0.0127   0.0143  -0.0232   0.00    0.0
2026/01/15 01:23:00.000   22.434280070  114.335384554    63.0661   6  20   0.0383   0.0609   0.0838   0.0126   0.0143  -0.0232   0.00    0.0
2026/01/15 01:23:30.000   22.434280081  114.335384520    63.0698   6  20   0.0381   0.0606   0.0832   0.0124   0.0144  -0.0231   0.00    0.0
2026/01/15 01:24:00.000   22.434280097  114.335384485    63.0740   6  20   0.0379   0.0603   0.0827   0.0123   0.0145  -0.0230   0.00    0.0
2026/01/15 01:24:30.000   22.434280115  114.335384450    63.0790   6  20   0.0376   0.0600   0.0821   0.0121   0.0146  -0.0230   0.00    0.0
2026/01/15 01:25:00.000   22.434280129  114.335384405    63.0845   6  20   0.0374   0.0597   0.0815   0.0120   0.0147  -0.0229   0.00    0.0
2026/01/15 01:25:30.000   22.434280141  114.335384358    63.0896   6  20   0.0371   0.0595   0.0810   0.0118   0.0147  -0.0228   0.00    0.0
2026/01/15 01:26:00.000   22.434280151  114.335384322    63.0942   6  20   0.0369   0.0592   0.0804   0.0117   0.0148  -0.0227   0.00    0.0
2026/01/15 01:26:30.000   22.434280157  114.335384295    63.0981   6  20   0.0367   0.0589   0.0799   0.0115   0.0148  -0.0227   0.00    0.0
2026/01/15 01:27:00.000   22.434280165  114.335384278    63.1016   6  20   0.0365   0.0587   0.0794   0.0114   0.0149  -0.0226   0.00    0.0
2026/01/15 01:27:30.000   22.434280171  114.335384263    63.1049   6  20   0.0363   0.0584   0.0790   0.0113   0.0149  -0.0225   0.00    0.0
2026/01/15 01:28:00.000   22.434280176  114.335384250    63.1084   6  20   0.0361   0.0582   0.0785   0.0111   0.0149  -0.0225   0.00    0.0
2026/01/15 01:28:30.000   22.434280182  114.335384243    63.1125   6  20   0.0359   0.0579   0.0780   0.0110   0.0150  -0.0224   0.00    0.0
2026/01/15 01:29:00.000   22.434280188  114.335384235    63.1168   6  20   0.0356   0.0576   0.0775   0.0108   0.0150  -0.0223   0.00    0.0
2026/01/15 01:29:30.000   22.434280196  114.335384225    63.1212   6  20   0.0354   0.0573   0.0770   0.0107   0.0150  -0.0223   0.00    0.0
2026/01/15 01:30:00.000   22.434280208  114.335384216    63.1253   6  20   0.0352   0.0571   0.0764   0.0105   0.0150  -0.0222   0.00    0.0
2026/01/15 01:30:30.000   22.434280223  114.335384213    63.1296   6  20   0.0350   0.0568   0.0759   0.0104   0.0150  -0.0221   0.00    0.0
2026/01/15 01:31:00.000   22.434280240  114.335384219    63.1340   6  20   0.0348   0.0566   0.0754   0.0102   0.0150  -0.0221   0.00    0.0
2026/01/15 01:31:30.000   22.434280255  114.335384225    63.1380   6  20   0.0346   0.0563   0.0750   0.0101   0.0151  -0.0220   0.00    0.0
2026/01/15 01:32:00.000   22.434280263  114.335384227    63.1413   6  20   0.0344   0.0561   0.0745   0.0100   0.0151  -0.0219   0.00    0.0
2026/01/15 01:32:30.000   22.434280267  114.335384220    63.1436   6  20   0.0342   0.0558   0.0741   0.0099   0.0150  -0.0219   0.00    0.0
2026/01/15 01:33:00.000   22.434280270  114.335384213    63.1461   6  20   0.0340   0.0556   0.0737   0.0097   0.0150  -0.0218   0.00    0.0
2026/01/15 01:33:30.000   22.434280272  114.335384201    63.1491   6  20   0.0338   0.0553   0.0732   0.0096   0.0150  -0.0217   0.00    0.0
2026/01/15 01:34:00.000   22.434280278  114.335384183    63.1528   6  20   0.0336   0.0551   0.0727   0.0094   0.0150  -0.0217   0.00    0.0
2026/01/15 01:34:30.000   22.434280285  114.335384163    63.1572   6  19   0.0334   0.0548   0.0722   0.0093   0.0150  -0.0216   0.00    0.0
2026/01/15 01:35:00.000   22.434280291  114.335384152    63.1623   6  19   0.0332   0.0546   0.0718   0.0092   0.0150  -0.0215   0.00    0.0
2026/01/15 01:35:30.000   22.434280293  114.335384149    63.1673   6  19   0.0330   0.0543   0.0713   0.0090   0.0150  -0.0215   0.00    0.0
2026/01/15 01:36:00.000   22.434280295  114.335384153    63.1722   6  20   0.0328   0.0541   0.0708   0.0089   0.0150  -0.0214   0.00    0.0
2026/01/15 01:36:30.000   22.434280298  114.335384159    63.1763   6  20   0.0326   0.0539   0.0704   0.0088   0.0149  -0.0213   0.00    0.0
2026/01/15 01:37:00.000   22.434280317  114.335384164    63.1793   6  20   0.0325   0.0536   0.0700   0.0086   0.0149  -0.0213   0.00    0.0
2026/01/15 01:37:30.000   22.434280337  114.335384172    63.1815   6  20   0.0323   0.0534   0.0696   0.0085   0.0148  -0.0212   0.00    0.0
2026/01/15 01:38:00.000   22.434280357  114.335384179    63.1836   6  20   0.0321   0.0532   0.0692   0.0084   0.0148  -0.0211   0.00    0.0
2026/01/15 01:38:30.000   22.434280382  114.335384190    63.1859   6  20   0.0319   0.0530   0.0688   0.0083   0.0148  -0.0211   0.00    0.0
2026/01/15 01:39:00.000   22.434280406  114.335384192    63.1886   6  20   0.0318   0.0527   0.0683   0.0082   0.0147  -0.0210   0.00    0.0
2026/01/15 01:39:30.000   22.434280429  114.335384182    63.1914   6  20   0.0316   0.0525   0.0679   0.0080   0.0146  -0.0209   0.00    0.0
2026/01/15 01:40:00.000   22.434280454  114.335384167    63.1945   6  20   0.0314   0.0523   0.0674   0.0079   0.0146  -0.0208   0.00    0.0
2026/01/15 01:40:30.000   22.434280477  114.335384149    63.1972   6  20   0.0312   0.0520   0.0670   0.0078   0.0145  -0.0208   0.00    0.0
2026/01/15 01:41:00.000   22.434280501  114.335384135    63.1997   6  20   0.0310   0.0518   0.0666   0.0077   0.0145  -0.0207   0.00    0.0
2026/01/15 01:41:30.000   22.434280525  114.335384130    63.2022   6  20   0.0309   0.0516   0.0662   0.0075   0.0144  -0.0206   0.00    0.0
2026/01/15 01:42:00.000   22.434280544  114.335384133    63.2040   6  20   0.0307   0.0514   0.0658   0.0074   0.0144  -0.0206   0.00    0.0
2026/01/15 01:42:30.000   22.434280551  114.335384134    63.2058   6  21   0.0306   0.0512   0.0654   0.0073   0.0143  -0.0205   0.00    0.0
2026/01/15 01:43:00.000   22.434280559  114.335384139    63.2082   6  21   0.0304   0.0509   0.0651   0.0072   0.0142  -0.0204   0.00    0.0
2026/01/15 01:43:30.000   22.434280566  114.335384147    63.2110   6  21   0.0302   0.0507   0.0647   0.0071   0.0142  -0.0204   0.00    0.0
2026/01/15 01:44:00.000   22.434280580  114.335384163    63.2147   6  20   0.0301   0.0505   0.0643   0.0070   0.0141  -0.0203   0.00    0.0
2026/01/15 01:44:30.000   22.434280597  114.335384178    63.2184   6  20   0.0299   0.0503   0.0639   0.0068   0.0140  -0.0202   0.00    0.0
2026/01/15 01:45:00.000   22.434280613  114.335384191    63.2215   6  20   0.0297   0.0501   0.0634   0.0067   0.0140  -0.0201   0.00    0.0
2026/01/15 01:45:30.000   22.434280627  114.335384197    63.2242   6  20   0.0296   0.0498   0.0630   0.0066   0.0139  -0.0201   0.00    0.0
2026/01/15 01:46:00.000   22.434280641  114.335384198    63.2269   6  21   0.0294   0.0496   0.0626   0.0065   0.0138  -0.0200   0.00    0.0
2026/01/15 01:46:30.000   22.434280653  114.335384191    63.2296   6  21   0.0292   0.0494   0.0623   0.0064   0.0137  -0.0199   0.00    0.0
2026/01/15 01:47:00.000   22.434280665  114.335384176    63.2323   6  21   0.0291   0.0492   0.0619   0.0063   0.0137  -0.0198   0.00    0.0
2026/01/15 01:47:30.000   22.434280676  114.335384159    63.2343   6  21   0.0290   0.0490   0.0616   0.0062   0.0136  -0.0198   0.00    0.0
2026/01/15 01:48:00.000   22.434280686  114.335384142    63.2361   6  21   0.0288   0.0488   0.0612   0.0061   0.0135  -0.0197   0.00    0.0
2026/01/15 01:48:30.000   22.434280699  114.335384128    63.2384   6  21   0.0287   0.0486   0.0609   0.0060   0.0134  -0.0196   0.00    0.0
2026/01/15 01:49:00.000   22.434280705  114.335384118    63.2408   6  22   0.0285   0.0484   0.0605   0.0058   0.0133  -0.0196   0.00    0.0
2026/01/15 01:49:30.000   22.434280715  114.335384117    63.2440   6  21   0.0283   0.0482   0.0601   0.0057   0.0132  -0.0195   0.00    0.0
2026/01/15 01:50:00.000   22.434280723  114.335384120    63.2471   6  21   0.0282   0.0480   0.0597   0.0056   0.0132  -0.0194   0.00    0.0
2026/01/15 01:50:30.000   22.434280728  114.335384123    63.2498   6  21   0.0280   0.0478   0.0593   0.0055   0.0131  -0.0193   0.00    0.0
2026/01/15 01:51:00.000   22.434280731  114.335384127    63.2525   6  21   0.0279   0.0476   0.0590   0.0054   0.0130  -0.0193   0.00    0.0
2026/01/15 01:51:30.000   22.434280735  114.335384144    63.2555   6  21   0.0277   0.0474   0.0586   0.0053   0.0129  -0.0192   0.00    0.0
2026/01/15 01:52:00.000   22.434280738  114.335384161    63.2584   6  21   0.0276   0.0472   0.0583   0.0052   0.0128  -0.0191   0.00    0.0
2026/01/15 01:52:30.000   22.434280740  114.335384174    63.2611   6  21   0.0275   0.0470   0.0580   0.0051   0.0127  -0.0191   0.00    0.0
2026/01/15 01:53:00.000   22.434280741  114.335384185    63.2643   6  21   0.0273   0.0469   0.0577   0.0050   0.0126  -0.0190   0.00    0.0
2026/01/15 01:53:30.000   22.434280741  114.335384191    63.2675   6  21   0.0272   0.0467   0.0574   0.0049   0.0125  -0.0189   0.00    0.0
2026/01/15 01:54:00.000   22.434280740  114.335384193    63.2707   6  21   0.0271   0.0465   0.0570   0.0048   0.0124  -0.0189   0.00    0.0
2026/01/15 01:54:30.000   22.434280735  114.335384191    63.2735   6  22   0.0269   0.0463   0.0567   0.0047   0.0123  -0.0188   0.00    0.0
2026/01/15 01:55:00.000   22.434280730  114.335384193    63.2763   6  22   0.0268   0.0461   0.0563   0.0046   0.0122  -0.0187   0.00    0.0
2026/01/15 01:55:30.000   22.434280733  114.335384196    63.2789   6  21   0.0266   0.0459   0.0559   0.0044   0.0121  -0.0186   0.00    0.0
2026/01/15 01:56:00.000   22.434280737  114.335384191    63.2803   6  20   0.0265   0.0457   0.0557   0.0043   0.0121  -0.0186   0.00    0.0
2026/01/15 01:56:30.000   22.434280744  114.335384182    63.2815   6  20   0.0264   0.0455   0.0555   0.0042   0.0120  -0.0186   0.00    0.0
2026/01/15 01:57:00.000   22.434280754  114.335384174    63.2828   6  20   0.0262   0.0454   0.0553   0.0041   0.0119  -0.0186   0.00    0.0
2026/01/15 01:57:30.000   22.434280758  114.335384167    63.2838   6  20   0.0261   0.0452   0.0551   0.0041   0.0118  -0.0186   0.00    0.0
2026/01/15 01:58:00.000   22.434280759  114.335384157    63.2851   6  20   0.0260   0.0450   0.0549   0.0040   0.0117  -0.0185   0.00    0.0
2026/01/15 01:58:30.000   22.434280756  114.335384146    63.2870   6  20   0.0259   0.0449   0.0547   0.0039   0.0116  -0.0185   0.00    0.0
2026/01/15 01:59:00.000   22.434280751  114.335384138    63.2895   6  20   0.0258   0.0447   0.0545   0.0038   0.0115  -0.0185   0.00    0.0
2026/01/15 01:59:30.000   22.434280743  114.335384131    63.2923   6  20   0.0256   0.0445   0.0542   0.0036   0.0114  -0.0185   0.00    0.0
2026/01/15 02:00:00.000   22.434280733  114.335384124    63.2953   6  20   0.0255   0.0443   0.0540   0.0035   0.0114  -0.0185   0.00    0.0
2026/01/15 02:00:30.000   22.434280720  114.335384116    63.2980   6  21   0.0254   0.0441   0.0537   0.0034   0.0113  -0.0184   0.00    0.0
2026/01/15 02:01:00.000   22.434280708  114.335384111    63.3008   6  21   0.0253   0.0440   0.0535   0.0033   0.0112  -0.0184   0.00    0.0
2026/01/15 02:01:30.000   22.434280697  114.335384109    63.3036   6  21   0.0251   0.0438   0.0533   0.0032   0.0111  -0.0184   0.00    0.0
2026/01/15 02:02:00.000   22.434280692  114.335384114    63.3065   6  21   0.0250   0.0436   0.0531   0.0030   0.0110  -0.0184   0.00    0.0
2026/01/15 02:02:30.000   22.434280685  114.335384109    63.3089   6  21   0.0249   0.0435   0.0529   0.0029   0.0109  -0.0183   0.00    0.0
2026/01/15 02:03:00.000   22.434280680  114.335384104    63.3108   6  21   0.0248   0.0433   0.0527   0.0028   0.0108  -0.0183   0.00    0.0
2026/01/15 02:03:30.000   22.434280674  114.335384096    63.3127   6  21   0.0247   0.0432   0.0525   0.0027   0.0107  -0.0183   0.00    0.0
2026/01/15 02:04:00.000   22.434280668  114.335384092    63.3148   6  21   0.0246   0.0430   0.0523   0.0025   0.0106  -0.0182   0.00    0.0
2026/01/15 02:04:30.000   22.434280665  114.335384090    63.3171   6  21   0.0245   0.0428   0.0520   0.0023   0.0105  -0.0182   0.00    0.0
2026/01/15 02:05:00.000   22.434280662  114.335384092    63.3197   6  21   0.0244   0.0427   0.0518   0.0022   0.0104  -0.0182   0.00    0.0
2026/01/15 02:05:30.000   22.434280659  114.335384091    63.3219   6  21   0.0242   0.0425   0.0516   0.0020   0.0103  -0.0181   0.00    0.0
2026/01/15 02:06:00.000   22.434280658  114.335384087    63.3240   6  21   0.0241   0.0423   0.0514   0.0018   0.0102  -0.0181   0.00    0.0
2026/01/15 02:06:30.000   22.434280657  114.335384078    63.3256   6  21   0.0240   0.0422   0.0511   0.0016   0.0101  -0.0181   0.00    0.0
2026/01/15 02:07:00.000   22.434280657  114.335384070    63.3274   6  21   0.0239   0.0420   0.0509   0.0014   0.0100  -0.0180   0.00    0.0
2026/01/15 02:07:30.000   22.434280657  114.335384068    63.3291   6  21   0.0238   0.0419   0.0507   0.0012   0.0099  -0.0180   0.00    0.0
2026/01/15 02:08:00.000   22.434280656  114.335384074    63.3312   6  21   0.0237   0.0417   0.0505   0.0009   0.0098  -0.0180   0.00    0.0
2026/01/15 02:08:30.000   22.434280651  114.335384082    63.3336   6  21   0.0236   0.0416   0.0503   0.0003   0.0097  -0.0179   0.00    0.0
2026/01/15 02:09:00.000   22.434280646  114.335384092    63.3363   6  21   0.0235   0.0414   0.0501  -0.0007   0.0096  -0.0179   0.00    0.0
2026/01/15 02:09:30.000   22.434280640  114.335384095    63.3389   6  20   0.0234   0.0413   0.0499  -0.0011   0.0095  -0.0179   0.00    0.0
2026/01/15 02:10:00.000   22.434280633  114.335384093    63.3417   6  21   0.0233   0.0411   0.0497  -0.0013   0.0094  -0.0178   0.00    0.0
2026/01/15 02:10:30.000   22.434280624  114.335384086    63.3443   6  21   0.0232   0.0410   0.0495  -0.0014   0.0094  -0.0177   0.00    0.0
2026/01/15 02:11:00.000   22.434280613  114.335384079    63.3468   6  21   0.0231   0.0409   0.0493  -0.0014   0.0094  -0.0177   0.00    0.0
2026/01/15 02:11:30.000   22.434280604  114.335384072    63.3489   6  20   0.0230   0.0407   0.0492  -0.0014   0.0095  -0.0176   0.00    0.0
2026/01/15 02:12:00.000   22.434280595  114.335384072    63.3509   6  22   0.0229   0.0406   0.0490  -0.0014   0.0095  -0.0175   0.00    0.0
2026/01/15 02:12:30.000   22.434280589  114.335384073    63.3528   6  21   0.0228   0.0405   0.0489  -0.0015   0.0095  -0.0175   0.00    0.0
2026/01/15 02:13:00.000   22.434280582  114.335384076    63.3549   6  21   0.0227   0.0404   0.0487  -0.0015   0.0096  -0.0174   0.00    0.0
2026/01/15 02:13:30.000   22.434280575  114.335384083    63.3572   6  21   0.0226   0.0403   0.0485  -0.0015   0.0096  -0.0174   0.00    0.0
2026/01/15 02:14:00.000   22.434280569  114.335384088    63.3594   6  21   0.0225   0.0401   0.0484  -0.0015   0.0096  -0.0173   0.00    0.0
2026/01/15 02:14:30.000   22.434280564  114.335384094    63.3620   6  21   0.0224   0.0400   0.0482  -0.0015   0.0096  -0.0172   0.00    0.0
2026/01/15 02:15:00.000   22.434280560  114.335384096    63.3648   6  21   0.0223   0.0399   0.0480  -0.0016   0.0097  -0.0171   0.00    0.0
2026/01/15 02:15:30.000   22.434280557  114.335384093    63.3675   6  21   0.0222   0.0398   0.0479  -0.0016   0.0097  -0.0171   0.00    0.0
2026/01/15 02:16:00.000   22.434280552  114.335384087    63.3698   6  21   0.0221   0.0396   0.0477  -0.0016   0.0097  -0.0170   0.00    0.0
2026/01/15 02:16:30.000   22.434280549  114.335384083    63.3720   6  21   0.0220   0.0395   0.0475  -0.0016   0.0097  -0.0169   0.00    0.0
2026/01/15 02:17:00.000   22.434280544  114.335384081    63.3737   6  21   0.0219   0.0394   0.0474  -0.0017   0.0097  -0.0169   0.00    0.0
2026/01/15 02:17:30.000   22.434280538  114.335384081    63.3753   6  21   0.0218   0.0393   0.0472  -0.0017   0.0098  -0.0168   0.00    0.0
2026/01/15 02:18:00.000   22.434280531  114.335384079    63.3769   6  21   0.0218   0.0392   0.0471  -0.0017   0.0098  -0.0168   0.00    0.0
2026/01/15 02:18:30.000   22.434280525  114.335384076    63.3787   6  21   0.0217   0.0391   0.0469  -0.0018   0.0098  -0.0167   0.00    0.0
2026/01/15 02:19:00.000   22.434280514  114.335384077    63.3811   6  21   0.0216   0.0390   0.0467  -0.0018   0.0098  -0.0166   0.00    0.0
2026/01/15 02:19:30.000   22.434280502  114.335384075    63.3837   6  21   0.0215   0.0388   0.0466  -0.0019   0.0098  -0.0166   0.00    0.0
2026/01/15 02:20:00.000   22.434280489  114.335384074    63.3865   6  21   0.0214   0.0387   0.0464  -0.0019   0.0098  -0.0165   0.00    0.0
2026/01/15 02:20:30.000   22.434280475  114.335384072    63.3896   6  21   0.0213   0.0386   0.0462  -0.0020   0.0098  -0.0164   0.00    0.0
2026/01/15 02:21:00.000   22.434280462  114.335384070    63.3927   6  21   0.0212   0.0385   0.0460  -0.0020   0.0099  -0.0164   0.00    0.0
2026/01/15 02:21:30.000   22.434280448  114.335384068    63.3958   6  21   0.0211   0.0384   0.0459  -0.0021   0.0099  -0.0163   0.00    0.0
2026/01/15 02:22:00.000   22.434280434  114.335384069    63.3988   6  21   0.0210   0.0383   0.0457  -0.0021   0.0099  -0.0162   0.00    0.0
2026/01/15 02:22:30.000   22.434280421  114.335384071    63.4017   6  21   0.0210   0.0382   0.0456  -0.0021   0.0099  -0.0162   0.00    0.0
2026/01/15 02:23:00.000   22.434280409  114.335384073    63.4046   6  21   0.0209   0.0381   0.0454  -0.0022   0.0099  -0.0161   0.00    0.0
2026/01/15 02:23:30.000   22.434280404  114.335384066    63.4069   6  21   0.0208   0.0380   0.0453  -0.0022   0.0099  -0.0161   0.00    0.0
2026/01/15 02:24:00.000   22.434280402  114.335384062    63.4091   6  21   0.0207   0.0379   0.0451  -0.0023   0.0099  -0.0160   0.00    0.0
2026/01/15 02:24:30.000   22.434280399  114.335384056    63.4113   6  21   0.0206   0.0377   0.0449  -0.0023   0.0099  -0.0159   0.00    0.0
2026/01/15 02:25:00.000   22.434280395  114.335384049    63.4133   6  21   0.0205   0.0376   0.0447  -0.0023   0.0099  -0.0159   0.00    0.0
2026/01/15 02:25:30.000   22.434280390  114.335384044    63.4152   6  21   0.0204   0.0375   0.0446  -0.0024   0.0099  -0.0158   0.00    0.0
2026/01/15 02:26:00.000   22.434280384  114.335384041    63.4170   6  21   0.0203   0.0374   0.0444  -0.0024   0.0099  -0.0157   0.00    0.0
2026/01/15 02:26:30.000   22.434280379  114.335384041    63.4186   6  21   0.0203   0.0373   0.0442  -0.0025   0.0099  -0.0157   0.00    0.0
2026/01/15 02:27:00.000   22.434280376  114.335384037    63.4200   6  21   0.0202   0.0372   0.0441  -0.0025   0.0099  -0.0156   0.00    0.0
2026/01/15 02:27:30.000   22.434280373  114.335384032    63.4212   6  21   0.0201   0.0371   0.0439  -0.0025   0.0099  -0.0156   0.00    0.0
2026/01/15 02:28:00.000   22.434280370  114.335384025    63.4223   6  20   0.0200   0.0370   0.0438  -0.0026   0.0099  -0.0155   0.00    0.0
2026/01/15 02:28:30.000   22.434280367  114.335384019    63.4236   6  20   0.0200   0.0369   0.0436  -0.0026   0.0099  -0.0155   0.00    0.0
2026/01/15 02:29:00.000   22.434280364  114.335384013    63.4250   6  20   0.0199   0.0368   0.0435  -0.0026   0.0099  -0.0154   0.00    0.0
2026/01/15 02:29:30.000   22.434280362  114.335384005    63.4268   6  20   0.0198   0.0367   0.0433  -0.0027   0.0099  -0.0153   0.00    0.0
2026/01/15 02:30:00.000   22.434280362  114.335384001    63.4295   6  20   0.0197   0.0366   0.0431  -0.0027   0.0099  -0.0153   0.00    0.0
2026/01/15 02:30:30.000   22.434280360  114.335383999    63.4322   6  20   0.0196   0.0365   0.0429  -0.0028   0.0099  -0.0152   0.00    0.0
2026/01/15 02:31:00.000   22.434280357  114.335384003    63.4351   6  20   0.0195   0.0364   0.0428  -0.0028   0.0099  -0.0151   0.00    0.0
2026/01/15 02:31:30.000   22.434280353  114.335384012    63.4383   6  20   0.0195   0.0363   0.0426  -0.0028   0.0099  -0.0151   0.00    0.0
2026/01/15 02:32:00.000   22.434280348  114.335384016    63.4414   6  20   0.0194   0.0362   0.0425  -0.0029   0.0099  -0.0150   0.00    0.0
2026/01/15 02:32:30.000   22.434280344  114.335384016    63.4443   6  20   0.0193   0.0362   0.0423  -0.0029   0.0099  -0.0150   0.00    0.0
2026/01/15 02:33:00.000   22.434280338  114.335384018    63.4473   6  20   0.0193   0.0361   0.0422  -0.0029   0.0099  -0.0149   0.00    0.0
2026/01/15 02:33:30.000   22.434280331  114.335384021    63.4503   6  20   0.0192   0.0360   0.0420  -0.0029   0.0099  -0.0149   0.00    0.0
2026/01/15 02:34:00.000   22.434280323  114.335384031    63.4531   6  20   0.0191   0.0359   0.0418  -0.0030   0.0099  -0.0148   0.00    0.0
2026/01/15 02:34:30.000   22.434280317  114.335384042    63.4556   6  20   0.0190   0.0358   0.0417  -0.0030   0.0099  -0.0147   0.00    0.0
2026/01/15 02:35:00.000   22.434280310  114.335384049    63.4579   6  20   0.0189   0.0357   0.0415  -0.0031   0.0099  -0.0147   0.00    0.0
2026/01/15 02:35:30.000   22.434280305  114.335384050    63.4602   6  20   0.0189   0.0356   0.0413  -0.0031   0.0099  -0.0146   0.00    0.0
2026/01/15 02:36:00.000   22.434280301  114.335384051    63.4625   6  20   0.0188   0.0355   0.0412  -0.0031   0.0099  -0.0146   0.00    0.0
2026/01/15 02:36:30.000   22.434280299  114.335384049    63.4646   6  20   0.0187   0.0354   0.0410  -0.0032   0.0099  -0.0145   0.00    0.0
2026/01/15 02:37:00.000   22.434280297  114.335384043    63.4666   6  20   0.0186   0.0353   0.0409  -0.0032   0.0099  -0.0144   0.00    0.0
2026/01/15 02:37:30.000   22.434280297  114.335384031    63.4683   6  20   0.0186   0.0352   0.0407  -0.0032   0.0099  -0.0144   0.00    0.0
2026/01/15 02:38:00.000   22.434280295  114.335384014    63.4701   6  20   0.0185   0.0352   0.0406  -0.0032   0.0099  -0.0143   0.00    0.0
2026/01/15 02:38:30.000   22.434280286  114.335383995    63.4721   6  21   0.0184   0.0351   0.0404  -0.0033   0.0099  -0.0143   0.00    0.0
2026/01/15 02:39:00.000   22.434280276  114.335383978    63.4744   6  21   0.0184   0.0350   0.0403  -0.0033   0.0099  -0.0142   0.00    0.0
2026/01/15 02:39:30.000   22.434280266  114.335383965    63.4769   6  21   0.0183   0.0349   0.0401  -0.0033   0.0099  -0.0142   0.00    0.0
2026/01/15 02:40:00.000   22.434280257  114.335383952    63.4795   6  21   0.0182   0.0348   0.0399  -0.0034   0.0099  -0.0141   0.00    0.0
2026/01/15 02:40:30.000   22.434280249  114.335383941    63.4819   6  21   0.0181   0.0347   0.0398  -0.0034   0.0099  -0.0140   0.00    0.0
2026/01/15 02:41:00.000   22.434280242  114.335383932    63.4842   6  21   0.0181   0.0346   0.0396  -0.0035   0.0099  -0.0140   0.00    0.0
2026/01/15 02:41:30.000   22.434280235  114.335383928    63.4863   6  21   0.0180   0.0345   0.0394  -0.0035   0.0098  -0.0139   0.00    0.0
2026/01/15 02:42:00.000   22.434280230  114.335383928    63.4882   6  21   0.0179   0.0345   0.0393  -0.0035   0.0098  -0.0139   0.00    0.0
2026/01/15 02:42:30.000   22.434280227  114.335383925    63.4895   6  21   0.0179   0.0344   0.0392  -0.0035   0.0098  -0.0138   0.00    0.0
2026/01/15 02:43:00.000   22.434280223  114.335383918    63.4908   6  21   0.0178   0.0343   0.0390  -0.0036   0.0098  -0.0138   0.00    0.0
2026/01/15 02:43:30.000   22.434280219  114.335383912    63.4922   6  21   0.0177   0.0342   0.0389  -0.0036   0.0098  -0.0137   0.00    0.0
2026/01/15 02:44:00.000   22.434280212  114.335383908    63.4936   6  21   0.0177   0.0342   0.0387  -0.0036   0.0098  -0.0137   0.00    0.0
2026/01/15 02:44:30.000   22.434280206  114.335383903    63.4954   6  21   0.0176   0.0341   0.0386  -0.0037   0.0098  -0.0136   0.00    0.0
2026/01/15 02:45:00.000   22.434280198  114.335383898    63.4973   6  21   0.0175   0.0340   0.0384  -0.0037   0.0098  -0.0136   0.00    0.0
2026/01/15 02:45:30.000   22.434280189  114.335383894    63.4994   6  21   0.0175   0.0339   0.0382  -0.0037   0.0098  -0.0135   0.00    0.0
2026/01/15 02:46:00.000   22.434280178  114.335383890    63.5015   6  21   0.0174   0.0338   0.0381  -0.0038   0.0098  -0.0134   0.00    0.0
2026/01/15 02:46:30.000   22.434280167  114.335383887    63.5036   6  21   0.0173   0.0337   0.0379  -0.0038   0.0098  -0.0134   0.00    0.0
2026/01/15 02:47:00.000   22.434280156  114.335383885    63.5058   6  21   0.0173   0.0337   0.0378  -0.0038   0.0098  -0.0133   0.00    0.0
2026/01/15 02:47:30.000   22.434280147  114.335383883    63.5078   6  21   0.0172   0.0336   0.0377  -0.0038   0.0098  -0.0133   0.00    0.0
2026/01/15 02:48:00.000   22.434280137  114.335383879    63.5097   6  21   0.0171   0.0335   0.0375  -0.0039   0.0098  -0.0133   0.00    0.0
2026/01/15 02:48:30.000   22.434280127  114.335383874    63.5118   6  21   0.0171   0.0335   0.0374  -0.0039   0.0098  -0.0132   0.00    0.0
2026/01/15 02:49:00.000   22.434280115  114.335383867    63.5138   6  21   0.0170   0.0334   0.0372  -0.0039   0.0098  -0.0131   0.00    0.0
2026/01/15 02:49:30.000   22.434280105  114.335383856    63.5158   6  21   0.0170   0.0333   0.0371  -0.0040   0.0098  -0.0131   0.00    0.0
2026/01/15 02:50:00.000   22.434280094  114.335383844    63.5176   6  21   0.0169   0.0332   0.0369  -0.0040   0.0098  -0.0130   0.00    0.0
2026/01/15 02:50:30.000   22.434280085  114.335383831    63.5192   6  21   0.0168   0.0331   0.0368  -0.0040   0.0098  -0.0130   0.00    0.0
2026/01/15 02:51:00.000   22.434280078  114.335383814    63.5208   6  21   0.0168   0.0331   0.0366  -0.0041   0.0098  -0.0129   0.00    0.0
2026/01/15 02:51:30.000   22.434280071  114.335383800    63.5224   6  21   0.0167   0.0330   0.0365  -0.0041   0.0098  -0.0129   0.00    0.0
2026/01/15 02:52:00.000   22.434280065  114.335383787    63.5240   6  21   0.0166   0.0329   0.0363  -0.0041   0.0098  -0.0128   0.00    0.0
2026/01/15 02:52:30.000   22.434280059  114.335383775    63.5255   6  21   0.0166   0.0329   0.0362  -0.0041   0.0098  -0.0128   0.00    0.0
2026/01/15 02:53:00.000   22.434280052  114.335383765    63.5270   6  21   0.0165   0.0328   0.0361  -0.0042   0.0098  -0.0127   0.00    0.0
2026/01/15 02:53:30.000   22.434280046  114.335383754    63.5286   6  21   0.0165   0.0327   0.0359  -0.0042   0.0098  -0.0127   0.00    0.0
2026/01/15 02:54:00.000   22.434280039  114.335383747    63.5304   6  21   0.0164   0.0326   0.0358  -0.0042   0.0098  -0.0126   0.00    0.0
2026/01/15 02:54:30.000   22.434280032  114.335383740    63.5323   6  21   0.0163   0.0326   0.0356  -0.0042   0.0098  -0.0126   0.00    0.0
2026/01/15 02:55:00.000   22.434280024  114.335383733    63.5344   6  21   0.0163   0.0325   0.0355  -0.0043   0.0098  -0.0125   0.00    0.0
2026/01/15 02:55:30.000   22.434280017  114.335383727    63.5364   6  21   0.0162   0.0324   0.0353  -0.0043   0.0098  -0.0125   0.00    0.0
2026/01/15 02:56:00.000   22.434280009  114.335383722    63.5385   6  21   0.0162   0.0324   0.0352  -0.0043   0.0098  -0.0124   0.00    0.0
2026/01/15 02:56:30.000   22.434280002  114.335383719    63.5406   6  22   0.0161   0.0323   0.0351  -0.0044   0.0098  -0.0124   0.00    0.0
2026/01/15 02:57:00.000   22.434279995  114.335383715    63.5426   6  22   0.0160   0.0322   0.0349  -0.0044   0.0098  -0.0124   0.00    0.0
2026/01/15 02:57:30.000   22.434279988  114.335383711    63.5446   6  22   0.0160   0.0322   0.0348  -0.0044   0.0097  -0.0123   0.00    0.0
2026/01/15 02:58:00.000   22.434279982  114.335383710    63.5466   6  22   0.0159   0.0321   0.0347  -0.0044   0.0097  -0.0123   0.00    0.0
2026/01/15 02:58:30.000   22.434279976  114.335383711    63.5483   6  22   0.0159   0.0320   0.0345  -0.0044   0.0097  -0.0122   0.00    0.0
2026/01/15 02:59:00.000   22.434279971  114.335383712    63.5499   6  22   0.0158   0.0320   0.0344  -0.0045   0.0097  -0.0122   0.00    0.0
2026/01/15 02:59:30.000   22.434279965  114.335383711    63.5514   6  22   0.0158   0.0319   0.0343  -0.0045   0.0097  -0.0121   0.00    0.0
2026/01/15 03:00:00.000   22.434279959  114.335383704    63.5528   6  22   0.0157   0.0318   0.0341  -0.0045   0.0097  -0.0121   0.00    0.0
2026/01/15 03:00:30.000   22.434279953  114.335383693    63.5540   6  22   0.0157   0.0317   0.0340  -0.0045   0.0097  -0.0120   0.00    0.0
2026/01/15 03:01:00.000   22.434279948  114.335383682    63.5552   6  22   0.0156   0.0317   0.0339  -0.0046   0.0097  -0.0120   0.00    0.0
2026/01/15 03:01:30.000   22.434279943  114.335383673    63.5565   6  22   0.0155   0.0316   0.0338  -0.0046   0.0098  -0.0119   0.00    0.0
2026/01/15 03:02:00.000   22.434279938  114.335383668    63.5577   6  22   0.0155   0.0316   0.0336  -0.0046   0.0098  -0.0119   0.00    0.0
2026/01/15 03:02:30.000   22.434279933  114.335383662    63.5589   6  22   0.0155   0.0315   0.0335  -0.0046   0.0098  -0.0118   0.00    0.0
2026/01/15 03:03:00.000   22.434279925  114.335383656    63.5602   6  22   0.0154   0.0314   0.0334  -0.0046   0.0098  -0.0118   0.00    0.0
2026/01/15 03:03:30.000   22.434279918  114.335383651    63.5615   6  22   0.0154   0.0314   0.0333  -0.0046   0.0098  -0.0117   0.00    0.0
2026/01/15 03:04:00.000   22.434279910  114.335383649    63.5627   6  22   0.0153   0.0313   0.0332  -0.0047   0.0098  -0.0116   0.00    0.0
2026/01/15 03:04:30.000   22.434279902  114.335383645    63.5641   6  22   0.0152   0.0312   0.0331  -0.0047   0.0098  -0.0116   0.00    0.0
2026/01/15 03:05:00.000   22.434279894  114.335383639    63.5654   6  22   0.0152   0.0312   0.0330  -0.0047   0.0098  -0.0115   0.00    0.0
2026/01/15 03:05:30.000   22.434279886  114.335383633    63.5666   6  22   0.0151   0.0311   0.0328  -0.0047   0.0098  -0.0115   0.00    0.0
2026/01/15 03:06:00.000   22.434279879  114.335383629    63.5677   6  22   0.0151   0.0310   0.0327  -0.0047   0.0098  -0.0114   0.00    0.0
2026/01/15 03:06:30.000   22.434279871  114.335383623    63.5687   6  22   0.0150   0.0310   0.0326  -0.0048   0.0098  -0.0114   0.00    0.0
2026/01/15 03:07:00.000   22.434279865  114.335383616    63.5697   6  22   0.0150   0.0309   0.0325  -0.0048   0.0098  -0.0113   0.00    0.0
2026/01/15 03:07:30.000   22.434279859  114.335383607    63.5706   6  22   0.0149   0.0309   0.0324  -0.0048   0.0098  -0.0113   0.00    0.0
2026/01/15 03:08:00.000   22.434279854  114.335383598    63.5717   6  22   0.0149   0.0308   0.0323  -0.0048   0.0098  -0.0112   0.00    0.0
2026/01/15 03:08:30.000   22.434279847  114.335383589    63.5727   6  22   0.0148   0.0307   0.0322  -0.0048   0.0098  -0.0112   0.00    0.0
2026/01/15 03:09:00.000   22.434279840  114.335383578    63.5736   6  22   0.0148   0.0307   0.0321  -0.0048   0.0098  -0.0111   0.00    0.0
2026/01/15 03:09:30.000   22.434279833  114.335383566    63.5747   6  22   0.0147   0.0306   0.0320  -0.0049   0.0099  -0.0111   0.00    0.0
2026/01/15 03:10:00.000   22.434279827  114.335383553    63.5753   6  22   0.0147   0.0306   0.0319  -0.0049   0.0099  -0.0110   0.00    0.0
2026/01/15 03:10:30.000   22.434279822  114.335383538    63.5758   6  22   0.0146   0.0305   0.0318  -0.0049   0.0099  -0.0110   0.00    0.0
2026/01/15 03:11:00.000   22.434279817  114.335383524    63.5761   6  22   0.0146   0.0305   0.0317  -0.0049   0.0100  -0.0109   0.00    0.0
2026/01/15 03:11:30.000   22.434279813  114.335383512    63.5765   6  22   0.0146   0.0304   0.0316  -0.0049   0.0100  -0.0108   0.00    0.0
2026/01/15 03:12:00.000   22.434279809  114.335383503    63.5769   6  22   0.0145   0.0303   0.0315  -0.0049   0.0100  -0.0108   0.00    0.0
2026/01/15 03:12:30.000   22.434279804  114.335383493    63.5774   6  22   0.0145   0.0303   0.0315  -0.0049   0.0101  -0.0107   0.00    0.0
2026/01/15 03:13:00.000   22.434279799  114.335383489    63.5782   6  21   0.0144   0.0303   0.0314  -0.0049   0.0101  -0.0107   0.00    0.0
2026/01/15 03:13:30.000   22.434279793  114.335383487    63.5791   6  21   0.0144   0.0302   0.0313  -0.0049   0.0102  -0.0106   0.00    0.0
2026/01/15 03:14:00.000   22.434279786  114.335383484    63.5800   6  21   0.0143   0.0302   0.0312  -0.0049   0.0102  -0.0106   0.00    0.0
2026/01/15 03:14:30.000   22.434279779  114.335383482    63.5811   6  21   0.0143   0.0301   0.0311  -0.0049   0.0103  -0.0105   0.00    0.0
2026/01/15 03:15:00.000   22.434279772  114.335383482    63.5822   6  21   0.0143   0.0301   0.0311  -0.0048   0.0103  -0.0104   0.00    0.0
2026/01/15 03:15:30.000   22.434279764  114.335383484    63.5834   6  21   0.0142   0.0301   0.0310  -0.0048   0.0104  -0.0104   0.00    0.0
2026/01/15 03:16:00.000   22.434279756  114.335383485    63.5844   6  21   0.0142   0.0300   0.0309  -0.0048   0.0104  -0.0103   0.00    0.0
2026/01/15 03:16:30.000   22.434279749  114.335383488    63.5855   6  21   0.0141   0.0300   0.0308  -0.0048   0.0105  -0.0103   0.00    0.0
2026/01/15 03:17:00.000   22.434279743  114.335383487    63.5865   6  21   0.0141   0.0299   0.0307  -0.0048   0.0105  -0.0102   0.00    0.0
2026/01/15 03:17:30.000   22.434279738  114.335383483    63.5873   6  21   0.0141   0.0299   0.0307  -0.0048   0.0106  -0.0101   0.00    0.0
2026/01/15 03:18:00.000   22.434279733  114.335383479    63.5882   6  21   0.0140   0.0299   0.0306  -0.0048   0.0106  -0.0101   0.00    0.0
2026/01/15 03:18:30.000   22.434279728  114.335383475    63.5890   6  21   0.0140   0.0298   0.0305  -0.0047   0.0107  -0.0100   0.00    0.0
2026/01/15 03:19:00.000   22.434279722  114.335383473    63.5899   6  21   0.0140   0.0298   0.0305  -0.0047   0.0107  -0.0099   0.00    0.0
2026/01/15 03:19:30.000   22.434279717  114.335383471    63.5909   6  21   0.0139   0.0297   0.0304  -0.0047   0.0108  -0.0099   0.00    0.0
2026/01/15 03:20:00.000   22.434279712  114.335383468    63.5917   6  21   0.0139   0.0297   0.0303  -0.0047   0.0108  -0.0098   0.00    0.0
2026/01/15 03:20:30.000   22.434279707  114.335383461    63.5925   6  21   0.0138   0.0297   0.0302  -0.0047   0.0109  -0.0097   0.00    0.0
2026/01/15 03:21:00.000   22.434279703  114.335383455    63.5932   6  21   0.0138   0.0296   0.0302  -0.0047   0.0109  -0.0097   0.00    0.0
2026/01/15 03:21:30.000   22.434279698  114.335383449    63.5938   6  21   0.0138   0.0296   0.0301  -0.0047   0.0110  -0.0096   0.00    0.0
2026/01/15 03:22:00.000   22.434279694  114.335383443    63.5946   6  21   0.0137   0.0295   0.0300  -0.0047   0.0110  -0.0095   0.00    0.0
2026/01/15 03:22:30.000   22.434279690  114.335383437    63.5954   6  21   0.0137   0.0295   0.0300  -0.0046   0.0110  -0.0095   0.00    0.0
2026/01/15 03:23:00.000   22.434279686  114.335383431    63.5963   6  21   0.0137   0.0295   0.0299  -0.0046   0.0111  -0.0094   0.00    0.0
2026/01/15 03:23:30.000   22.434279682  114.335383423    63.5971   6  21   0.0136   0.0294   0.0299  -0.0046   0.0111  -0.0094   0.00    0.0
2026/01/15 03:24:00.000   22.434279678  114.335383414    63.5979   6  21   0.0136   0.0294   0.0298  -0.0046   0.0112  -0.0093   0.00    0.0
2026/01/15 03:24:30.000   22.434279674  114.335383405    63.5985   6  21   0.0136   0.0294   0.0297  -0.0046   0.0112  -0.0092   0.00    0.0
2026/01/15 03:25:00.000   22.434279671  114.335383395    63.5987   6  18   0.0135   0.0293   0.0296  -0.0046   0.0113  -0.0092   0.00    0.0
2026/01/15 03:25:30.000   22.434279667  114.335383387    63.5990   6  18   0.0135   0.0293   0.0296  -0.0046   0.0113  -0.0091   0.00    0.0
2026/01/15 03:26:00.000   22.434279661  114.335383383    63.5996   6  19   0.0135   0.0292   0.0295  -0.0046   0.0114  -0.0090   0.00    0.0
2026/01/15 03:26:30.000   22.434279655  114.335383380    63.6002   6  19   0.0134   0.0292   0.0294  -0.0046   0.0114  -0.0090   0.00    0.0
2026/01/15 03:27:00.000   22.434279652  114.335383383    63.6006   6  17   0.0134   0.0292   0.0294  -0.0046   0.0114  -0.0089   0.00    0.0
2026/01/15 03:27:30.000   22.434279648  114.335383388    63.6009   6  17   0.0134   0.0291   0.0293  -0.0046   0.0115  -0.0089   0.00    0.0
2026/01/15 03:28:00.000   22.434279642  114.335383391    63.6013   6  19   0.0133   0.0291   0.0293  -0.0045   0.0115  -0.0088   0.00    0.0
