% program   : RTKLIB ver.EX 2.5.0
% inp file  : C:\PPP_PROJECT\New_Data\obs\RNXDATA\KIRU00SWE_R_20260150000_01D_30S_MO.rnx
% inp file  : C:\PPP_PROJECT\New_Data\nav\BRDC00IGS_R_20260150000_01D_MN.rnx
% inp file  : C:\PPP_PROJECT\New_Data\DATA_FINAL_ANT_EXTRA\COD0MGXFIN_20260150000_01D_05M_ORB.SP3
% inp file  : C:\PPP_PROJECT\New_Data\DATA_FINAL_ANT_EXTRA\COD0MGXFIN_20260150000_01D_30S_CLK.CLK
% inp file  : C:\PPP_PROJECT\New_Data\DATA_FINAL_ANT_EXTRA\COD0MGXFIN_20260150000_01D_01D_OSB.BIA
% inp file  : .
% obs start : 2026/01/15 00:00:00.0 GPST (week2401 345600.0s)
% obs end   : 2026/01/15 23:59:30.0 GPST (week2401 431970.0s)
% pos mode  : PPP Static
% freqs     : L1+L2/E5b
% solution  : Forward
% elev mask : 15.0 deg
% dynamics  : on
% tidecorr  :
% ionos opt : Iono-Free LC
% tropo opt : Saastamoinen
% ephemeris : Precise
% navi sys  : GPS Galileo BDS
% antenna1  : SEPCHOKE_B3E6   SPKE  ( 0.0000  0.0000  0.0620)
%
% (lat/lon/height=WGS84/ellipsoidal,Q=1:fix,2:float,3:sbas,4:dgps,5:single,6:ppp,ns=# of satellites)
%  GPST                  latitude(deg) longitude(deg)  height(m)   Q  ns   sdn(m)   sde(m)   sdu(m)  sdne(m)  sdeu(m)  sdun(m) age(s)  ratio
2026/01/15 00:00:00.000   67.857349640   20.968465737   391.9380   6   9   2.9458   2.7869   7.0697  -0.7086  -1.2424   2.5553   0.00    0.0
2026/01/15 00:46:30.000   67.857349881   20.968457621   391.5153   6   4   0.3120   0.2698   0.7581  -0.0932  -0.2329   0.3041   0.00    0.0
2026/01/15 00:47:00.000   67.857349899   20.968457699   391.5247   6  13   0.3110   0.2685   0.7555  -0.0936  -0.2321   0.3041   0.00    0.0
2026/01/15 00:47:30.000   67.857349864   20.968457674   391.5197   6   8   0.3099   0.2672   0.7533  -0.0939  -0.2311   0.3042   0.00    0.0
2026/01/15 00:51:00.000   67.857349786   20.968458017   391.4790   6  12   0.3020   0.2585   0.7328  -0.0955  -0.2239   0.2996   0.00    0.0
2026/01/15 00:51:30.000   67.857349815   20.968458087   391.4756   6  15   0.3007   0.2573   0.7284  -0.0955  -0.2223   0.2981   0.00    0.0
2026/01/15 00:52:00.000   67.857349786   20.968458111   391.4729   6   7   0.2995   0.2561   0.7243  -0.0954  -0.2209   0.2967   0.00    0.0
2026/01/15 00:52:30.000   67.857349733   20.968458111   391.4651   6  13   0.2983   0.2549   0.7201  -0.0954  -0.2194   0.2953   0.00    0.0
2026/01/15 00:53:00.000   67.857349693   20.968458186   391.4491   6  12   0.2970   0.2537   0.7158  -0.0953  -0.2178   0.2938   0.00    0.0
2026/01/15 00:53:30.000   67.857349643   20.968458299   391.4365   6  13   0.2957   0.2525   0.7113  -0.0951  -0.2163   0.2922   0.00    0.0
2026/01/15 00:54:00.000   67.857349646   20.968458385   391.4326   6  14   0.2944   0.2513   0.7071  -0.0949  -0.2146   0.2905   0.00    0.0
2026/01/15 00:54:30.000   67.857349637   20.968458338   391.4267   6  13   0.2931   0.2501   0.7026  -0.0947  -0.2128   0.2887   0.00    0.0
2026/01/15 00:55:00.000   67.857349603   20.968458385   391.4206   6  14   0.2918   0.2489   0.6979  -0.0944  -0.2109   0.2868   0.00    0.0
2026/01/15 00:55:30.000   67.857349610   20.968458363   391.4179   6  15   0.2904   0.2478   0.6928  -0.0940  -0.2090   0.2846   0.00    0.0
2026/01/15 00:56:00.000   67.857349606   20.968458330   391.4126   6  15   0.2889   0.2466   0.6874  -0.0936  -0.2069   0.2822   0.00    0.0
2026/01/15 00:56:30.000   67.857349581   20.968458181   391.4050   6  16   0.2874   0.2454   0.6816  -0.0930  -0.2046   0.2796   0.00    0.0
2026/01/15 00:57:00.000   67.857349568   20.968458213   391.3886   6  14   0.2859   0.2442   0.6755  -0.0925  -0.2023   0.2766   0.00    0.0
2026/01/15 00:57:30.000   67.857349561   20.968458248   391.3748   6  14   0.2843   0.2431   0.6693  -0.0917  -0.1997   0.2736   0.00    0.0
2026/01/15 00:58:00.000   67.857349564   20.968458429   391.3578   6  14   0.2827   0.2419   0.6627  -0.0910  -0.1970   0.2703   0.00    0.0
2026/01/15 00:58:30.000   67.857349532   20.968458424   391.3609   6  14   0.2811   0.2408   0.6563  -0.0902  -0.1946   0.2668   0.00    0.0
2026/01/15 00:59:00.000   67.857349545   20.968458466   391.3554   6  14   0.2794   0.2397   0.6498  -0.0893  -0.1920   0.2631   0.00    0.0
2026/01/15 00:59:30.000   67.857349502   20.968458496   391.3525   6  14   0.2777   0.2386   0.6430  -0.0884  -0.1893   0.2592   0.00    0.0
2026/01/15 01:00:00.000   67.857349482   20.968458463   391.3381   6  14   0.2760   0.2375   0.6361  -0.0874  -0.1865   0.2554   0.00    0.0
2026/01/15 01:00:30.000   67.857349462   20.968458495   391.3253   6  14   0.2744   0.2365   0.6290  -0.0863  -0.1837   0.2514   0.00    0.0
2026/01/15 01:01:00.000   67.857349439   20.968458592   391.3152   6  14   0.2727   0.2354   0.6216  -0.0853  -0.1807   0.2472   0.00    0.0
2026/01/15 01:01:30.000   67.857349432   20.968458600   391.3026   6  14   0.2709   0.2343   0.6139  -0.0841  -0.1777   0.2428   0.00    0.0
2026/01/15 01:02:00.000   67.857349424   20.968458621   391.2960   6  14   0.2692   0.2333   0.6060  -0.0830  -0.1746   0.2382   0.00    0.0
2026/01/15 01:02:30.000   67.857349430   20.968458618   391.2913   6  14   0.2674   0.2322   0.5979  -0.0818  -0.1714   0.2334   0.00    0.0
2026/01/15 01:03:00.000   67.857349438   20.968458600   391.2905   6  15   0.2656   0.2311   0.5893  -0.0805  -0.1679   0.2284   0.00    0.0
2026/01/15 01:03:30.000   67.857349464   20.968458523   391.2901   6  15   0.2637   0.2300   0.5807  -0.0791  -0.1644   0.2233   0.00    0.0
2026/01/15 01:04:00.000   67.857349451   20.968458573   391.2856   6  15   0.2619   0.2289   0.5719  -0.0778  -0.1608   0.2180   0.00    0.0
2026/01/15 01:04:30.000   67.857349407   20.968458542   391.2893   6  15   0.2601   0.2279   0.5630  -0.0764  -0.1573   0.2125   0.00    0.0
2026/01/15 01:05:00.000   67.857349412   20.968458557   391.2835   6  15   0.2583   0.2268   0.5541  -0.0750  -0.1537   0.2070   0.00    0.0
2026/01/15 01:05:30.000   67.857349408   20.968458569   391.2793   6  15   0.2564   0.2257   0.5450  -0.0737  -0.1501   0.2013   0.00    0.0
2026/01/15 01:06:00.000   67.857349412   20.968458687   391.2739   6  15   0.2546   0.2247   0.5359  -0.0723  -0.1465   0.1956   0.00    0.0
2026/01/15 01:06:30.000   67.857349395   20.968458698   391.2687   6  15   0.2528   0.2237   0.5268  -0.0710  -0.1429   0.1897   0.00    0.0
2026/01/15 01:07:00.000   67.857349409   20.968458624   391.2674   6  15   0.2509   0.2227   0.5178  -0.0696  -0.1393   0.1837   0.00    0.0
2026/01/15 01:07:30.000   67.857349375   20.968458638   391.2675   6  15   0.2491   0.2217   0.5087  -0.0683  -0.1357   0.1777   0.00    0.0
2026/01/15 01:08:00.000   67.857349349   20.968458607   391.2685   6  15   0.2473   0.2207   0.4996  -0.0670  -0.1321   0.1716   0.00    0.0
2026/01/15 01:08:30.000   67.857349356   20.968458626   391.2660   6  15   0.2455   0.2197   0.4906  -0.0658  -0.1285   0.1653   0.00    0.0
2026/01/15 01:09:00.000   67.857349326   20.968458668   391.2652   6  15   0.2437   0.2188   0.4817  -0.0646  -0.1250   0.1591   0.00    0.0
2026/01/15 01:09:30.000   67.857349291   20.968458724   391.2618   6  15   0.2419   0.2178   0.4729  -0.0634  -0.1215   0.1527   0.00    0.0
2026/01/15 01:10:00.000   67.857349280   20.968458729   391.2635   6  15   0.2401   0.2169   0.4642  -0.0622  -0.1181   0.1463   0.00    0.0
2026/01/15 01:10:30.000   67.857349259   20.968458674   391.2675   6  15   0.2384   0.2160   0.4556  -0.0611  -0.1147   0.1398   0.00    0.0
2026/01/15 01:11:00.000   67.857349234   20.968458717   391.2648   6  15   0.2366   0.2151   0.4472  -0.0600  -0.1114   0.1332   0.00    0.0
2026/01/15 01:11:30.000   67.857349226   20.968458713   391.2620   6  15   0.2349   0.2141   0.4389  -0.0590  -0.1081   0.1265   0.00    0.0
2026/01/15 01:12:00.000   67.857349241   20.968458768   391.2528   6  15   0.2332   0.2132   0.4307  -0.0580  -0.1048   0.1198   0.00    0.0
2026/01/15 01:12:30.000   67.857349195   20.968458777   391.2512   6  15   0.2315   0.2124   0.4228  -0.0572  -0.1018   0.1131   0.00    0.0
2026/01/15 01:13:00.000   67.857349203   20.968458846   391.2437   6  15   0.2299   0.2115   0.4151  -0.0565  -0.0989   0.1064   0.00    0.0
2026/01/15 01:13:30.000   67.857349187   20.968458817   391.2443   6  15   0.2283   0.2107   0.4075  -0.0559  -0.0961   0.0996   0.00    0.0
2026/01/15 01:14:00.000   67.857349202   20.968458888   391.2422   6  15   0.2266   0.2099   0.4001  -0.0553  -0.0934   0.0926   0.00    0.0
2026/01/15 01:14:30.000   67.857349220   20.968458866   391.2403   6  15   0.2250   0.2091   0.3929  -0.0547  -0.0907   0.0853   0.00    0.0
2026/01/15 01:15:00.000   67.857349235   20.968458902   391.2382   6  15   0.2234   0.2083   0.3858  -0.0543  -0.0881   0.0778   0.00    0.0
2026/01/15 01:15:30.000   67.857349242   20.968458915   391.2338   6  15   0.2219   0.2075   0.3789  -0.0538  -0.0856   0.0699   0.00    0.0
2026/01/15 01:16:00.000   67.857349248   20.968458967   391.2336   6  15   0.2203   0.2067   0.3721  -0.0534  -0.0831   0.0615   0.00    0.0
2026/01/15 01:16:30.000   67.857349247   20.968459039   391.2326   6  15   0.2187   0.2059   0.3654  -0.0531  -0.0806   0.0524   0.00    0.0
2026/01/15 01:17:00.000   67.857349267   20.968459042   391.2293   6  15   0.2172   0.2051   0.3589  -0.0528  -0.0783   0.0419   0.00    0.0
2026/01/15 01:17:30.000   67.857349261   20.968459085   391.2258   6  15   0.2156   0.2043   0.3526  -0.0526  -0.0760   0.0287   0.00    0.0
2026/01/15 01:18:00.000   67.857349283   20.968459110   391.2265   6  15   0.2141   0.2035   0.3463  -0.0524  -0.0737  -0.0070   0.00    0.0
2026/01/15 01:18:30.000   67.857349287   20.968459196   391.2250   6  15   0.2125   0.2027   0.3403  -0.0522  -0.0715  -0.0295   0.00    0.0
2026/01/15 01:19:00.000   67.857349289   20.968459140   391.2246   6  15   0.2110   0.2019   0.3343  -0.0521  -0.0693  -0.0405   0.00    0.0
2026/01/15 01:19:30.000   67.857349316   20.968459228   391.2222   6  15   0.2094   0.2012   0.3285  -0.0520  -0.0672  -0.0485   0.00    0.0
2026/01/15 01:20:00.000   67.857349342   20.968459252   391.2188   6  15   0.2079   0.2004   0.3228  -0.0519  -0.0652  -0.0550   0.00    0.0
2026/01/15 01:20:30.000   67.857349359   20.968459225   391.2152   6  17   0.2063   0.1995   0.3172  -0.0519  -0.0632  -0.0600   0.00    0.0
2026/01/15 01:21:00.000   67.857349372   20.968459291   391.2116   6  17   0.2048   0.1987   0.3117  -0.0520  -0.0614  -0.0643   0.00    0.0
2026/01/15 01:21:30.000   67.857349407   20.968459301   391.2102   6  17   0.2032   0.1979   0.3065  -0.0520  -0.0597  -0.0681   0.00    0.0
2026/01/15 01:22:00.000   67.857349445   20.968459248   391.2070   6  17   0.2016   0.1971   0.3014  -0.0521  -0.0581  -0.0715   0.00    0.0
2026/01/15 01:22:30.000   67.857349492   20.968459206   391.2027   6  17   0.2000   0.1963   0.2964  -0.0522  -0.0565  -0.0744   0.00    0.0
2026/01/15 01:23:00.000   67.857349520   20.968459183   391.1994   6  17   0.1985   0.1955   0.2916  -0.0523  -0.0550  -0.0770   0.00    0.0
2026/01/15 01:23:30.000   67.857349555   20.968459215   391.1962   6  17   0.1969   0.1946   0.2868  -0.0524  -0.0535  -0.0793   0.00    0.0
2026/01/15 01:24:00.000   67.857349601   20.968459163   391.1938   6  17   0.1953   0.1938   0.2822  -0.0525  -0.0521  -0.0813   0.00    0.0
2026/01/15 01:24:30.000   67.857349646   20.968459129   391.1886   6  17   0.1937   0.1930   0.2776  -0.0526  -0.0507  -0.0830   0.00    0.0
2026/01/15 01:25:00.000   67.857349676   20.968459070   391.1894   6  13   0.1924   0.1922   0.2743  -0.0529  -0.0500  -0.0844   0.00    0.0
2026/01/15 01:26:00.000   67.857349672   20.968458967   391.1907   6  15   0.1904   0.1908   0.2695  -0.0532  -0.0482  -0.0855   0.00    0.0
2026/01/15 01:26:30.000   67.857349681   20.968458974   391.1905   6  10   0.1892   0.1901   0.2667  -0.0534  -0.0476  -0.0859   0.00    0.0
2026/01/15 01:27:00.000   67.857349719   20.968458981   391.1879   6  15   0.1875   0.1893   0.2622  -0.0537  -0.0462  -0.0872   0.00    0.0
2026/01/15 01:27:30.000   67.857349756   20.968459041   391.1849   6  14   0.1858   0.1885   0.2578  -0.0540  -0.0448  -0.0883   0.00    0.0
2026/01/15 01:28:00.000   67.857349806   20.968459009   391.1818   6  14   0.1842   0.1877   0.2536  -0.0544  -0.0436  -0.0893   0.00    0.0
2026/01/15 01:28:30.000   67.857349853   20.968459019   391.1774   6  15   0.1825   0.1868   0.2495  -0.0547  -0.0423  -0.0902   0.00    0.0
2026/01/15 01:29:00.000   67.857349877   20.968458990   391.1765   6  16   0.1809   0.1860   0.2455  -0.0550  -0.0411  -0.0908   0.00    0.0
2026/01/15 01:29:30.000   67.857349904   20.968458985   391.1748   6  15   0.1792   0.1852   0.2416  -0.0554  -0.0399  -0.0914   0.00    0.0
2026/01/15 01:30:00.000   67.857349944   20.968458994   391.1714   6  14   0.1776   0.1844   0.2378  -0.0557  -0.0388  -0.0919   0.00    0.0
2026/01/15 01:30:30.000   67.857350007   20.968458984   391.1656   6  15   0.1759   0.1836   0.2341  -0.0560  -0.0377  -0.0922   0.00    0.0
2026/01/15 01:31:00.000   67.857350056   20.968459051   391.1590   6  15   0.1743   0.1828   0.2305  -0.0564  -0.0366  -0.0925   0.00    0.0
2026/01/15 01:31:30.000   67.857350102   20.968459029   391.1559   6  16   0.1727   0.1820   0.2270  -0.0567  -0.0355  -0.0926   0.00    0.0
2026/01/15 01:32:00.000   67.857350135   20.968459025   391.1533   6  15   0.1711   0.1812   0.2235  -0.0570  -0.0346  -0.0927   0.00    0.0
2026/01/15 01:32:30.000   67.857350177   20.968459069   391.1483   6  15   0.1695   0.1804   0.2202  -0.0574  -0.0336  -0.0927   0.00    0.0
2026/01/15 01:33:00.000   67.857350228   20.968459081   391.1426   6  15   0.1679   0.1796   0.2169  -0.0577  -0.0327  -0.0926   0.00    0.0
2026/01/15 01:33:30.000   67.857350282   20.968459080   391.1384   6  15   0.1663   0.1788   0.2137  -0.0580  -0.0319  -0.0924   0.00    0.0
2026/01/15 01:34:00.000   67.857350322   20.968459061   391.1348   6  15   0.1647   0.1779   0.2106  -0.0584  -0.0310  -0.0922   0.00    0.0
2026/01/15 01:34:30.000   67.857350365   20.968459157   391.1306   6  15   0.1631   0.1771   0.2075  -0.0587  -0.0302  -0.0920   0.00    0.0
2026/01/15 01:35:00.000   67.857350394   20.968459145   391.1280   6  15   0.1616   0.1763   0.2045  -0.0590  -0.0294  -0.0917   0.00    0.0
2026/01/15 01:35:30.000   67.857350431   20.968459255   391.1243   6  16   0.1600   0.1755   0.2016  -0.0593  -0.0286  -0.0913   0.00    0.0
2026/01/15 01:36:00.000   67.857350475   20.968459219   391.1208   6  16   0.1585   0.1747   0.1987  -0.0596  -0.0279  -0.0909   0.00    0.0
2026/01/15 01:36:30.000   67.857350493   20.968459239   391.1190   6  16   0.1573   0.1740   0.1961  -0.0605  -0.0261  -0.0910   0.00    0.0
2026/01/15 01:37:00.000   67.857350526   20.968459292   391.1151   6  16   0.1562   0.1733   0.1936  -0.0614  -0.0242  -0.0911   0.00    0.0
2026/01/15 01:37:30.000   67.857350539   20.968459306   391.1141   6  16   0.1550   0.1726   0.1911  -0.0622  -0.0221  -0.0911   0.00    0.0
2026/01/15 01:38:00.000   67.857350554   20.968459399   391.1130   6  16   0.1539   0.1719   0.1887  -0.0630  -0.0200  -0.0911   0.00    0.0
2026/01/15 01:38:30.000   67.857350574   20.968459439   391.1102   6  16   0.1528   0.1713   0.1863  -0.0638  -0.0176  -0.0910   0.00    0.0
2026/01/15 01:39:00.000   67.857350593   20.968459440   391.1078   6  16   0.1516   0.1706   0.1840  -0.0646  -0.0150  -0.0909   0.00    0.0
2026/01/15 01:39:30.000   67.857350620   20.968459422   391.1048   6  16   0.1505   0.1699   0.1817  -0.0653  -0.0119  -0.0908   0.00    0.0
2026/01/15 01:40:00.000   67.857350649   20.968459504   391.1012   6  16   0.1494   0.1692   0.1794  -0.0660  -0.0077  -0.0906   0.00    0.0
2026/01/15 01:40:30.000   67.857350677   20.968459494   391.0988   6  16   0.1483   0.1685   0.1772  -0.0667   0.0043  -0.0904   0.00    0.0
2026/01/15 01:41:00.000   67.857350686   20.968459541   391.0968   6  16   0.1472   0.1679   0.1750  -0.0674   0.0097  -0.0901   0.00    0.0
2026/01/15 01:41:30.000   67.857350697   20.968459567   391.0952   6  16   0.1462   0.1672   0.1729  -0.0681   0.0130  -0.0899   0.00    0.0
2026/01/15 01:42:00.000   67.857350730   20.968459619   391.0914   6  16   0.1451   0.1665   0.1708  -0.0687   0.0154  -0.0896   0.00    0.0
2026/01/15 01:42:30.000   67.857350757   20.968459682   391.0885   6  16   0.1440   0.1658   0.1687  -0.0693   0.0174  -0.0893   0.00    0.0
2026/01/15 01:43:00.000   67.857350782   20.968459731   391.0865   6  16   0.1430   0.1651   0.1667  -0.0699   0.0192  -0.0889   0.00    0.0
2026/01/15 01:43:30.000   67.857350802   20.968459819   391.0834   6  16   0.1419   0.1645   0.1647  -0.0704   0.0207  -0.0885   0.00    0.0
2026/01/15 01:44:00.000   67.857350819   20.968459889   391.0811   6  16   0.1409   0.1638   0.1627  -0.0710   0.0221  -0.0882   0.00    0.0
2026/01/15 01:44:30.000   67.857350855   20.968459932   391.0776   6  16   0.1398   0.1631   0.1608  -0.0715   0.0234  -0.0877   0.00    0.0
2026/01/15 01:45:00.000   67.857350887   20.968459956   391.0735   6  16   0.1388   0.1624   0.1589  -0.0720   0.0245  -0.0873   0.00    0.0
2026/01/15 01:45:30.000   67.857350911   20.968459974   391.0705   6  16   0.1378   0.1618   0.1570  -0.0725   0.0256  -0.0869   0.00    0.0
2026/01/15 01:46:00.000   67.857350939   20.968459974   391.0680   6  16   0.1367   0.1611   0.1552  -0.0729   0.0266  -0.0864   0.00    0.0
2026/01/15 01:46:30.000   67.857350963   20.968459979   391.0650   6  16   0.1358   0.1605   0.1534  -0.0734   0.0275  -0.0860   0.00    0.0
2026/01/15 01:47:00.000   67.857350982   20.968460046   391.0618   6  16   0.1348   0.1598   0.1517  -0.0739   0.0284  -0.0856   0.00    0.0
2026/01/15 01:47:30.000   67.857351004   20.968460092   391.0586   6  16   0.1339   0.1592   0.1499  -0.0744   0.0293  -0.0851   0.00    0.0
2026/01/15 01:48:00.000   67.857351023   20.968460132   391.0563   6  16   0.1329   0.1586   0.1482  -0.0749   0.0301  -0.0846   0.00    0.0
2026/01/15 01:48:30.000   67.857351053   20.968460127   391.0526   6  16   0.1320   0.1580   0.1466  -0.0753   0.0308  -0.0842   0.00    0.0
2026/01/15 01:49:00.000   67.857351073   20.968460153   391.0494   6  16   0.1311   0.1574   0.1449  -0.0758   0.0315  -0.0837   0.00    0.0
2026/01/15 01:49:30.000   67.857351089   20.968460205   391.0465   6  17   0.1302   0.1568   0.1433  -0.0762   0.0321  -0.0832   0.00    0.0
2026/01/15 01:50:00.000   67.857351113   20.968460234   391.0435   6  17   0.1293   0.1562   0.1417  -0.0766   0.0327  -0.0826   0.00    0.0
2026/01/15 01:50:30.000   67.857351134   20.968460282   391.0404   6  17   0.1284   0.1556   0.1401  -0.0770   0.0332  -0.0821   0.00    0.0
2026/01/15 01:51:00.000   67.857351161   20.968460305   391.0376   6  17   0.1275   0.1550   0.1386  -0.0774   0.0337  -0.0816   0.00    0.0
2026/01/15 01:51:30.000   67.857351185   20.968460324   391.0349   6  17   0.1267   0.1544   0.1370  -0.0778   0.0342  -0.0811   0.00    0.0
2026/01/15 01:52:00.000   67.857351212   20.968460313   391.0316   6  17   0.1258   0.1538   0.1355  -0.0781   0.0346  -0.0805   0.00    0.0
2026/01/15 01:52:30.000   67.857351225   20.968460328   391.0296   6  17   0.1250   0.1533   0.1340  -0.0784   0.0351  -0.0800   0.00    0.0
2026/01/15 01:53:00.000   67.857351248   20.968460362   391.0264   6  17   0.1241   0.1527   0.1326  -0.0787   0.0354  -0.0795   0.00    0.0
2026/01/15 01:53:30.000   67.857351269   20.968460370   391.0229   6  17   0.1233   0.1521   0.1311  -0.0790   0.0358  -0.0789   0.00    0.0
2026/01/15 01:54:00.000   67.857351294   20.968460404   391.0192   6  17   0.1225   0.1515   0.1297  -0.0793   0.0362  -0.0784   0.00    0.0
2026/01/15 01:54:30.000   67.857351320   20.968460377   391.0153   6  17   0.1216   0.1509   0.1283  -0.0796   0.0365  -0.0778   0.00    0.0
2026/01/15 01:55:00.000   67.857351341   20.968460432   391.0121   6  17   0.1208   0.1503   0.1269  -0.0798   0.0368  -0.0773   0.00    0.0
2026/01/15 01:55:30.000   67.857351362   20.968460446   391.0093   6  17   0.1200   0.1497   0.1256  -0.0800   0.0371  -0.0767   0.00    0.0
2026/01/15 01:56:00.000   67.857351384   20.968460457   391.0065   6  17   0.1192   0.1491   0.1242  -0.0802   0.0373  -0.0762   0.00    0.0
2026/01/15 01:56:30.000   67.857351399   20.968460495   391.0042   6  17   0.1185   0.1485   0.1229  -0.0804   0.0376  -0.0757   0.00    0.0
2026/01/15 01:57:00.000   67.857351425   20.968460509   391.0011   6  17   0.1177   0.1479   0.1216  -0.0806   0.0378  -0.0751   0.00    0.0
2026/01/15 01:57:30.000   67.857351442   20.968460530   390.9978   6  18   0.1169   0.1473   0.1203  -0.0807   0.0379  -0.0745   0.00    0.0
2026/01/15 01:58:00.000   67.857351461   20.968460539   390.9949   6  18   0.1161   0.1466   0.1191  -0.0808   0.0380  -0.0740   0.00    0.0
2026/01/15 01:58:30.000   67.857351479   20.968460549   390.9922   6  18   0.1154   0.1460   0.1178  -0.0809   0.0382  -0.0734   0.00    0.0
2026/01/15 01:59:00.000   67.857351490   20.968460568   390.9894   6  18   0.1146   0.1454   0.1166  -0.0810   0.0383  -0.0729   0.00    0.0
2026/01/15 01:59:30.000   67.857351506   20.968460598   390.9859   6  18   0.1139   0.1448   0.1154  -0.0811   0.0383  -0.0723   0.00    0.0
2026/01/15 02:00:00.000   67.857351519   20.968460619   390.9836   6  18   0.1131   0.1441   0.1142  -0.0812   0.0384  -0.0718   0.00    0.0
2026/01/15 02:00:30.000   67.857351553   20.968460581   390.9800   6  18   0.1124   0.1435   0.1130  -0.0812   0.0385  -0.0712   0.00    0.0
2026/01/15 02:01:00.000   67.857351581   20.968460557   390.9765   6  18   0.1116   0.1428   0.1119  -0.0812   0.0385  -0.0707   0.00    0.0
2026/01/15 02:01:30.000   67.857351605   20.968460564   390.9732   6  18   0.1109   0.1422   0.1107  -0.0812   0.0385  -0.0701   0.00    0.0
2026/01/15 02:02:00.000   67.857351626   20.968460557   390.9699   6  18   0.1102   0.1415   0.1096  -0.0812   0.0385  -0.0696   0.00    0.0
2026/01/15 02:02:30.000   67.857351645   20.968460569   390.9664   6  19   0.1095   0.1409   0.1086  -0.0812   0.0385  -0.0691   0.00    0.0
2026/01/15 02:03:00.000   67.857351665   20.968460572   390.9633   6  19   0.1088   0.1402   0.1075  -0.0812   0.0385  -0.0686   0.00    0.0
2026/01/15 02:03:30.000   67.857351681   20.968460574   390.9602   6  19   0.1082   0.1396   0.1065  -0.0811   0.0384  -0.0681   0.00    0.0
2026/01/15 02:04:00.000   67.857351697   20.968460587   390.9571   6  19   0.1075   0.1389   0.1055  -0.0810   0.0384  -0.0677   0.00    0.0
2026/01/15 02:04:30.000   67.857351725   20.968460560   390.9538   6  19   0.1068   0.1382   0.1045  -0.0809   0.0383  -0.0672   0.00    0.0
2026/01/15 02:05:00.000   67.857351733   20.968460582   390.9514   6  19   0.1061   0.1375   0.1036  -0.0809   0.0382  -0.0667   0.00    0.0
2026/01/15 02:05:30.000   67.857351746   20.968460596   390.9489   6  19   0.1055   0.1368   0.1026  -0.0807   0.0381  -0.0662   0.00    0.0
2026/01/15 02:06:00.000   67.857351758   20.968460610   390.9465   6  19   0.1048   0.1362   0.1016  -0.0806   0.0380  -0.0658   0.00    0.0
2026/01/15 02:06:30.000   67.857351772   20.968460612   390.9437   6  19   0.1042   0.1355   0.1007  -0.0805   0.0379  -0.0653   0.00    0.0
2026/01/15 02:07:00.000   67.857351786   20.968460597   390.9409   6  19   0.1035   0.1348   0.0998  -0.0803   0.0378  -0.0648   0.00    0.0
2026/01/15 02:07:30.000   67.857351807   20.968460559   390.9379   6  19   0.1029   0.1341   0.0989  -0.0802   0.0377  -0.0643   0.00    0.0
2026/01/15 02:08:00.000   67.857351827   20.968460522   390.9345   6  19   0.1022   0.1333   0.0980  -0.0800   0.0375  -0.0639   0.00    0.0
2026/01/15 02:08:30.000   67.857351847   20.968460495   390.9312   6  20   0.1016   0.1327   0.0971  -0.0799   0.0375  -0.0635   0.00    0.0
2026/01/15 02:09:00.000   67.857351859   20.968460488   390.9283   6  20   0.1010   0.1320   0.0962  -0.0797   0.0374  -0.0630   0.00    0.0
2026/01/15 02:19:30.000   67.857351741   20.968460757   390.9367   6   4   0.0992   0.1277   0.0956  -0.0769   0.0356  -0.0617   0.00    0.0
2026/01/15 02:31:00.000   67.857351596   20.968461144   390.9454   6   6   0.0975   0.1234   0.0950  -0.0740   0.0338  -0.0603   0.00    0.0
2026/01/15 02:31:30.000   67.857351595   20.968461154   390.9455   6   6   0.0974   0.1232   0.0950  -0.0738   0.0338  -0.0603   0.00    0.0
2026/01/15 02:32:00.000   67.857351591   20.968461155   390.9459   6   6   0.0973   0.1231   0.0950  -0.0737   0.0337  -0.0602   0.00    0.0
2026/01/15 02:33:00.000   67.857351577   20.968461191   390.9466   6   8   0.0972   0.1227   0.0950  -0.0735   0.0336  -0.0601   0.00    0.0
2026/01/15 02:33:30.000   67.857351573   20.968461188   390.9470   6   7   0.0971   0.1225   0.0949  -0.0733   0.0335  -0.0601   0.00    0.0
2026/01/15 02:34:00.000   67.857351564   20.968461219   390.9476   6  14   0.0971   0.1223   0.0949  -0.0732   0.0334  -0.0600   0.00    0.0
2026/01/15 02:34:30.000   67.857351566   20.968461215   390.9475   6   9   0.0970   0.1222   0.0949  -0.0731   0.0333  -0.0600   0.00    0.0
2026/01/15 02:35:00.000   67.857351564   20.968461202   390.9478   6  16   0.0969   0.1220   0.0949  -0.0730   0.0333  -0.0599   0.00    0.0
2026/01/15 02:35:30.000   67.857351562   20.968461214   390.9480   6  16   0.0968   0.1218   0.0948  -0.0728   0.0332  -0.0599   0.00    0.0
2026/01/15 02:36:00.000   67.857351557   20.968461238   390.9482   6  16   0.0968   0.1216   0.0948  -0.0727   0.0331  -0.0598   0.00    0.0
2026/01/15 02:36:30.000   67.857351551   20.968461244   390.9487   6  16   0.0967   0.1214   0.0948  -0.0726   0.0331  -0.0598   0.00    0.0
2026/01/15 02:37:00.000   67.857351548   20.968461269   390.9488   6   9   0.0966   0.1212   0.0948  -0.0725   0.0330  -0.0597   0.00    0.0
2026/01/15 02:37:30.000   67.857351548   20.968461266   390.9491   6  16   0.0965   0.1210   0.0947  -0.0723   0.0329  -0.0597   0.00    0.0
2026/01/15 02:38:00.000   67.857351550   20.968461261   390.9492   6  16   0.0965   0.1208   0.0947  -0.0722   0.0328  -0.0596   0.00    0.0
2026/01/15 02:38:30.000   67.857351548   20.968461263   390.9494   6  16   0.0964   0.1206   0.0947  -0.0721   0.0328  -0.0595   0.00    0.0
2026/01/15 02:39:00.000   67.857351544   20.968461277   390.9497   6  16   0.0963   0.1204   0.0947  -0.0719   0.0327  -0.0595   0.00    0.0
2026/01/15 02:39:30.000   67.857351544   20.968461274   390.9498   6  16   0.0962   0.1202   0.0946  -0.0718   0.0326  -0.0594   0.00    0.0
2026/01/15 02:40:00.000   67.857351542   20.968461258   390.9501   6  16   0.0961   0.1200   0.0946  -0.0716   0.0326  -0.0594   0.00    0.0
2026/01/15 02:40:30.000   67.857351541   20.968461257   390.9503   6  16   0.0960   0.1198   0.0945  -0.0715   0.0325  -0.0593   0.00    0.0
2026/01/15 02:41:00.000   67.857351538   20.968461281   390.9505   6  16   0.0960   0.1196   0.0945  -0.0713   0.0324  -0.0593   0.00    0.0
2026/01/15 02:41:30.000   67.857351534   20.968461287   390.9506   6  16   0.0959   0.1194   0.0945  -0.0712   0.0324  -0.0592   0.00    0.0
2026/01/15 02:42:00.000   67.857351529   20.968461307   390.9508   6  16   0.0958   0.1192   0.0944  -0.0710   0.0323  -0.0591   0.00    0.0
2026/01/15 02:42:30.000   67.857351532   20.968461296   390.9506   6  16   0.0957   0.1189   0.0944  -0.0709   0.0322  -0.0591   0.00    0.0
2026/01/15 02:43:00.000   67.857351529   20.968461290   390.9507   6  16   0.0956   0.1187   0.0943  -0.0707   0.0322  -0.0590   0.00    0.0
2026/01/15 02:43:30.000   67.857351526   20.968461290   390.9509   6  16   0.0955   0.1185   0.0943  -0.0705   0.0321  -0.0589   0.00    0.0
2026/01/15 02:44:00.000   67.857351526   20.968461304   390.9508   6  16   0.0953   0.1182   0.0942  -0.0703   0.0320  -0.0589   0.00    0.0
2026/01/15 02:44:30.000   67.857351521   20.968461314   390.9510   6  16   0.0952   0.1180   0.0942  -0.0702   0.0320  -0.0588   0.00    0.0
2026/01/15 02:45:00.000   67.857351512   20.968461340   390.9513   6  16   0.0951   0.1178   0.0941  -0.0700   0.0319  -0.0587   0.00    0.0
2026/01/15 02:45:30.000   67.857351513   20.968461337   390.9515   6  16   0.0950   0.1175   0.0941  -0.0698   0.0318  -0.0587   0.00    0.0
2026/01/15 02:46:00.000   67.857351516   20.968461345   390.9514   6  16   0.0949   0.1172   0.0940  -0.0696   0.0317  -0.0586   0.00    0.0
2026/01/15 02:46:30.000   67.857351523   20.968461299   390.9513   6  16   0.0947   0.1170   0.0939  -0.0694   0.0317  -0.0585   0.00    0.0
2026/01/15 02:47:00.000   67.857351525   20.968461305   390.9512   6  16   0.0946   0.1167   0.0938  -0.0692   0.0316  -0.0584   0.00    0.0
2026/01/15 02:47:30.000   67.857351531   20.968461289   390.9509   6  16   0.0945   0.1164   0.0938  -0.0690   0.0315  -0.0583   0.00    0.0
2026/01/15 02:48:00.000   67.857351532   20.968461275   390.9508   6  16   0.0943   0.1162   0.0937  -0.0687   0.0314  -0.0583   0.00    0.0
2026/01/15 02:48:30.000   67.857351534   20.968461241   390.9509   6  16   0.0942   0.1159   0.0936  -0.0685   0.0314  -0.0582   0.00    0.0
2026/01/15 02:49:00.000   67.857351537   20.968461231   390.9506   6  16   0.0940   0.1156   0.0935  -0.0683   0.0313  -0.0581   0.00    0.0
2026/01/15 02:49:30.000   67.857351544   20.968461199   390.9504   6  16   0.0939   0.1153   0.0934  -0.0681   0.0312  -0.0580   0.00    0.0
2026/01/15 02:50:00.000   67.857351546   20.968461186   390.9502   6  16   0.0937   0.1150   0.0933  -0.0678   0.0311  -0.0579   0.00    0.0
2026/01/15 02:50:30.000   67.857351542   20.968461191   390.9501   6  16   0.0936   0.1147   0.0932  -0.0676   0.0311  -0.0578   0.00    0.0
2026/01/15 02:51:00.000   67.857351543   20.968461178   390.9502   6  15   0.0934   0.1144   0.0931  -0.0673   0.0310  -0.0577   0.00    0.0
2026/01/15 02:51:30.000   67.857351545   20.968461166   390.9501   6  15   0.0932   0.1140   0.0930  -0.0670   0.0309  -0.0576   0.00    0.0
2026/01/15 02:52:00.000   67.857351549   20.968461137   390.9499   6  15   0.0930   0.1137   0.0929  -0.0668   0.0308  -0.0575   0.00    0.0
2026/01/15 02:52:30.000   67.857351557   20.968461093   390.9495   6  15   0.0929   0.1134   0.0928  -0.0665   0.0307  -0.0574   0.00    0.0
2026/01/15 02:53:00.000   67.857351556   20.968461083   390.9495   6  15   0.0927   0.1131   0.0927  -0.0663   0.0307  -0.0573   0.00    0.0
2026/01/15 02:53:30.000   67.857351566   20.968461061   390.9490   6  15   0.0926   0.1128   0.0926  -0.0661   0.0307  -0.0572   0.00    0.0
2026/01/15 02:54:00.000   67.857351573   20.968461040   390.9487   6  16   0.0924   0.1125   0.0925  -0.0658   0.0307  -0.0571   0.00    0.0
2026/01/15 02:54:30.000   67.857351579   20.968461043   390.9481   6  16   0.0922   0.1121   0.0923  -0.0656   0.0307  -0.0571   0.00    0.0
2026/01/15 02:55:00.000   67.857351579   20.968461053   390.9478   6  16   0.0921   0.1118   0.0922  -0.0653   0.0307  -0.0570   0.00    0.0
2026/01/15 02:55:30.000   67.857351585   20.968461038   390.9474   6  16   0.0919   0.1115   0.0921  -0.0651   0.0307  -0.0569   0.00    0.0
2026/01/15 02:56:00.000   67.857351590   20.968461022   390.9470   6  16   0.0917   0.1112   0.0919  -0.0648   0.0307  -0.0568   0.00    0.0
2026/01/15 02:56:30.000   67.857351596   20.968460997   390.9465   6  16   0.0915   0.1108   0.0918  -0.0646   0.0307  -0.0567   0.00    0.0
2026/01/15 02:57:00.000   67.857351603   20.968460975   390.9459   6  16   0.0913   0.1105   0.0916  -0.0643   0.0306  -0.0566   0.00    0.0
2026/01/15 02:57:30.000   67.857351605   20.968460984   390.9454   6  17   0.0911   0.1101   0.0915  -0.0641   0.0306  -0.0565   0.00    0.0
2026/01/15 02:58:00.000   67.857351611   20.968460957   390.9450   6  17   0.0909   0.1098   0.0913  -0.0638   0.0306  -0.0564   0.00    0.0
2026/01/15 02:58:30.000   67.857351616   20.968460968   390.9446   6  18   0.0907   0.1094   0.0912  -0.0635   0.0306  -0.0563   0.00    0.0
2026/01/15 02:59:00.000   67.857351618   20.968460977   390.9445   6  18   0.0905   0.1090   0.0910  -0.0632   0.0306  -0.0562   0.00    0.0
2026/01/15 02:59:30.000   67.857351629   20.968460941   390.9439   6  18   0.0903   0.1087   0.0908  -0.0629   0.0305  -0.0561   0.00    0.0
2026/01/15 03:00:00.000   67.857351630   20.968460929   390.9437   6  18   0.0901   0.1083   0.0907  -0.0626   0.0305  -0.0560   0.00    0.0
2026/01/15 03:00:30.000   67.857351637   20.968460896   390.9432   6  18   0.0899   0.1079   0.0905  -0.0623   0.0305  -0.0558   0.00    0.0
2026/01/15 03:01:00.000   67.857351643   20.968460858   390.9427   6  18   0.0896   0.1075   0.0903  -0.0620   0.0305  -0.0557   0.00    0.0
2026/01/15 03:01:30.000   67.857351646   20.968460854   390.9419   6  18   0.0894   0.1071   0.0901  -0.0617   0.0304  -0.0556   0.00    0.0
2026/01/15 03:02:00.000   67.857351657   20.968460817   390.9411   6  18   0.0892   0.1067   0.0899  -0.0613   0.0304  -0.0555   0.00    0.0
2026/01/15 03:02:30.000   67.857351667   20.968460800   390.9403   6  18   0.0889   0.1063   0.0897  -0.0610   0.0304  -0.0553   0.00    0.0
2026/01/15 03:03:00.000   67.857351675   20.968460799   390.9396   6  18   0.0887   0.1059   0.0895  -0.0607   0.0304  -0.0552   0.00    0.0
2026/01/15 03:03:30.000   67.857351682   20.968460763   390.9388   6  18   0.0884   0.1055   0.0893  -0.0603   0.0303  -0.0551   0.00    0.0
2026/01/15 03:04:00.000   67.857351685   20.968460745   390.9382   6  18   0.0882   0.1051   0.0891  -0.0600   0.0303  -0.0550   0.00    0.0
2026/01/15 03:04:30.000   67.857351693   20.968460725   390.9372   6  18   0.0879   0.1046   0.0888  -0.0596   0.0303  -0.0548   0.00    0.0
2026/01/15 03:05:00.000   67.857351700   20.968460708   390.9364   6  18   0.0876   0.1042   0.0886  -0.0593   0.0302  -0.0547   0.00    0.0
2026/01/15 03:05:30.000   67.857351713   20.968460663   390.9352   6  18   0.0874   0.1038   0.0884  -0.0589   0.0302  -0.0545   0.00    0.0
2026/01/15 03:06:00.000   67.857351721   20.968460647   390.9342   6  18   0.0871   0.1034   0.0881  -0.0586   0.0302  -0.0544   0.00    0.0
2026/01/15 03:06:30.000   67.857351729   20.968460637   390.9332   6  19   0.0868   0.1029   0.0879  -0.0582   0.0301  -0.0543   0.00    0.0
2026/01/15 03:07:00.000   67.857351742   20.968460598   390.9320   6  19   0.0865   0.1025   0.0877  -0.0578   0.0301  -0.0541   0.00    0.0
2026/01/15 03:07:30.000   67.857351753   20.968460565   390.9310   6  19   0.0863   0.1020   0.0874  -0.0575   0.0300  -0.0540   0.00    0.0
2026/01/15 03:08:00.000   67.857351760   20.968460541   390.9303   6  19   0.0860   0.1016   0.0872  -0.0572   0.0301  -0.0538   0.00    0.0
2026/01/15 03:08:30.000   67.857351762   20.968460537   390.9294   6  19   0.0858   0.1013   0.0869  -0.0569   0.0301  -0.0537   0.00    0.0
2026/01/15 03:09:00.000   67.857351772   20.968460512   390.9281   6  19   0.0855   0.1009   0.0867  -0.0566   0.0301  -0.0536   0.00    0.0
2026/01/15 03:09:30.000   67.857351784   20.968460478   390.9270   6  19   0.0853   0.1005   0.0864  -0.0563   0.0301  -0.0534   0.00    0.0
2026/01/15 03:10:00.000   67.857351794   20.968460451   390.9255   6  19   0.0850   0.1001   0.0861  -0.0560   0.0301  -0.0533   0.00    0.0
2026/01/15 03:10:30.000   67.857351805   20.968460427   390.9250   6  18   0.0847   0.0997   0.0859  -0.0557   0.0301  -0.0531   0.00    0.0
2026/01/15 03:11:00.000   67.857351816   20.968460396   390.9245   6  18   0.0845   0.0993   0.0857  -0.0554   0.0301  -0.0530   0.00    0.0
2026/01/15 03:11:30.000   67.857351822   20.968460378   390.9242   6  18   0.0842   0.0989   0.0854  -0.0550   0.0302  -0.0529   0.00    0.0
2026/01/15 03:12:00.000   67.857351832   20.968460356   390.9239   6  18   0.0839   0.0985   0.0852  -0.0547   0.0302  -0.0527   0.00    0.0
2026/01/15 03:12:30.000   67.857351844   20.968460325   390.9233   6  18   0.0836   0.0981   0.0849  -0.0544   0.0302  -0.0526   0.00    0.0
2026/01/15 03:13:00.000   67.857351854   20.968460305   390.9229   6  18   0.0833   0.0977   0.0847  -0.0541   0.0302  -0.0524   0.00    0.0
2026/01/15 03:13:30.000   67.857351864   20.968460280   390.9225   6  18   0.0831   0.0973   0.0844  -0.0537   0.0302  -0.0522   0.00    0.0
2026/01/15 03:14:00.000   67.857351875   20.968460237   390.9219   6  18   0.0828   0.0968   0.0842  -0.0534   0.0302  -0.0521   0.00    0.0
2026/01/15 03:14:30.000   67.857351890   20.968460206   390.9211   6  18   0.0825   0.0964   0.0839  -0.0531   0.0303  -0.0519   0.00    0.0
2026/01/15 03:15:00.000   67.857351904   20.968460170   390.9202   6  18   0.0822   0.0960   0.0836  -0.0527   0.0303  -0.0518   0.00    0.0
2026/01/15 03:15:30.000   67.857351916   20.968460145   390.9194   6  18   0.0819   0.0956   0.0834  -0.0524   0.0302  -0.0516   0.00    0.0
2026/01/15 03:16:00.000   67.857351927   20.968460103   390.9187   6  18   0.0816   0.0951   0.0831  -0.0521   0.0302  -0.0514   0.00    0.0
2026/01/15 03:16:30.000   67.857351943   20.968460053   390.9178   6  18   0.0813   0.0947   0.0828  -0.0517   0.0302  -0.0513   0.00    0.0
2026/01/15 03:17:00.000   67.857351960   20.968460005   390.9168   6  18   0.0810   0.0943   0.0825  -0.0514   0.0302  -0.0511   0.00    0.0
2026/01/15 03:17:30.000   67.857351977   20.968459960   390.9157   6  18   0.0807   0.0939   0.0823  -0.0510   0.0302  -0.0509   0.00    0.0
2026/01/15 03:18:00.000   67.857351990   20.968459935   390.9147   6  18   0.0803   0.0934   0.0820  -0.0507   0.0302  -0.0507   0.00    0.0
2026/01/15 03:28:30.000   67.857351944   20.968460133   390.9192   6   5   0.0796   0.0916   0.0817  -0.0495   0.0294  -0.0501   0.00    0.0
2026/01/15 03:29:30.000   67.857351937   20.968460148   390.9200   6   4   0.0795   0.0915   0.0816  -0.0494   0.0293  -0.0500   0.00    0.0
2026/01/15 03:30:30.000   67.857351936   20.968460149   390.9205   6   5   0.0794   0.0913   0.0816  -0.0493   0.0292  -0.0500   0.00    0.0
2026/01/15 03:31:00.000   67.857351935   20.968460146   390.9207   6   6   0.0794   0.0912   0.0816  -0.0492   0.0292  -0.0499   0.00    0.0
2026/01/15 03:32:00.000   67.857351935   20.968460173   390.9207   6   4   0.0793   0.0911   0.0816  -0.0491   0.0291  -0.0499   0.00    0.0
2026/01/15 03:32:30.000   67.857351932   20.968460194   390.9209   6  11   0.0793   0.0910   0.0816  -0.0491   0.0291  -0.0498   0.00    0.0
2026/01/15 03:33:30.000   67.857351928   20.968460217   390.9212   6  14   0.0793   0.0908   0.0815  -0.0490   0.0290  -0.0498   0.00    0.0
2026/01/15 03:34:00.000   67.857351928   20.968460223   390.9213   6  17   0.0792   0.0908   0.0815  -0.0489   0.0290  -0.0498   0.00    0.0
2026/01/15 03:34:30.000   67.857351924   20.968460243   390.9216   6  17   0.0792   0.0907   0.0815  -0.0489   0.0290  -0.0497   0.00    0.0
2026/01/15 03:35:00.000   67.857351923   20.968460250   390.9217   6  17   0.0792   0.0906   0.0815  -0.0488   0.0289  -0.0497   0.00    0.0
2026/01/15 03:35:30.000   67.857351921   20.968460264   390.9219   6  16   0.0791   0.0905   0.0815  -0.0488   0.0289  -0.0497   0.00    0.0
2026/01/15 03:36:00.000   67.857351917   20.968460278   390.9222   6  16   0.0791   0.0904   0.0815  -0.0487   0.0289  -0.0497   0.00    0.0
2026/01/15 03:36:30.000   67.857351910   20.968460286   390.9226   6  16   0.0791   0.0904   0.0815  -0.0487   0.0288  -0.0496   0.00    0.0
2026/01/15 03:37:00.000   67.857351906   20.968460308   390.9229   6  16   0.0790   0.0903   0.0814  -0.0486   0.0288  -0.0496   0.00    0.0
2026/01/15 03:37:30.000   67.857351905   20.968460324   390.9230   6  16   0.0790   0.0902   0.0814  -0.0485   0.0288  -0.0496   0.00    0.0
2026/01/15 03:38:00.000   67.857351904   20.968460328   390.9231   6  16   0.0789   0.0901   0.0814  -0.0485   0.0287  -0.0495   0.00    0.0
2026/01/15 03:38:30.000   67.857351904   20.968460337   390.9232   6  16   0.0789   0.0901   0.0814  -0.0484   0.0287  -0.0495   0.00    0.0
2026/01/15 03:39:00.000   67.857351899   20.968460359   390.9235   6  16   0.0789   0.0900   0.0814  -0.0484   0.0286  -0.0495   0.00    0.0
2026/01/15 03:39:30.000   67.857351901   20.968460353   390.9234   6  16   0.0788   0.0899   0.0813  -0.0483   0.0286  -0.0494   0.00    0.0
2026/01/15 03:40:00.000   67.857351895   20.968460371   390.9236   6  16   0.0788   0.0898   0.0813  -0.0483   0.0286  -0.0494   0.00    0.0
2026/01/15 03:40:30.000   67.857351888   20.968460388   390.9241   6  16   0.0788   0.0897   0.0813  -0.0482   0.0285  -0.0494   0.00    0.0
2026/01/15 03:41:00.000   67.857351889   20.968460393   390.9240   6  16   0.0787   0.0897   0.0813  -0.0482   0.0285  -0.0493   0.00    0.0
2026/01/15 03:41:30.000   67.857351889   20.968460402   390.9239   6  16   0.0787   0.0896   0.0812  -0.0481   0.0285  -0.0493   0.00    0.0
2026/01/15 03:42:00.000   67.857351886   20.968460416   390.9239   6  16   0.0786   0.0895   0.0812  -0.0481   0.0284  -0.0493   0.00    0.0
2026/01/15 03:42:30.000   67.857351884   20.968460428   390.9241   6  16   0.0786   0.0894   0.0812  -0.0480   0.0284  -0.0492   0.00    0.0
2026/01/15 03:43:00.000   67.857351885   20.968460434   390.9240   6  16   0.0785   0.0893   0.0811  -0.0479   0.0283  -0.0492   0.00    0.0
2026/01/15 03:43:30.000   67.857351887   20.968460430   390.9239   6  16   0.0785   0.0893   0.0811  -0.0479   0.0283  -0.0491   0.00    0.0
2026/01/15 03:44:00.000   67.857351888   20.968460427   390.9238   6  16   0.0784   0.0892   0.0811  -0.0478   0.0283  -0.0491   0.00    0.0
2026/01/15 03:44:30.000   67.857351893   20.968460430   390.9232   6  16   0.0784   0.0891   0.0810  -0.0477   0.0282  -0.0491   0.00    0.0
2026/01/15 03:45:00.000   67.857351894   20.968460428   390.9228   6  16   0.0783   0.0890   0.0810  -0.0477   0.0282  -0.0490   0.00    0.0
2026/01/15 03:45:30.000   67.857351897   20.968460417   390.9224   6  16   0.0783   0.0889   0.0809  -0.0476   0.0281  -0.0490   0.00    0.0
2026/01/15 03:46:00.000   67.857351900   20.968460421   390.9221   6  16   0.0782   0.0888   0.0809  -0.0475   0.0281  -0.0489   0.00    0.0
2026/01/15 03:46:30.000   67.857351903   20.968460444   390.9216   6  16   0.0782   0.0887   0.0808  -0.0475   0.0280  -0.0489   0.00    0.0
2026/01/15 03:47:00.000   67.857351907   20.968460440   390.9211   6  16   0.0781   0.0886   0.0808  -0.0474   0.0280  -0.0488   0.00    0.0
2026/01/15 03:47:30.000   67.857351909   20.968460433   390.9208   6  16   0.0780   0.0885   0.0807  -0.0473   0.0279  -0.0488   0.00    0.0
2026/01/15 03:48:00.000   67.857351912   20.968460422   390.9203   6  16   0.0780   0.0884   0.0807  -0.0472   0.0279  -0.0487   0.00    0.0
2026/01/15 03:48:30.000   67.857351914   20.968460412   390.9199   6  16   0.0779   0.0883   0.0806  -0.0471   0.0278  -0.0487   0.00    0.0
2026/01/15 03:49:00.000   67.857351923   20.968460399   390.9190   6  16   0.0778   0.0882   0.0805  -0.0471   0.0277  -0.0486   0.00    0.0
2026/01/15 03:49:30.000   67.857351927   20.968460410   390.9181   6  16   0.0778   0.0881   0.0805  -0.0470   0.0277  -0.0485   0.00    0.0
2026/01/15 03:50:00.000   67.857351931   20.968460414   390.9177   6  15   0.0777   0.0880   0.0804  -0.0469   0.0276  -0.0485   0.00    0.0
2026/01/15 03:50:30.000   67.857351938   20.968460405   390.9171   6  15   0.0776   0.0879   0.0803  -0.0468   0.0275  -0.0484   0.00    0.0
2026/01/15 03:51:00.000   67.857351944   20.968460399   390.9165   6  15   0.0775   0.0878   0.0803  -0.0467   0.0275  -0.0483   0.00    0.0
2026/01/15 03:51:30.000   67.857351951   20.968460395   390.9159   6  15   0.0774   0.0877   0.0802  -0.0466   0.0274  -0.0483   0.00    0.0
2026/01/15 03:52:00.000   67.857351956   20.968460407   390.9153   6  15   0.0773   0.0876   0.0801  -0.0465   0.0273  -0.0482   0.00    0.0
2026/01/15 03:52:30.000   67.857351959   20.968460396   390.9147   6  15   0.0773   0.0875   0.0800  -0.0464   0.0273  -0.0481   0.00    0.0
2026/01/15 03:53:00.000   67.857351964   20.968460406   390.9140   6  15   0.0772   0.0874   0.0800  -0.0463   0.0272  -0.0480   0.00    0.0
2026/01/15 03:53:30.000   67.857351971   20.968460401   390.9131   6  15   0.0771   0.0873   0.0799  -0.0462   0.0271  -0.0480   0.00    0.0
2026/01/15 03:54:00.000   67.857351981   20.968460396   390.9121   6  15   0.0770   0.0871   0.0798  -0.0461   0.0270  -0.0479   0.00    0.0
2026/01/15 03:54:30.000   67.857351988   20.968460390   390.9114   6  15   0.0769   0.0870   0.0797  -0.0460   0.0269  -0.0478   0.00    0.0
2026/01/15 03:55:00.000   67.857351995   20.968460375   390.9105   6  15   0.0767   0.0869   0.0796  -0.0458   0.0268  -0.0477   0.00    0.0
2026/01/15 03:55:30.000   67.857351999   20.968460369   390.9098   6  15   0.0766   0.0868   0.0795  -0.0457   0.0267  -0.0476   0.00    0.0
2026/01/15 03:56:00.000   67.857352005   20.968460361   390.9090   6  15   0.0765   0.0866   0.0794  -0.0456   0.0266  -0.0475   0.00    0.0
2026/01/15 03:56:30.000   67.857352011   20.968460354   390.9083   6  15   0.0764   0.0865   0.0793  -0.0455   0.0265  -0.0474   0.00    0.0
2026/01/15 03:57:00.000   67.857352016   20.968460357   390.9076   6  15   0.0763   0.0864   0.0791  -0.0453   0.0264  -0.0473   0.00    0.0
2026/01/15 03:57:30.000   67.857352026   20.968460343   390.9068   6  15   0.0762   0.0862   0.0790  -0.0452   0.0263  -0.0472   0.00    0.0
2026/01/15 03:58:00.000   67.857352034   20.968460320   390.9059   6  15   0.0760   0.0861   0.0789  -0.0450   0.0262  -0.0471   0.00    0.0
2026/01/15 03:58:30.000   67.857352043   20.968460296   390.9048   6  15   0.0759   0.0860   0.0788  -0.0449   0.0261  -0.0470   0.00    0.0
2026/01/15 03:59:00.000   67.857352051   20.968460285   390.9039   6  15   0.0758   0.0858   0.0787  -0.0448   0.0260  -0.0469   0.00    0.0
2026/01/15 03:59:30.000   67.857352060   20.968460275   390.9025   6  15   0.0756   0.0857   0.0785  -0.0446   0.0259  -0.0468   0.00    0.0
2026/01/15 04:00:00.000   67.857352071   20.968460268   390.9012   6  15   0.0755   0.0855   0.0784  -0.0445   0.0257  -0.0467   0.00    0.0
2026/01/15 04:00:30.000   67.857352079   20.968460256   390.9000   6  15   0.0753   0.0854   0.0782  -0.0443   0.0256  -0.0466   0.00    0.0
2026/01/15 04:01:00.000   67.857352092   20.968460231   390.8984   6  15   0.0752   0.0852   0.0781  -0.0441   0.0255  -0.0464   0.00    0.0
2026/01/15 04:01:30.000   67.857352103   20.968460216   390.8968   6  15   0.0750   0.0850   0.0780  -0.0440   0.0253  -0.0463   0.00    0.0
2026/01/15 04:51:00.000   67.857352087   20.968460685   390.8969   6   4   0.0728   0.0806   0.0770  -0.0409   0.0232  -0.0441   0.00    0.0
2026/01/15 04:52:30.000   67.857352082   20.968460705   390.8974   6   5   0.0728   0.0805   0.0769  -0.0408   0.0231  -0.0440   0.00    0.0
2026/01/15 04:53:00.000   67.857352084   20.968460707   390.8973   6  11   0.0727   0.0805   0.0769  -0.0408   0.0231  -0.0440   0.00    0.0
2026/01/15 04:53:30.000   67.857352085   20.968460708   390.8972   6  12   0.0727   0.0805   0.0769  -0.0407   0.0231  -0.0440   0.00    0.0
2026/01/15 04:54:00.000   67.857352085   20.968460714   390.8971   6  14   0.0727   0.0804   0.0769  -0.0407   0.0230  -0.0440   0.00    0.0
2026/01/15 04:54:30.000   67.857352083   20.968460726   390.8972   6  14   0.0727   0.0804   0.0769  -0.0407   0.0230  -0.0439   0.00    0.0
2026/01/15 04:55:00.000   67.857352084   20.968460735   390.8971   6  14   0.0726   0.0803   0.0769  -0.0407   0.0230  -0.0439   0.00    0.0
2026/01/15 04:55:30.000   67.857352083   20.968460745   390.8971   6  14   0.0726   0.0803   0.0769  -0.0406   0.0230  -0.0439   0.00    0.0
2026/01/15 04:56:00.000   67.857352085   20.968460749   390.8968   6  14   0.0726   0.0803   0.0768  -0.0406   0.0229  -0.0439   0.00    0.0
2026/01/15 05:01:00.000   67.857352097   20.968460733   390.8962   6   8   0.0724   0.0799   0.0767  -0.0403   0.0227  -0.0436   0.00    0.0
2026/01/15 05:01:30.000   67.857352097   20.968460729   390.8961   6  14   0.0723   0.0798   0.0767  -0.0403   0.0226  -0.0436   0.00    0.0
2026/01/15 05:02:00.000   67.857352100   20.968460726   390.8960   6  14   0.0723   0.0797   0.0767  -0.0402   0.0226  -0.0435   0.00    0.0
2026/01/15 05:02:30.000   67.857352102   20.968460725   390.8957   6  14   0.0722   0.0797   0.0767  -0.0402   0.0226  -0.0435   0.00    0.0
2026/01/15 05:03:00.000   67.857352101   20.968460732   390.8958   6  14   0.0722   0.0796   0.0767  -0.0402   0.0225  -0.0435   0.00    0.0
2026/01/15 05:03:30.000   67.857352102   20.968460732   390.8957   6  14   0.0722   0.0796   0.0766  -0.0401   0.0225  -0.0434   0.00    0.0
2026/01/15 05:04:00.000   67.857352106   20.968460734   390.8954   6  14   0.0721   0.0795   0.0766  -0.0401   0.0225  -0.0434   0.00    0.0
2026/01/15 05:04:30.000   67.857352108   20.968460732   390.8953   6  14   0.0721   0.0794   0.0766  -0.0400   0.0224  -0.0434   0.00    0.0
2026/01/15 05:05:00.000   67.857352111   20.968460721   390.8951   6  14   0.0720   0.0794   0.0766  -0.0400   0.0224  -0.0433   0.00    0.0
2026/01/15 05:05:30.000   67.857352111   20.968460729   390.8951   6  14   0.0720   0.0793   0.0765  -0.0399   0.0224  -0.0433   0.00    0.0
2026/01/15 05:06:00.000   67.857352114   20.968460734   390.8948   6  14   0.0720   0.0792   0.0765  -0.0399   0.0223  -0.0433   0.00    0.0
2026/01/15 05:06:30.000   67.857352116   20.968460728   390.8947   6  14   0.0719   0.0792   0.0765  -0.0398   0.0223  -0.0432   0.00    0.0
2026/01/15 05:07:00.000   67.857352119   20.968460728   390.8944   6  14   0.0719   0.0791   0.0765  -0.0398   0.0223  -0.0432   0.00    0.0
2026/01/15 05:07:30.000   67.857352120   20.968460730   390.8943   6  14   0.0718   0.0790   0.0765  -0.0397   0.0222  -0.0432   0.00    0.0
2026/01/15 05:08:00.000   67.857352121   20.968460729   390.8944   6  14   0.0718   0.0790   0.0764  -0.0397   0.0222  -0.0431   0.00    0.0
2026/01/15 05:08:30.000   67.857352121   20.968460727   390.8943   6  14   0.0717   0.0789   0.0764  -0.0396   0.0221  -0.0431   0.00    0.0
2026/01/15 05:09:00.000   67.857352124   20.968460713   390.8942   6  14   0.0717   0.0788   0.0764  -0.0396   0.0221  -0.0431   0.00    0.0
2026/01/15 05:09:30.000   67.857352125   20.968460713   390.8942   6  14   0.0716   0.0787   0.0763  -0.0395   0.0221  -0.0430   0.00    0.0
2026/01/15 05:10:00.000   67.857352126   20.968460726   390.8940   6  14   0.0716   0.0786   0.0763  -0.0395   0.0220  -0.0430   0.00    0.0
2026/01/15 05:10:30.000   67.857352129   20.968460723   390.8937   6  14   0.0715   0.0786   0.0763  -0.0394   0.0220  -0.0429   0.00    0.0
2026/01/15 05:11:00.000   67.857352131   20.968460720   390.8936   6  14   0.0715   0.0785   0.0763  -0.0394   0.0219  -0.0429   0.00    0.0
2026/01/15 05:11:30.000   67.857352131   20.968460719   390.8936   6  14   0.0714   0.0784   0.0762  -0.0393   0.0219  -0.0429   0.00    0.0
2026/01/15 05:12:00.000   67.857352134   20.968460716   390.8933   6  15   0.0714   0.0783   0.0762  -0.0392   0.0219  -0.0428   0.00    0.0
2026/01/15 05:12:30.000   67.857352133   20.968460713   390.8935   6  15   0.0713   0.0782   0.0762  -0.0392   0.0218  -0.0428   0.00    0.0
2026/01/15 05:13:00.000   67.857352133   20.968460731   390.8934   6  15   0.0712   0.0781   0.0761  -0.0391   0.0218  -0.0427   0.00    0.0
2026/01/15 05:13:30.000   67.857352131   20.968460734   390.8935   6  16   0.0712   0.0780   0.0761  -0.0390   0.0217  -0.0427   0.00    0.0
2026/01/15 05:14:00.000   67.857352130   20.968460746   390.8935   6  16   0.0711   0.0779   0.0761  -0.0389   0.0217  -0.0426   0.00    0.0
2026/01/15 05:14:30.000   67.857352128   20.968460756   390.8936   6  16   0.0710   0.0778   0.0760  -0.0388   0.0216  -0.0426   0.00    0.0
2026/01/15 05:15:00.000   67.857352131   20.968460758   390.8931   6  17   0.0710   0.0777   0.0760  -0.0388   0.0215  -0.0425   0.00    0.0
2026/01/15 05:15:30.000   67.857352131   20.968460745   390.8930   6  17   0.0709   0.0776   0.0759  -0.0387   0.0215  -0.0425   0.00    0.0
2026/01/15 05:16:00.000   67.857352133   20.968460745   390.8925   6  17   0.0708   0.0775   0.0759  -0.0386   0.0214  -0.0424   0.00    0.0
2026/01/15 05:16:30.000   67.857352136   20.968460726   390.8920   6  18   0.0707   0.0773   0.0758  -0.0385   0.0214  -0.0424   0.00    0.0
2026/01/15 05:17:00.000   67.857352140   20.968460716   390.8915   6  18   0.0707   0.0772   0.0758  -0.0384   0.0213  -0.0423   0.00    0.0
2026/01/15 05:17:30.000   67.857352139   20.968460713   390.8913   6  18   0.0706   0.0771   0.0757  -0.0383   0.0212  -0.0423   0.00    0.0
2026/01/15 06:54:00.000   67.857351499   20.968463129   390.9102   6   4   0.0652   0.0703   0.0739  -0.0308   0.0158  -0.0376   0.00    0.0
2026/01/15 06:54:30.000   67.857351496   20.968463135   390.9103   6   4   0.0652   0.0702   0.0739  -0.0307   0.0158  -0.0376   0.00    0.0
2026/01/15 06:55:00.000   67.857351492   20.968463143   390.9105   6   4   0.0651   0.0702   0.0739  -0.0307   0.0158  -0.0376   0.00    0.0
2026/01/15 06:55:30.000   67.857351489   20.968463150   390.9106   6   4   0.0651   0.0702   0.0739  -0.0307   0.0157  -0.0376   0.00    0.0
2026/01/15 06:56:00.000   67.857351486   20.968463168   390.9106   6   4   0.0651   0.0702   0.0739  -0.0307   0.0157  -0.0375   0.00    0.0
2026/01/15 06:56:30.000   67.857351483   20.968463172   390.9107   6   4   0.0651   0.0702   0.0738  -0.0306   0.0157  -0.0375   0.00    0.0
2026/01/15 06:57:00.000   67.857351481   20.968463180   390.9108   6   4   0.0650   0.0701   0.0738  -0.0306   0.0157  -0.0375   0.00    0.0
2026/01/15 06:57:30.000   67.857351478   20.968463188   390.9108   6   4   0.0650   0.0701   0.0738  -0.0306   0.0156  -0.0375   0.00    0.0
2026/01/15 06:58:00.000   67.857351475   20.968463197   390.9110   6   4   0.0650   0.0701   0.0738  -0.0305   0.0156  -0.0374   0.00    0.0
2026/01/15 06:58:30.000   67.857351473   20.968463203   390.9110   6   4   0.0650   0.0701   0.0738  -0.0305   0.0156  -0.0374   0.00    0.0
2026/01/15 06:59:00.000   67.857351468   20.968463217   390.9113   6   4   0.0650   0.0701   0.0738  -0.0305   0.0156  -0.0374   0.00    0.0
2026/01/15 06:59:30.000   67.857351467   20.968463224   390.9112   6   4   0.0649   0.0700   0.0738  -0.0304   0.0156  -0.0374   0.00    0.0
2026/01/15 07:00:00.000   67.857351465   20.968463234   390.9112   6   4   0.0649   0.0700   0.0738  -0.0304   0.0155  -0.0374   0.00    0.0
2026/01/15 07:00:30.000   67.857351465   20.968463246   390.9111   6   4   0.0649   0.0700   0.0738  -0.0304   0.0155  -0.0373   0.00    0.0
2026/01/15 07:01:00.000   67.857351460   20.968463257   390.9113   6   4   0.0649   0.0700   0.0738  -0.0303   0.0155  -0.0373   0.00    0.0
2026/01/15 07:01:30.000   67.857351459   20.968463264   390.9112   6   4   0.0649   0.0699   0.0738  -0.0303   0.0155  -0.0373   0.00    0.0
2026/01/15 07:02:00.000   67.857351456   20.968463281   390.9113   6   4   0.0648   0.0699   0.0738  -0.0303   0.0154  -0.0373   0.00    0.0
2026/01/15 07:02:30.000   67.857351454   20.968463288   390.9113   6   4   0.0648   0.0699   0.0738  -0.0302   0.0154  -0.0373   0.00    0.0
2026/01/15 07:03:00.000   67.857351451   20.968463294   390.9114   6   4   0.0648   0.0699   0.0737  -0.0302   0.0154  -0.0372   0.00    0.0
2026/01/15 07:03:30.000   67.857351448   20.968463301   390.9116   6   4   0.0648   0.0699   0.0737  -0.0302   0.0154  -0.0372   0.00    0.0
2026/01/15 07:04:00.000   67.857351444   20.968463308   390.9117   6   4   0.0647   0.0698   0.0737  -0.0301   0.0153  -0.0372   0.00    0.0
2026/01/15 07:04:30.000   67.857351443   20.968463315   390.9116   6   4   0.0647   0.0698   0.0737  -0.0301   0.0153  -0.0372   0.00    0.0
2026/01/15 07:05:00.000   67.857351440   20.968463329   390.9117   6   4   0.0647   0.0698   0.0737  -0.0301   0.0153  -0.0371   0.00    0.0
2026/01/15 07:05:30.000   67.857351436   20.968463343   390.9118   6   4   0.0647   0.0698   0.0737  -0.0300   0.0153  -0.0371   0.00    0.0
2026/01/15 07:16:30.000   67.857351375   20.968463531   390.9140   6  12   0.0642   0.0693   0.0735  -0.0293   0.0147  -0.0367   0.00    0.0
2026/01/15 07:17:00.000   67.857351373   20.968463537   390.9142   6  13   0.0642   0.0693   0.0735  -0.0293   0.0146  -0.0366   0.00    0.0
2026/01/15 07:17:30.000   67.857351369   20.968463544   390.9143   6  14   0.0642   0.0692   0.0735  -0.0293   0.0146  -0.0366   0.00    0.0
2026/01/15 07:18:00.000   67.857351369   20.968463552   390.9143   6  14   0.0642   0.0692   0.0735  -0.0292   0.0146  -0.0366   0.00    0.0
2026/01/15 07:18:30.000   67.857351366   20.968463563   390.9144   6  14   0.0641   0.0692   0.0735  -0.0292   0.0145  -0.0366   0.00    0.0
2026/01/15 07:19:00.000   67.857351366   20.968463572   390.9144   6  14   0.0641   0.0692   0.0735  -0.0292   0.0145  -0.0366   0.00    0.0
2026/01/15 07:19:30.000   67.857351362   20.968463578   390.9147   6  14   0.0641   0.0692   0.0735  -0.0291   0.0145  -0.0365   0.00    0.0
2026/01/15 07:20:00.000   67.857351362   20.968463582   390.9147   6  14   0.0641   0.0691   0.0735  -0.0291   0.0144  -0.0365   0.00    0.0
2026/01/15 07:20:30.000   67.857351358   20.968463600   390.9149   6  14   0.0641   0.0691   0.0735  -0.0291   0.0144  -0.0365   0.00    0.0
2026/01/15 07:21:00.000   67.857351355   20.968463615   390.9151   6  14   0.0640   0.0691   0.0735  -0.0290   0.0144  -0.0365   0.00    0.0
2026/01/15 07:21:30.000   67.857351350   20.968463619   390.9154   6  14   0.0640   0.0691   0.0734  -0.0290   0.0144  -0.0365   0.00    0.0
2026/01/15 07:22:00.000   67.857351348   20.968463630   390.9155   6  15   0.0640   0.0690   0.0734  -0.0290   0.0143  -0.0364   0.00    0.0
2026/01/15 07:22:30.000   67.857351346   20.968463638   390.9156   6  15   0.0640   0.0690   0.0734  -0.0289   0.0143  -0.0364   0.00    0.0
2026/01/15 07:23:00.000   67.857351342   20.968463647   390.9159   6  15   0.0639   0.0690   0.0734  -0.0289   0.0142  -0.0364   0.00    0.0
2026/01/15 07:23:30.000   67.857351341   20.968463659   390.9159   6  15   0.0639   0.0690   0.0734  -0.0289   0.0142  -0.0364   0.00    0.0
2026/01/15 07:24:00.000   67.857351340   20.968463663   390.9159   6  14   0.0639   0.0689   0.0734  -0.0288   0.0142  -0.0363   0.00    0.0
2026/01/15 07:24:30.000   67.857351335   20.968463673   390.9163   6  14   0.0639   0.0689   0.0734  -0.0288   0.0141  -0.0363   0.00    0.0
2026/01/15 07:25:00.000   67.857351332   20.968463684   390.9164   6  14   0.0638   0.0689   0.0734  -0.0288   0.0141  -0.0363   0.00    0.0
2026/01/15 07:25:30.000   67.857351330   20.968463687   390.9165   6  14   0.0638   0.0689   0.0733  -0.0287   0.0141  -0.0363   0.00    0.0
2026/01/15 07:26:00.000   67.857351329   20.968463695   390.9166   6  14   0.0638   0.0688   0.0733  -0.0287   0.0141  -0.0363   0.00    0.0
2026/01/15 07:26:30.000   67.857351326   20.968463708   390.9167   6  14   0.0638   0.0688   0.0733  -0.0286   0.0140  -0.0362   0.00    0.0
2026/01/15 07:27:00.000   67.857351326   20.968463710   390.9168   6  14   0.0637   0.0688   0.0733  -0.0286   0.0140  -0.0362   0.00    0.0
2026/01/15 07:27:30.000   67.857351325   20.968463713   390.9168   6  14   0.0637   0.0687   0.0733  -0.0286   0.0140  -0.0362   0.00    0.0
2026/01/15 07:28:00.000   67.857351324   20.968463719   390.9167   6  15   0.0637   0.0687   0.0733  -0.0285   0.0139  -0.0362   0.00    0.0
2026/01/15 07:28:30.000   67.857351325   20.968463719   390.9166   6  16   0.0636   0.0687   0.0732  -0.0285   0.0139  -0.0361   0.00    0.0
2026/01/15 07:29:00.000   67.857351326   20.968463722   390.9165   6  17   0.0636   0.0686   0.0732  -0.0285   0.0139  -0.0361   0.00    0.0
2026/01/15 07:29:30.000   67.857351326   20.968463731   390.9164   6  17   0.0636   0.0686   0.0732  -0.0284   0.0139  -0.0361   0.00    0.0
2026/01/15 07:30:00.000   67.857351326   20.968463735   390.9163   6  17   0.0635   0.0686   0.0732  -0.0284   0.0138  -0.0361   0.00    0.0
2026/01/15 07:30:30.000   67.857351321   20.968463749   390.9166   6  17   0.0635   0.0685   0.0731  -0.0283   0.0138  -0.0360   0.00    0.0
2026/01/15 07:31:00.000   67.857351321   20.968463749   390.9165   6  17   0.0634   0.0685   0.0731  -0.0283   0.0138  -0.0360   0.00    0.0
2026/01/15 07:31:30.000   67.857351322   20.968463751   390.9165   6  17   0.0634   0.0685   0.0731  -0.0283   0.0138  -0.0360   0.00    0.0
2026/01/15 07:32:00.000   67.857351321   20.968463759   390.9165   6  17   0.0633   0.0684   0.0730  -0.0282   0.0137  -0.0359   0.00    0.0
