% program   : RTKLIB ver.EX 2.5.0
% inp file  : C:\PPP_PROJECT\RTKLIB_work\runs\ZIM2_4C_20260508_102536\ZIM200CHE_R_20260150000_01D_30S_MO.rnx
% inp file  : C:\PPP_PROJECT\RTKLIB_work\runs\ZIM2_4C_20260508_102536\BRDC00IGS_R_20260150000_01D_MN.rnx
% inp file  : C:\PPP_PROJECT\RTKLIB_work\runs\ZIM2_4C_20260508_102536
% inp file  : C:\PPP_PROJECT\RTKLIB_work\runs\ZIM2_4C_20260508_102536
% inp file  : C:\PPP_PROJECT\RTKLIB_work\runs\ZIM2_4C_20260508_102536
% inp file  : C:\PPP_PROJECT\RTKLIB_work\runs\ZIM2_4C_20260508_102536\COD0OPSFIN_20260150000_01D_01H_GIM.INX
% obs start : 2026/01/15 00:00:00.0 GPST (week2401 345600.0s)
% obs end   : 2026/01/15 23:59:30.0 GPST (week2401 431970.0s)
% pos mode  : PPP Static
% freqs     : L1
% solution  : Forward
% elev mask : 15.0 deg
% dynamics  : on
% tidecorr  :
% ionos opt : IONEX TEC
% tropo opt : Saastamoinen
% ephemeris : Broadcast
% navi sys  : GPS
% antenna1  :                       ( 0.0000  0.0000  0.0000)
%
% (lat/lon/height=WGS84/ellipsoidal,Q=1:fix,2:float,3:sbas,4:dgps,5:single,6:ppp,ns=# of satellites)
%  GPST                  latitude(deg) longitude(deg)  height(m)   Q  ns   sdn(m)   sde(m)   sdu(m)  sdne(m)  sdeu(m)  sdun(m) age(s)  ratio
2026/01/15 00:00:00.000   46.877090555    7.465044533   952.5514   6  10   2.2925   1.7475   4.8785  -0.2260   1.0117   1.3981   0.00    0.0
2026/01/15 00:00:30.000   46.877090146    7.465044470   952.5331   6  10   1.6240   1.2372   3.4594  -0.1707   0.7158   0.9919   0.00    0.0
2026/01/15 00:01:00.000   46.877089696    7.465044322   952.5494   6  10   1.3273   1.0108   2.8280  -0.1476   0.5840   0.8112   0.00    0.0
2026/01/15 00:01:30.000   46.877089540    7.465044374   952.5702   6  10   1.1504   0.8758   2.4510  -0.1346   0.5052   0.7032   0.00    0.0
2026/01/15 00:02:00.000   46.877089252    7.465044471   952.5664   6  10   1.0297   0.7836   2.1935  -0.1262   0.4513   0.6295   0.00    0.0
2026/01/15 00:02:30.000   46.877088892    7.465044479   952.5504   6  10   0.9406   0.7156   2.0033  -0.1203   0.4114   0.5750   0.00    0.0
2026/01/15 00:03:00.000   46.877088640    7.465044498   952.5253   6  10   0.8714   0.6628   1.8555  -0.1159   0.3802   0.5327   0.00    0.0
2026/01/15 00:03:30.000   46.877088609    7.465044455   952.4868   6  10   0.8156   0.6202   1.7363  -0.1125   0.3551   0.4985   0.00    0.0
2026/01/15 00:04:00.000   46.877088635    7.465044371   952.4589   6  10   0.7694   0.5849   1.6375  -0.1098   0.3342   0.4702   0.00    0.0
2026/01/15 00:04:30.000   46.877088761    7.465044277   952.4545   6   9   0.7378   0.5563   1.5728  -0.1242   0.3019   0.4736   0.00    0.0
2026/01/15 00:05:00.000   46.877088901    7.465044249   952.4463   6   9   0.7100   0.5317   1.5158  -0.1334   0.2743   0.4737   0.00    0.0
2026/01/15 00:05:30.000   46.877089025    7.465044197   952.4505   6   9   0.6855   0.5101   1.4652  -0.1396   0.2503   0.4718   0.00    0.0
2026/01/15 00:06:00.000   46.877089108    7.465044087   952.4600   6   9   0.6634   0.4910   1.4197  -0.1438   0.2293   0.4684   0.00    0.0
2026/01/15 00:06:30.000   46.877089144    7.465043971   952.4652   6   9   0.6435   0.4740   1.3784  -0.1466   0.2105   0.4642   0.00    0.0
2026/01/15 00:07:00.000   46.877089150    7.465043876   952.4681   6   9   0.6254   0.4587   1.3407  -0.1486   0.1937   0.4594   0.00    0.0
2026/01/15 00:07:30.000   46.877089144    7.465043830   952.4689   6   9   0.6088   0.4448   1.3060  -0.1498   0.1785   0.4542   0.00    0.0
2026/01/15 00:08:00.000   46.877089161    7.465043803   952.4619   6   9   0.5936   0.4321   1.2740  -0.1505   0.1646   0.4487   0.00    0.0
2026/01/15 00:08:30.000   46.877089175    7.465043756   952.4610   6   9   0.5794   0.4205   1.2442  -0.1509   0.1519   0.4431   0.00    0.0
2026/01/15 00:09:00.000   46.877089186    7.465043690   952.4606   6   9   0.5663   0.4098   1.2165  -0.1509   0.1402   0.4375   0.00    0.0
2026/01/15 00:09:30.000   46.877089227    7.465043657   952.4466   6   8   0.5553   0.4003   1.1946  -0.1484   0.1222   0.4274   0.00    0.0
2026/01/15 00:10:00.000   46.877089252    7.465043672   952.4256   6   8   0.5450   0.3915   1.1739  -0.1461   0.1043   0.4178   0.00    0.0
2026/01/15 00:10:30.000   46.877089274    7.465043671   952.4052   6   8   0.5351   0.3832   1.1543  -0.1440   0.0859   0.4088   0.00    0.0
2026/01/15 00:11:00.000   46.877089297    7.465043641   952.3837   6   8   0.5258   0.3755   1.1357  -0.1420   0.0659   0.4001   0.00    0.0
2026/01/15 00:11:30.000   46.877089303    7.465043632   952.3589   6   8   0.5170   0.3682   1.1179  -0.1401   0.0413   0.3918   0.00    0.0
2026/01/15 00:12:00.000   46.877089295    7.465043632   952.3309   6   8   0.5085   0.3614   1.1009  -0.1384  -0.0241   0.3839   0.00    0.0
2026/01/15 00:12:30.000   46.877089294    7.465043634   952.3027   6   8   0.5004   0.3549   1.0847  -0.1367  -0.0507   0.3763   0.00    0.0
2026/01/15 00:13:00.000   46.877089281    7.465043621   952.2777   6   8   0.4927   0.3488   1.0691  -0.1352  -0.0656   0.3689   0.00    0.0
2026/01/15 00:13:30.000   46.877089260    7.465043618   952.2549   6   8   0.4854   0.3430   1.0541  -0.1337  -0.0763   0.3619   0.00    0.0
2026/01/15 00:14:00.000   46.877089222    7.465043603   952.2314   6   8   0.4783   0.3374   1.0397  -0.1323  -0.0845   0.3550   0.00    0.0
2026/01/15 00:14:30.000   46.877089194    7.465043571   952.2112   6   8   0.4715   0.3322   1.0258  -0.1310  -0.0910   0.3484   0.00    0.0
2026/01/15 00:15:00.000   46.877089176    7.465043543   952.1947   6   8   0.4650   0.3272   1.0124  -0.1297  -0.0963   0.3420   0.00    0.0
2026/01/15 00:15:30.000   46.877089148    7.465043516   952.1731   6   8   0.4587   0.3224   0.9994  -0.1286  -0.1007   0.3358   0.00    0.0
2026/01/15 00:16:00.000   46.877089124    7.465043473   952.1540   6   8   0.4526   0.3178   0.9868  -0.1274  -0.1044   0.3298   0.00    0.0
2026/01/15 00:16:30.000   46.877089089    7.465043419   952.1369   6   8   0.4468   0.3134   0.9747  -0.1263  -0.1074   0.3239   0.00    0.0
2026/01/15 00:17:00.000   46.877089049    7.465043376   952.1202   6   8   0.4412   0.3092   0.9628  -0.1253  -0.1100   0.3182   0.00    0.0
2026/01/15 00:17:30.000   46.877089012    7.465043346   952.1047   6   8   0.4357   0.3052   0.9514  -0.1243  -0.1121   0.3126   0.00    0.0
2026/01/15 00:18:00.000   46.877088979    7.465043324   952.0907   6   8   0.4305   0.3013   0.9402  -0.1233  -0.1139   0.3072   0.00    0.0
2026/01/15 00:18:30.000   46.877088954    7.465043315   952.0770   6   8   0.4254   0.2976   0.9294  -0.1224  -0.1154   0.3018   0.00    0.0
2026/01/15 00:19:00.000   46.877088940    7.465043318   952.0648   6   8   0.4205   0.2940   0.9188  -0.1215  -0.1166   0.2966   0.00    0.0
2026/01/15 00:19:30.000   46.877088937    7.465043314   952.0518   6   8   0.4157   0.2905   0.9085  -0.1207  -0.1176   0.2915   0.00    0.0
2026/01/15 00:20:00.000   46.877088934    7.465043288   952.0389   6   8   0.4111   0.2872   0.8984  -0.1198  -0.1184   0.2865   0.00    0.0
2026/01/15 00:20:30.000   46.877088918    7.465043265   952.0243   6   8   0.4066   0.2840   0.8886  -0.1190  -0.1190   0.2816   0.00    0.0
2026/01/15 00:21:00.000   46.877088893    7.465043256   952.0080   6   8   0.4022   0.2808   0.8790  -0.1183  -0.1194   0.2768   0.00    0.0
2026/01/15 00:21:30.000   46.877088870    7.465043240   951.9908   6   8   0.3980   0.2778   0.8696  -0.1175  -0.1197   0.2720   0.00    0.0
2026/01/15 00:22:00.000   46.877088861    7.465043229   951.9769   6   8   0.3938   0.2749   0.8605  -0.1168  -0.1199   0.2674   0.00    0.0
2026/01/15 00:22:30.000   46.877088852    7.465043226   951.9658   6   8   0.3898   0.2721   0.8515  -0.1161  -0.1199   0.2628   0.00    0.0
2026/01/15 00:23:00.000   46.877088837    7.465043226   951.9547   6   8   0.3859   0.2693   0.8427  -0.1154  -0.1199   0.2583   0.00    0.0
2026/01/15 00:23:30.000   46.877088823    7.465043219   951.9470   6   8   0.3821   0.2667   0.8341  -0.1148  -0.1197   0.2538   0.00    0.0
2026/01/15 00:24:00.000   46.877088812    7.465043203   951.9401   6   8   0.3784   0.2641   0.8256  -0.1141  -0.1195   0.2494   0.00    0.0
2026/01/15 00:24:30.000   46.877088806    7.465043188   951.9336   6   8   0.3748   0.2616   0.8173  -0.1135  -0.1192   0.2451   0.00    0.0
2026/01/15 00:25:00.000   46.877088816    7.465043177   951.9261   6   8   0.3713   0.2592   0.8092  -0.1129  -0.1189   0.2408   0.00    0.0
2026/01/15 00:25:30.000   46.877088829    7.465043164   951.9166   6   8   0.3678   0.2568   0.8012  -0.1123  -0.1184   0.2366   0.00    0.0
2026/01/15 00:26:00.000   46.877088825    7.465043142   951.9057   6   8   0.3645   0.2545   0.7934  -0.1117  -0.1179   0.2324   0.00    0.0
2026/01/15 00:26:30.000   46.877088827    7.465043113   951.8958   6   8   0.3612   0.2522   0.7857  -0.1112  -0.1174   0.2283   0.00    0.0
2026/01/15 00:27:00.000   46.877088839    7.465043083   951.8888   6   8   0.3580   0.2501   0.7782  -0.1106  -0.1168   0.2242   0.00    0.0
2026/01/15 00:27:30.000   46.877088856    7.465043055   951.8830   6   8   0.3549   0.2479   0.7707  -0.1101  -0.1162   0.2201   0.00    0.0
2026/01/15 00:28:00.000   46.877088870    7.465043028   951.8774   6   8   0.3518   0.2459   0.7634  -0.1096  -0.1156   0.2161   0.00    0.0
2026/01/15 00:28:30.000   46.877088881    7.465042997   951.8710   6   8   0.3488   0.2439   0.7562  -0.1090  -0.1149   0.2122   0.00    0.0
2026/01/15 00:29:00.000   46.877088889    7.465042972   951.8632   6   8   0.3459   0.2419   0.7492  -0.1086  -0.1142   0.2082   0.00    0.0
2026/01/15 00:29:30.000   46.877088898    7.465042945   951.8561   6   8   0.3430   0.2400   0.7422  -0.1081  -0.1134   0.2043   0.00    0.0
2026/01/15 00:30:00.000   46.877088910    7.465042917   951.8500   6   8   0.3402   0.2381   0.7354  -0.1076  -0.1126   0.2005   0.00    0.0
2026/01/15 00:30:30.000   46.877088919    7.465042888   951.8459   6   8   0.3375   0.2363   0.7286  -0.1071  -0.1118   0.1967   0.00    0.0
2026/01/15 00:31:00.000   46.877088925    7.465042863   951.8448   6   8   0.3348   0.2345   0.7220  -0.1067  -0.1110   0.1929   0.00    0.0
2026/01/15 00:31:30.000   46.877088937    7.465042839   951.8452   6   8   0.3322   0.2328   0.7155  -0.1062  -0.1102   0.1891   0.00    0.0
2026/01/15 00:32:00.000   46.877088957    7.465042813   951.8462   6   8   0.3296   0.2311   0.7090  -0.1058  -0.1093   0.1853   0.00    0.0
2026/01/15 00:32:30.000   46.877088979    7.465042787   951.8487   6   8   0.3271   0.2294   0.7027  -0.1054  -0.1084   0.1816   0.00    0.0
2026/01/15 00:33:00.000   46.877088986    7.465042763   951.8476   6   7   0.3246   0.2278   0.6968  -0.1050  -0.1076   0.1783   0.00    0.0
2026/01/15 00:33:30.000   46.877088987    7.465042734   951.8454   6   7   0.3223   0.2262   0.6910  -0.1046  -0.1068   0.1751   0.00    0.0
2026/01/15 00:34:00.000   46.877089012    7.465042704   951.8485   6   8   0.3199   0.2246   0.6849  -0.1042  -0.1059   0.1714   0.00    0.0
2026/01/15 00:34:30.000   46.877089046    7.465042681   951.8522   6   8   0.3176   0.2231   0.6789  -0.1038  -0.1049   0.1677   0.00    0.0
2026/01/15 00:35:00.000   46.877089084    7.465042659   951.8580   6   8   0.3153   0.2216   0.6729  -0.1034  -0.1040   0.1640   0.00    0.0
2026/01/15 00:35:30.000   46.877089130    7.465042638   951.8639   6   8   0.3130   0.2201   0.6671  -0.1030  -0.1030   0.1604   0.00    0.0
2026/01/15 00:36:00.000   46.877089172    7.465042615   951.8681   6   8   0.3108   0.2187   0.6613  -0.1026  -0.1021   0.1568   0.00    0.0
2026/01/15 00:36:30.000   46.877089213    7.465042588   951.8728   6   8   0.3086   0.2173   0.6556  -0.1023  -0.1011   0.1532   0.00    0.0
2026/01/15 00:37:00.000   46.877089253    7.465042554   951.8814   6   8   0.3065   0.2159   0.6500  -0.1019  -0.1001   0.1496   0.00    0.0
2026/01/15 00:37:30.000   46.877089277    7.465042520   951.8845   6   7   0.3045   0.2146   0.6449  -0.1016  -0.0993   0.1465   0.00    0.0
2026/01/15 00:38:00.000   46.877089318    7.465042484   951.8923   6   8   0.3024   0.2133   0.6394  -0.1013  -0.0983   0.1429   0.00    0.0
2026/01/15 00:38:30.000   46.877089363    7.465042460   951.8975   6   8   0.3004   0.2120   0.6340  -0.1009  -0.0973   0.1393   0.00    0.0
2026/01/15 00:39:00.000   46.877089410    7.465042442   951.9012   6   8   0.2984   0.2107   0.6287  -0.1006  -0.0963   0.1357   0.00    0.0
2026/01/15 00:39:30.000   46.877089453    7.465042422   951.9072   6   8   0.2965   0.2095   0.6235  -0.1003  -0.0953   0.1321   0.00    0.0
2026/01/15 00:40:00.000   46.877089489    7.465042392   951.9145   6   8   0.2946   0.2083   0.6183  -0.0999  -0.0943   0.1285   0.00    0.0
2026/01/15 00:40:30.000   46.877089531    7.465042360   951.9226   6   8   0.2927   0.2071   0.6132  -0.0996  -0.0933   0.1250   0.00    0.0
2026/01/15 00:41:00.000   46.877089579    7.465042331   951.9312   6   8   0.2908   0.2059   0.6082  -0.0993  -0.0923   0.1214   0.00    0.0
2026/01/15 00:41:30.000   46.877089632    7.465042299   951.9383   6   8   0.2890   0.2047   0.6032  -0.0990  -0.0914   0.1178   0.00    0.0
2026/01/15 00:42:00.000   46.877089682    7.465042257   951.9458   6   8   0.2873   0.2036   0.5983  -0.0987  -0.0904   0.1142   0.00    0.0
2026/01/15 00:42:30.000   46.877089730    7.465042214   951.9553   6   8   0.2855   0.2025   0.5935  -0.0984  -0.0894   0.1105   0.00    0.0
2026/01/15 00:43:00.000   46.877089779    7.465042178   951.9647   6   8   0.2838   0.2014   0.5887  -0.0982  -0.0884   0.1069   0.00    0.0
2026/01/15 00:43:30.000   46.877089824    7.465042146   951.9737   6   8   0.2821   0.2003   0.5840  -0.0979  -0.0874   0.1032   0.00    0.0
2026/01/15 00:44:00.000   46.877089870    7.465042114   951.9824   6   8   0.2804   0.1993   0.5793  -0.0976  -0.0864   0.0995   0.00    0.0
2026/01/15 00:44:30.000   46.877089914    7.465042072   951.9912   6   8   0.2788   0.1982   0.5748  -0.0973  -0.0854   0.0958   0.00    0.0
2026/01/15 00:45:00.000   46.877089958    7.465042023   952.0006   6   8   0.2772   0.1972   0.5702  -0.0971  -0.0845   0.0920   0.00    0.0
2026/01/15 00:45:30.000   46.877090008    7.465041973   952.0116   6   8   0.2756   0.1962   0.5658  -0.0968  -0.0835   0.0882   0.00    0.0
2026/01/15 00:46:00.000   46.877090048    7.465041923   952.0230   6   8   0.2740   0.1952   0.5614  -0.0966  -0.0825   0.0843   0.00    0.0
2026/01/15 00:46:30.000   46.877090086    7.465041873   952.0345   6   8   0.2725   0.1943   0.5570  -0.0963  -0.0816   0.0804   0.00    0.0
2026/01/15 00:47:00.000   46.877090126    7.465041823   952.0469   6   8   0.2710   0.1933   0.5527  -0.0961  -0.0806   0.0763   0.00    0.0
2026/01/15 00:47:30.000   46.877090181    7.465041769   952.0600   6   8   0.2695   0.1924   0.5485  -0.0958  -0.0796   0.0722   0.00    0.0
2026/01/15 00:48:00.000   46.877090243    7.465041714   952.0718   6   8   0.2680   0.1915   0.5443  -0.0956  -0.0787   0.0679   0.00    0.0
2026/01/15 00:48:30.000   46.877090307    7.465041667   952.0814   6   8   0.2666   0.1906   0.5402  -0.0954  -0.0777   0.0634   0.00    0.0
2026/01/15 00:49:00.000   46.877090374    7.465041630   952.0904   6   8   0.2652   0.1897   0.5361  -0.0951  -0.0768   0.0588   0.00    0.0
2026/01/15 00:49:30.000   46.877090436    7.465041589   952.1006   6   8   0.2638   0.1888   0.5321  -0.0949  -0.0758   0.0539   0.00    0.0
2026/01/15 00:50:00.000   46.877090494    7.465041541   952.1125   6   8   0.2624   0.1879   0.5281  -0.0947  -0.0749   0.0487   0.00    0.0
2026/01/15 00:50:30.000   46.877090548    7.465041488   952.1259   6   8   0.2611   0.1871   0.5242  -0.0945  -0.0740   0.0431   0.00    0.0
2026/01/15 00:51:00.000   46.877090605    7.465041431   952.1389   6   8   0.2597   0.1863   0.5203  -0.0943  -0.0731   0.0367   0.00    0.0
2026/01/15 00:51:30.000   46.877090661    7.465041378   952.1509   6   8   0.2584   0.1854   0.5165  -0.0940  -0.0721   0.0293   0.00    0.0
2026/01/15 00:52:00.000   46.877090713    7.465041330   952.1614   6   8   0.2572   0.1846   0.5128  -0.0938  -0.0712   0.0196   0.00    0.0
2026/01/15 00:52:30.000   46.877090764    7.465041281   952.1715   6   8   0.2559   0.1838   0.5090  -0.0936  -0.0703  -0.0089   0.00    0.0
2026/01/15 00:53:00.000   46.877090816    7.465041228   952.1815   6   8   0.2546   0.1831   0.5054  -0.0934  -0.0694  -0.0230   0.00    0.0
2026/01/15 00:53:30.000   46.877090874    7.465041171   952.1922   6   8   0.2534   0.1823   0.5017  -0.0932  -0.0685  -0.0310   0.00    0.0
2026/01/15 00:54:00.000   46.877090935    7.465041114   952.2043   6   8   0.2522   0.1815   0.4982  -0.0931  -0.0676  -0.0372   0.00    0.0
2026/01/15 00:54:30.000   46.877090990    7.465041062   952.2178   6   8   0.2510   0.1808   0.4946  -0.0929  -0.0667  -0.0424   0.00    0.0
2026/01/15 00:55:00.000   46.877091037    7.465041013   952.2310   6   8   0.2498   0.1801   0.4911  -0.0927  -0.0658  -0.0469   0.00    0.0
2026/01/15 00:55:30.000   46.877091088    7.465040968   952.2436   6   8   0.2486   0.1793   0.4877  -0.0925  -0.0650  -0.0508   0.00    0.0
2026/01/15 00:56:00.000   46.877091146    7.465040925   952.2567   6   8   0.2475   0.1786   0.4843  -0.0923  -0.0641  -0.0544   0.00    0.0
2026/01/15 00:56:30.000   46.877091211    7.465040881   952.2692   6   8   0.2464   0.1779   0.4809  -0.0921  -0.0632  -0.0576   0.00    0.0
2026/01/15 00:57:00.000   46.877091275    7.465040833   952.2818   6   8   0.2453   0.1772   0.4776  -0.0920  -0.0624  -0.0606   0.00    0.0
2026/01/15 00:57:30.000   46.877091335    7.465040783   952.2943   6   8   0.2442   0.1765   0.4743  -0.0918  -0.0615  -0.0634   0.00    0.0
2026/01/15 00:58:00.000   46.877091392    7.465040735   952.3058   6   8   0.2431   0.1759   0.4711  -0.0916  -0.0607  -0.0659   0.00    0.0
2026/01/15 00:58:30.000   46.877091444    7.465040690   952.3161   6   8   0.2420   0.1752   0.4679  -0.0915  -0.0599  -0.0683   0.00    0.0
2026/01/15 00:59:00.000   46.877091504    7.465040641   952.3270   6   8   0.2410   0.1746   0.4647  -0.0913  -0.0590  -0.0706   0.00    0.0
2026/01/15 00:59:30.000   46.877091561    7.465040592   952.3369   6   8   0.2399   0.1739   0.4616  -0.0911  -0.0582  -0.0727   0.00    0.0
2026/01/15 01:00:00.000   46.877091594    7.465040580   952.3438   6   8   0.2388   0.1732   0.4583  -0.0908  -0.0572  -0.0747   0.00    0.0
2026/01/15 01:00:30.000   46.877091622    7.465040564   952.3513   6   8   0.2377   0.1725   0.4551  -0.0905  -0.0562  -0.0766   0.00    0.0
2026/01/15 01:01:00.000   46.877091646    7.465040544   952.3604   6   8   0.2366   0.1719   0.4519  -0.0902  -0.0552  -0.0784   0.00    0.0
2026/01/15 01:01:30.000   46.877091668    7.465040528   952.3699   6   8   0.2355   0.1712   0.4488  -0.0899  -0.0542  -0.0802   0.00    0.0
2026/01/15 01:02:00.000   46.877091694    7.465040518   952.3794   6   8   0.2345   0.1706   0.4457  -0.0896  -0.0532  -0.0818   0.00    0.0
2026/01/15 01:02:30.000   46.877091727    7.465040509   952.3884   6   8   0.2334   0.1699   0.4427  -0.0893  -0.0522  -0.0833   0.00    0.0
2026/01/15 01:03:00.000   46.877091766    7.465040501   952.3977   6   8   0.2324   0.1693   0.4397  -0.0890  -0.0513  -0.0848   0.00    0.0
2026/01/15 01:03:30.000   46.877091806    7.465040491   952.4096   6   8   0.2314   0.1687   0.4367  -0.0887  -0.0503  -0.0862   0.00    0.0
2026/01/15 01:04:00.000   46.877091845    7.465040481   952.4219   6   8   0.2304   0.1681   0.4338  -0.0885  -0.0493  -0.0875   0.00    0.0
2026/01/15 01:04:30.000   46.877091877    7.465040475   952.4321   6   8   0.2294   0.1675   0.4309  -0.0882  -0.0484  -0.0887   0.00    0.0
2026/01/15 01:05:00.000   46.877091909    7.465040473   952.4425   6   8   0.2285   0.1669   0.4281  -0.0880  -0.0474  -0.0899   0.00    0.0
2026/01/15 01:05:30.000   46.877091945    7.465040473   952.4525   6   8   0.2275   0.1663   0.4253  -0.0877  -0.0465  -0.0911   0.00    0.0
2026/01/15 01:06:00.000   46.877091983    7.465040468   952.4632   6   8   0.2266   0.1657   0.4225  -0.0875  -0.0456  -0.0921   0.00    0.0
2026/01/15 01:06:30.000   46.877092024    7.465040460   952.4750   6   8   0.2257   0.1651   0.4198  -0.0872  -0.0446  -0.0932   0.00    0.0
2026/01/15 01:07:00.000   46.877092063    7.465040447   952.4862   6   8   0.2248   0.1646   0.4171  -0.0870  -0.0437  -0.0941   0.00    0.0
2026/01/15 01:07:30.000   46.877092098    7.465040434   952.4973   6   8   0.2239   0.1640   0.4144  -0.0868  -0.0428  -0.0951   0.00    0.0
2026/01/15 01:08:00.000   46.877092130    7.465040429   952.5087   6   8   0.2230   0.1635   0.4118  -0.0866  -0.0419  -0.0960   0.00    0.0
2026/01/15 01:08:30.000   46.877092167    7.465040427   952.5193   6   8   0.2222   0.1629   0.4092  -0.0863  -0.0409  -0.0968   0.00    0.0
2026/01/15 01:09:00.000   46.877092203    7.465040421   952.5282   6   8   0.2213   0.1624   0.4067  -0.0861  -0.0400  -0.0976   0.00    0.0
2026/01/15 01:09:30.000   46.877092236    7.465040411   952.5379   6   8   0.2205   0.1619   0.4041  -0.0859  -0.0391  -0.0984   0.00    0.0
2026/01/15 01:10:00.000   46.877092267    7.465040398   952.5494   6   8   0.2196   0.1614   0.4017  -0.0857  -0.0382  -0.0991   0.00    0.0
2026/01/15 01:10:30.000   46.877092288    7.465040380   952.5549   6   7   0.2190   0.1609   0.3996  -0.0857  -0.0381  -0.0991   0.00    0.0
2026/01/15 01:11:00.000   46.877092313    7.465040364   952.5607   6   7   0.2183   0.1605   0.3976  -0.0857  -0.0380  -0.0992   0.00    0.0
2026/01/15 01:11:30.000   46.877092339    7.465040349   952.5661   6   7   0.2177   0.1600   0.3956  -0.0857  -0.0378  -0.0992   0.00    0.0
2026/01/15 01:12:00.000   46.877092367    7.465040336   952.5702   6   7   0.2171   0.1596   0.3936  -0.0857  -0.0377  -0.0993   0.00    0.0
2026/01/15 01:12:30.000   46.877092404    7.465040323   952.5735   6   8   0.2162   0.1591   0.3914  -0.0855  -0.0385  -0.0985   0.00    0.0
2026/01/15 01:13:00.000   46.877092449    7.465040308   952.5767   6   8   0.2153   0.1586   0.3891  -0.0852  -0.0393  -0.0978   0.00    0.0
2026/01/15 01:13:30.000   46.877092491    7.465040284   952.5795   6   8   0.2145   0.1581   0.3869  -0.0849  -0.0400  -0.0971   0.00    0.0
2026/01/15 01:14:00.000   46.877092530    7.465040259   952.5815   6   8   0.2136   0.1576   0.3847  -0.0846  -0.0407  -0.0964   0.00    0.0
2026/01/15 01:14:30.000   46.877092573    7.465040238   952.5846   6   8   0.2128   0.1571   0.3826  -0.0843  -0.0413  -0.0958   0.00    0.0
2026/01/15 01:15:00.000   46.877092614    7.465040220   952.5894   6   8   0.2120   0.1566   0.3804  -0.0840  -0.0419  -0.0951   0.00    0.0
2026/01/15 01:15:30.000   46.877092654    7.465040204   952.5938   6   8   0.2111   0.1561   0.3783  -0.0837  -0.0425  -0.0945   0.00    0.0
2026/01/15 01:16:00.000   46.877092698    7.465040192   952.5989   6   8   0.2103   0.1557   0.3762  -0.0834  -0.0430  -0.0939   0.00    0.0
2026/01/15 01:16:30.000   46.877092728    7.465040178   952.6024   6   9   0.2093   0.1552   0.3740  -0.0829  -0.0432  -0.0938   0.00    0.0
2026/01/15 01:17:00.000   46.877092762    7.465040159   952.6055   6   9   0.2083   0.1547   0.3718  -0.0825  -0.0434  -0.0937   0.00    0.0
2026/01/15 01:17:30.000   46.877092785    7.465040142   952.6057   6   8   0.2075   0.1543   0.3700  -0.0821  -0.0434  -0.0932   0.00    0.0
2026/01/15 01:18:00.000   46.877092814    7.465040126   952.6059   6   8   0.2066   0.1538   0.3681  -0.0816  -0.0433  -0.0927   0.00    0.0
2026/01/15 01:18:30.000   46.877092840    7.465040115   952.6071   6   8   0.2057   0.1534   0.3663  -0.0811  -0.0433  -0.0922   0.00    0.0
2026/01/15 01:19:00.000   46.877092869    7.465040098   952.6074   6   8   0.2048   0.1529   0.3644  -0.0807  -0.0433  -0.0917   0.00    0.0
2026/01/15 01:19:30.000   46.877092898    7.465040081   952.6082   6   8   0.2040   0.1525   0.3626  -0.0802  -0.0432  -0.0912   0.00    0.0
2026/01/15 01:20:00.000   46.877092923    7.465040069   952.6098   6   8   0.2031   0.1520   0.3609  -0.0797  -0.0431  -0.0908   0.00    0.0
2026/01/15 01:20:30.000   46.877092949    7.465040053   952.6122   6   8   0.2022   0.1516   0.3591  -0.0793  -0.0431  -0.0903   0.00    0.0
2026/01/15 01:21:00.000   46.877092979    7.465040035   952.6141   6   8   0.2014   0.1512   0.3574  -0.0788  -0.0430  -0.0899   0.00    0.0
2026/01/15 01:21:30.000   46.877093017    7.465040014   952.6150   6   8   0.2005   0.1507   0.3557  -0.0783  -0.0430  -0.0895   0.00    0.0
2026/01/15 01:22:00.000   46.877093053    7.465039997   952.6153   6   8   0.1997   0.1503   0.3540  -0.0779  -0.0429  -0.0891   0.00    0.0
2026/01/15 01:22:30.000   46.877093085    7.465039980   952.6149   6   8   0.1989   0.1499   0.3523  -0.0774  -0.0428  -0.0888   0.00    0.0
2026/01/15 01:23:00.000   46.877093119    7.465039960   952.6141   6   8   0.1980   0.1495   0.3506  -0.0770  -0.0427  -0.0884   0.00    0.0
2026/01/15 01:23:30.000   46.877093156    7.465039945   952.6143   6   8   0.1972   0.1491   0.3490  -0.0765  -0.0426  -0.0880   0.00    0.0
2026/01/15 01:24:00.000   46.877093188    7.465039929   952.6151   6   8   0.1964   0.1487   0.3474  -0.0760  -0.0425  -0.0877   0.00    0.0
2026/01/15 01:24:30.000   46.877093208    7.465039905   952.6187   6   7   0.1958   0.1483   0.3461  -0.0755  -0.0426  -0.0880   0.00    0.0
2026/01/15 01:25:00.000   46.877093230    7.465039882   952.6225   6   7   0.1951   0.1479   0.3448  -0.0751  -0.0427  -0.0884   0.00    0.0
2026/01/15 01:25:30.000   46.877093254    7.465039850   952.6255   6   7   0.1945   0.1475   0.3435  -0.0746  -0.0427  -0.0887   0.00    0.0
2026/01/15 01:26:00.000   46.877093279    7.465039818   952.6285   6   7   0.1938   0.1471   0.3423  -0.0741  -0.0428  -0.0890   0.00    0.0
2026/01/15 01:26:30.000   46.877093307    7.465039792   952.6322   6   7   0.1932   0.1468   0.3410  -0.0736  -0.0428  -0.0893   0.00    0.0
2026/01/15 01:27:00.000   46.877093334    7.465039765   952.6361   6   7   0.1926   0.1464   0.3398  -0.0731  -0.0428  -0.0896   0.00    0.0
2026/01/15 01:27:30.000   46.877093364    7.465039727   952.6388   6   7   0.1919   0.1460   0.3386  -0.0726  -0.0428  -0.0899   0.00    0.0
2026/01/15 01:28:00.000   46.877093386    7.465039700   952.6423   6   7   0.1913   0.1457   0.3373  -0.0721  -0.0428  -0.0902   0.00    0.0
2026/01/15 01:28:30.000   46.877093408    7.465039683   952.6459   6   7   0.1907   0.1453   0.3361  -0.0717  -0.0428  -0.0905   0.00    0.0
2026/01/15 01:29:00.000   46.877093429    7.465039659   952.6484   6   7   0.1900   0.1450   0.3349  -0.0712  -0.0428  -0.0908   0.00    0.0
2026/01/15 01:29:30.000   46.877093452    7.465039633   952.6506   6   7   0.1894   0.1446   0.3338  -0.0707  -0.0428  -0.0910   0.00    0.0
2026/01/15 01:30:00.000   46.877093476    7.465039616   952.6535   6   7   0.1888   0.1443   0.3326  -0.0703  -0.0428  -0.0913   0.00    0.0
2026/01/15 01:30:30.000   46.877093501    7.465039597   952.6562   6   7   0.1882   0.1439   0.3314  -0.0698  -0.0427  -0.0915   0.00    0.0
2026/01/15 01:31:00.000   46.877093520    7.465039577   952.6595   6   7   0.1876   0.1436   0.3303  -0.0694  -0.0427  -0.0918   0.00    0.0
2026/01/15 01:31:30.000   46.877093538    7.465039558   952.6629   6   7   0.1870   0.1432   0.3291  -0.0689  -0.0426  -0.0920   0.00    0.0
2026/01/15 01:32:00.000   46.877093560    7.465039531   952.6654   6   7   0.1864   0.1429   0.3280  -0.0685  -0.0426  -0.0923   0.00    0.0
2026/01/15 01:32:30.000   46.877093587    7.465039503   952.6679   6   7   0.1858   0.1426   0.3269  -0.0680  -0.0425  -0.0925   0.00    0.0
2026/01/15 01:33:00.000   46.877093616    7.465039474   952.6717   6   7   0.1852   0.1422   0.3257  -0.0676  -0.0424  -0.0927   0.00    0.0
2026/01/15 01:33:30.000   46.877093647    7.465039437   952.6748   6   7   0.1846   0.1419   0.3246  -0.0672  -0.0424  -0.0929   0.00    0.0
2026/01/15 01:34:00.000   46.877093678    7.465039400   952.6784   6   7   0.1840   0.1416   0.3235  -0.0667  -0.0423  -0.0931   0.00    0.0
2026/01/15 01:34:30.000   46.877093706    7.465039368   952.6826   6   7   0.1834   0.1412   0.3225  -0.0663  -0.0422  -0.0933   0.00    0.0
2026/01/15 01:35:00.000   46.877093735    7.465039334   952.6867   6   7   0.1828   0.1409   0.3214  -0.0659  -0.0421  -0.0935   0.00    0.0
2026/01/15 01:35:30.000   46.877093768    7.465039296   952.6901   6   7   0.1823   0.1406   0.3203  -0.0655  -0.0419  -0.0937   0.00    0.0
2026/01/15 01:36:00.000   46.877093792    7.465039267   952.6938   6   7   0.1817   0.1403   0.3193  -0.0650  -0.0418  -0.0939   0.00    0.0
2026/01/15 01:36:30.000   46.877093819    7.465039238   952.6975   6   7   0.1811   0.1399   0.3182  -0.0646  -0.0417  -0.0940   0.00    0.0
2026/01/15 01:37:00.000   46.877093846    7.465039206   952.7011   6   7   0.1805   0.1396   0.3172  -0.0642  -0.0416  -0.0942   0.00    0.0
2026/01/15 01:37:30.000   46.877093868    7.465039177   952.7053   6   7   0.1800   0.1393   0.3161  -0.0638  -0.0414  -0.0943   0.00    0.0
2026/01/15 01:38:00.000   46.877093889    7.465039149   952.7094   6   7   0.1794   0.1390   0.3151  -0.0634  -0.0413  -0.0945   0.00    0.0
2026/01/15 01:38:30.000   46.877093917    7.465039112   952.7125   6   7   0.1788   0.1387   0.3141  -0.0630  -0.0411  -0.0946   0.00    0.0
2026/01/15 01:39:00.000   46.877093944    7.465039083   952.7164   6   7   0.1783   0.1384   0.3131  -0.0626  -0.0410  -0.0948   0.00    0.0
2026/01/15 01:39:30.000   46.877093970    7.465039056   952.7209   6   7   0.1777   0.1381   0.3121  -0.0622  -0.0408  -0.0949   0.00    0.0
2026/01/15 01:40:00.000   46.877094003    7.465039021   952.7254   6   7   0.1772   0.1378   0.3111  -0.0619  -0.0406  -0.0950   0.00    0.0
2026/01/15 01:40:30.000   46.877094028    7.465038983   952.7298   6   7   0.1766   0.1375   0.3101  -0.0615  -0.0405  -0.0952   0.00    0.0
2026/01/15 01:41:00.000   46.877094054    7.465038944   952.7347   6   7   0.1761   0.1372   0.3091  -0.0611  -0.0403  -0.0953   0.00    0.0
2026/01/15 01:41:30.000   46.877094080    7.465038906   952.7400   6   7   0.1756   0.1369   0.3081  -0.0607  -0.0401  -0.0954   0.00    0.0
2026/01/15 01:42:00.000   46.877094106    7.465038867   952.7454   6   7   0.1750   0.1366   0.3072  -0.0604  -0.0399  -0.0955   0.00    0.0
2026/01/15 01:42:30.000   46.877094137    7.465038839   952.7520   6   7   0.1745   0.1363   0.3062  -0.0600  -0.0397  -0.0956   0.00    0.0
2026/01/15 01:43:00.000   46.877094151    7.465038808   952.7526   6   7   0.1740   0.1360   0.3053  -0.0597  -0.0395  -0.0955   0.00    0.0
2026/01/15 01:43:30.000   46.877094161    7.465038779   952.7527   6   7   0.1735   0.1357   0.3045  -0.0593  -0.0393  -0.0955   0.00    0.0
2026/01/15 01:44:00.000   46.877094174    7.465038759   952.7552   6   6   0.1730   0.1355   0.3038  -0.0589  -0.0387  -0.0953   0.00    0.0
2026/01/15 01:44:30.000   46.877094189    7.465038737   952.7580   6   6   0.1725   0.1352   0.3030  -0.0585  -0.0382  -0.0952   0.00    0.0
2026/01/15 01:45:00.000   46.877094204    7.465038712   952.7613   6   6   0.1721   0.1350   0.3023  -0.0581  -0.0376  -0.0951   0.00    0.0
2026/01/15 01:45:30.000   46.877094223    7.465038684   952.7649   6   6   0.1716   0.1347   0.3015  -0.0578  -0.0371  -0.0950   0.00    0.0
2026/01/15 01:46:00.000   46.877094240    7.465038652   952.7685   6   6   0.1711   0.1345   0.3008  -0.0574  -0.0365  -0.0948   0.00    0.0
2026/01/15 01:46:30.000   46.877094257    7.465038617   952.7719   6   6   0.1707   0.1342   0.3001  -0.0570  -0.0359  -0.0947   0.00    0.0
2026/01/15 01:47:00.000   46.877094273    7.465038586   952.7755   6   6   0.1702   0.1340   0.2994  -0.0566  -0.0353  -0.0945   0.00    0.0
2026/01/15 01:47:30.000   46.877094291    7.465038554   952.7794   6   6   0.1697   0.1338   0.2987  -0.0563  -0.0347  -0.0944   0.00    0.0
2026/01/15 01:48:00.000   46.877094310    7.465038522   952.7839   6   6   0.1693   0.1335   0.2980  -0.0559  -0.0341  -0.0943   0.00    0.0
2026/01/15 01:48:30.000   46.877094328    7.465038491   952.7883   6   6   0.1688   0.1333   0.2972  -0.0556  -0.0335  -0.0941   0.00    0.0
2026/01/15 01:49:00.000   46.877094343    7.465038466   952.7926   6   6   0.1684   0.1330   0.2965  -0.0552  -0.0329  -0.0940   0.00    0.0
2026/01/15 01:49:30.000   46.877094359    7.465038441   952.7968   6   6   0.1679   0.1328   0.2958  -0.0549  -0.0323  -0.0938   0.00    0.0
2026/01/15 01:50:00.000   46.877094377    7.465038409   952.8010   6   6   0.1674   0.1326   0.2951  -0.0545  -0.0316  -0.0937   0.00    0.0
2026/01/15 01:50:30.000   46.877094394    7.465038379   952.8055   6   6   0.1670   0.1323   0.2945  -0.0542  -0.0310  -0.0935   0.00    0.0
2026/01/15 01:51:00.000   46.877094407    7.465038350   952.8098   6   6   0.1666   0.1321   0.2938  -0.0538  -0.0303  -0.0934   0.00    0.0
2026/01/15 01:51:30.000   46.877094421    7.465038321   952.8140   6   6   0.1661   0.1319   0.2931  -0.0535  -0.0296  -0.0932   0.00    0.0
2026/01/15 01:52:00.000   46.877094436    7.465038289   952.8186   6   6   0.1657   0.1317   0.2924  -0.0532  -0.0289  -0.0931   0.00    0.0
2026/01/15 01:52:30.000   46.877094454    7.465038254   952.8237   6   6   0.1652   0.1314   0.2917  -0.0529  -0.0282  -0.0929   0.00    0.0
2026/01/15 01:53:00.000   46.877094472    7.465038221   952.8286   6   6   0.1648   0.1312   0.2910  -0.0526  -0.0275  -0.0928   0.00    0.0
2026/01/15 01:53:30.000   46.877094486    7.465038190   952.8336   6   6   0.1644   0.1310   0.2904  -0.0523  -0.0268  -0.0926   0.00    0.0
2026/01/15 01:54:00.000   46.877094503    7.465038155   952.8387   6   6   0.1639   0.1308   0.2897  -0.0520  -0.0260  -0.0925   0.00    0.0
2026/01/15 01:54:30.000   46.877094520    7.465038118   952.8438   6   6   0.1635   0.1305   0.2890  -0.0517  -0.0252  -0.0923   0.00    0.0
2026/01/15 01:55:00.000   46.877094536    7.465038087   952.8485   6   6   0.1631   0.1303   0.2884  -0.0514  -0.0244  -0.0922   0.00    0.0
2026/01/15 01:55:30.000   46.877094553    7.465038052   952.8533   6   6   0.1626   0.1301   0.2877  -0.0511  -0.0236  -0.0920   0.00    0.0
2026/01/15 01:56:00.000   46.877094571    7.465038018   952.8583   6   6   0.1622   0.1299   0.2870  -0.0508  -0.0227  -0.0918   0.00    0.0
2026/01/15 01:56:30.000   46.877094589    7.465037984   952.8636   6   6   0.1618   0.1297   0.2864  -0.0505  -0.0218  -0.0917   0.00    0.0
2026/01/15 01:57:00.000   46.877094605    7.465037951   952.8690   6   6   0.1614   0.1294   0.2857  -0.0502  -0.0209  -0.0915   0.00    0.0
2026/01/15 01:57:30.000   46.877094621    7.465037915   952.8747   6   6   0.1610   0.1292   0.2851  -0.0500  -0.0199  -0.0914   0.00    0.0
2026/01/15 01:58:00.000   46.877094639    7.465037878   952.8808   6   6   0.1605   0.1290   0.2844  -0.0497  -0.0189  -0.0912   0.00    0.0
2026/01/15 01:58:30.000   46.877094657    7.465037844   952.8868   6   6   0.1601   0.1288   0.2838  -0.0495  -0.0178  -0.0910   0.00    0.0
2026/01/15 01:59:00.000   46.877094677    7.465037811   952.8930   6   6   0.1597   0.1286   0.2831  -0.0492  -0.0167  -0.0909   0.00    0.0
2026/01/15 01:59:30.000   46.877094697    7.465037773   952.8993   6   6   0.1593   0.1284   0.2825  -0.0490  -0.0155  -0.0907   0.00    0.0
2026/01/15 02:00:00.000   46.877094726    7.465037724   952.9068   6   6   0.1590   0.1282   0.2819  -0.0487  -0.0145  -0.0906   0.00    0.0
2026/01/15 02:00:30.000   46.877094751    7.465037679   952.9143   6   6   0.1587   0.1280   0.2813  -0.0485  -0.0134  -0.0904   0.00    0.0
2026/01/15 02:01:00.000   46.877094780    7.465037628   952.9211   6   7   0.1583   0.1278   0.2806  -0.0481  -0.0136  -0.0902   0.00    0.0
2026/01/15 02:01:30.000   46.877094811    7.465037575   952.9279   6   7   0.1579   0.1275   0.2799  -0.0477  -0.0137  -0.0899   0.00    0.0
2026/01/15 02:02:00.000   46.877094841    7.465037526   952.9345   6   7   0.1576   0.1273   0.2792  -0.0473  -0.0138  -0.0896   0.00    0.0
2026/01/15 02:02:30.000   46.877094870    7.465037474   952.9412   6   7   0.1572   0.1270   0.2786  -0.0470  -0.0139  -0.0893   0.00    0.0
2026/01/15 02:03:00.000   46.877094899    7.465037424   952.9488   6   7   0.1569   0.1268   0.2779  -0.0466  -0.0140  -0.0891   0.00    0.0
2026/01/15 02:03:30.000   46.877094927    7.465037373   952.9563   6   7   0.1565   0.1265   0.2772  -0.0463  -0.0140  -0.0888   0.00    0.0
2026/01/15 02:04:00.000   46.877094955    7.465037322   952.9638   6   7   0.1562   0.1263   0.2765  -0.0459  -0.0141  -0.0885   0.00    0.0
2026/01/15 02:04:30.000   46.877094980    7.465037274   952.9719   6   7   0.1558   0.1260   0.2758  -0.0455  -0.0141  -0.0883   0.00    0.0
2026/01/15 02:05:00.000   46.877095007    7.465037223   952.9795   6   7   0.1555   0.1258   0.2751  -0.0452  -0.0142  -0.0880   0.00    0.0
2026/01/15 02:05:30.000   46.877095034    7.465037173   952.9873   6   7   0.1551   0.1256   0.2745  -0.0448  -0.0142  -0.0877   0.00    0.0
2026/01/15 02:06:00.000   46.877095061    7.465037124   952.9949   6   7   0.1548   0.1253   0.2738  -0.0445  -0.0142  -0.0875   0.00    0.0
2026/01/15 02:06:30.000   46.877095087    7.465037076   953.0029   6   7   0.1544   0.1251   0.2731  -0.0441  -0.0142  -0.0872   0.00    0.0
2026/01/15 02:07:00.000   46.877095114    7.465037024   953.0108   6   7   0.1541   0.1248   0.2725  -0.0438  -0.0142  -0.0869   0.00    0.0
2026/01/15 02:07:30.000   46.877095139    7.465036972   953.0186   6   7   0.1537   0.1246   0.2718  -0.0435  -0.0142  -0.0867   0.00    0.0
2026/01/15 02:08:00.000   46.877095163    7.465036920   953.0263   6   7   0.1534   0.1244   0.2711  -0.0431  -0.0141  -0.0864   0.00    0.0
2026/01/15 02:08:30.000   46.877095188    7.465036870   953.0343   6   7   0.1531   0.1241   0.2705  -0.0428  -0.0141  -0.0861   0.00    0.0
2026/01/15 02:09:00.000   46.877095215    7.465036816   953.0424   6   7   0.1527   0.1239   0.2698  -0.0425  -0.0140  -0.0859   0.00    0.0
2026/01/15 02:09:30.000   46.877095240    7.465036764   953.0503   6   7   0.1524   0.1236   0.2692  -0.0422  -0.0139  -0.0856   0.00    0.0
2026/01/15 02:10:00.000   46.877095265    7.465036711   953.0582   6   7   0.1521   0.1234   0.2685  -0.0418  -0.0138  -0.0854   0.00    0.0
2026/01/15 02:10:30.000   46.877095291    7.465036655   953.0662   6   7   0.1517   0.1232   0.2679  -0.0415  -0.0138  -0.0851   0.00    0.0
2026/01/15 02:11:00.000   46.877095318    7.465036599   953.0739   6   7   0.1514   0.1229   0.2672  -0.0412  -0.0136  -0.0849   0.00    0.0
2026/01/15 02:11:30.000   46.877095378    7.465036555   953.0860   6   7   0.1510   0.1227   0.2666  -0.0409  -0.0136  -0.0847   0.00    0.0
2026/01/15 02:12:00.000   46.877095434    7.465036514   953.0979   6   7   0.1506   0.1225   0.2659  -0.0407  -0.0136  -0.0846   0.00    0.0
2026/01/15 02:12:30.000   46.877095490    7.465036471   953.1097   6   7   0.1502   0.1222   0.2652  -0.0404  -0.0136  -0.0845   0.00    0.0
2026/01/15 02:13:00.000   46.877095544    7.465036429   953.1215   6   7   0.1498   0.1220   0.2645  -0.0401  -0.0135  -0.0843   0.00    0.0
2026/01/15 02:13:30.000   46.877095594    7.465036388   953.1328   6   7   0.1494   0.1218   0.2638  -0.0399  -0.0135  -0.0842   0.00    0.0
2026/01/15 02:14:00.000   46.877095647    7.465036345   953.1443   6   7   0.1491   0.1216   0.2632  -0.0396  -0.0134  -0.0841   0.00    0.0
2026/01/15 02:14:30.000   46.877095701    7.465036304   953.1564   6   7   0.1487   0.1213   0.2625  -0.0394  -0.0133  -0.0839   0.00    0.0
2026/01/15 02:15:00.000   46.877095753    7.465036264   953.1685   6   7   0.1483   0.1211   0.2618  -0.0391  -0.0133  -0.0838   0.00    0.0
2026/01/15 02:15:30.000   46.877095808    7.465036225   953.1806   6   7   0.1479   0.1209   0.2612  -0.0389  -0.0132  -0.0837   0.00    0.0
2026/01/15 02:16:00.000   46.877095864    7.465036181   953.1931   6   7   0.1475   0.1206   0.2605  -0.0387  -0.0130  -0.0835   0.00    0.0
2026/01/15 02:16:30.000   46.877095916    7.465036135   953.2051   6   7   0.1472   0.1204   0.2599  -0.0384  -0.0129  -0.0834   0.00    0.0
2026/01/15 02:17:00.000   46.877095968    7.465036090   953.2169   6   7   0.1468   0.1202   0.2592  -0.0382  -0.0128  -0.0833   0.00    0.0
2026/01/15 02:17:30.000   46.877096020    7.465036047   953.2285   6   7   0.1464   0.1200   0.2586  -0.0380  -0.0126  -0.0831   0.00    0.0
2026/01/15 02:18:00.000   46.877096073    7.465036003   953.2402   6   7   0.1460   0.1197   0.2579  -0.0378  -0.0125  -0.0830   0.00    0.0
2026/01/15 02:18:30.000   46.877096127    7.465035961   953.2520   6   7   0.1457   0.1195   0.2573  -0.0376  -0.0123  -0.0828   0.00    0.0
2026/01/15 02:19:00.000   46.877096178    7.465035921   953.2639   6   7   0.1453   0.1193   0.2567  -0.0374  -0.0121  -0.0827   0.00    0.0
2026/01/15 02:19:30.000   46.877096229    7.465035880   953.2759   6   7   0.1449   0.1191   0.2560  -0.0372  -0.0119  -0.0826   0.00    0.0
2026/01/15 02:20:00.000   46.877096276    7.465035838   953.2878   6   7   0.1446   0.1189   0.2554  -0.0370  -0.0117  -0.0824   0.00    0.0
2026/01/15 02:20:30.000   46.877096319    7.465035800   953.2992   6   7   0.1442   0.1187   0.2548  -0.0368  -0.0114  -0.0823   0.00    0.0
2026/01/15 02:21:00.000   46.877096364    7.465035762   953.3109   6   7   0.1438   0.1184   0.2542  -0.0366  -0.0112  -0.0821   0.00    0.0
2026/01/15 02:21:30.000   46.877096409    7.465035722   953.3229   6   7   0.1435   0.1182   0.2536  -0.0364  -0.0109  -0.0820   0.00    0.0
2026/01/15 02:22:00.000   46.877096455    7.465035681   953.3351   6   7   0.1431   0.1180   0.2529  -0.0362  -0.0106  -0.0819   0.00    0.0
2026/01/15 02:22:30.000   46.877096502    7.465035639   953.3469   6   7   0.1427   0.1178   0.2523  -0.0361  -0.0103  -0.0817   0.00    0.0
2026/01/15 02:23:00.000   46.877096546    7.465035599   953.3581   6   7   0.1424   0.1176   0.2517  -0.0359  -0.0100  -0.0816   0.00    0.0
2026/01/15 02:23:30.000   46.877096592    7.465035557   953.3698   6   7   0.1420   0.1174   0.2511  -0.0357  -0.0096  -0.0814   0.00    0.0
2026/01/15 02:24:00.000   46.877096640    7.465035514   953.3813   6   7   0.1417   0.1172   0.2505  -0.0356  -0.0092  -0.0813   0.00    0.0
2026/01/15 02:24:30.000   46.877096685    7.465035473   953.3925   6   7   0.1413   0.1169   0.2499  -0.0354  -0.0088  -0.0811   0.00    0.0
2026/01/15 02:25:00.000   46.877096731    7.465035432   953.4036   6   7   0.1410   0.1167   0.2493  -0.0353  -0.0084  -0.0810   0.00    0.0
2026/01/15 02:25:30.000   46.877096775    7.465035388   953.4148   6   7   0.1406   0.1165   0.2487  -0.0351  -0.0079  -0.0808   0.00    0.0
2026/01/15 02:26:00.000   46.877096800    7.465035370   953.4193   6   6   0.1403   0.1163   0.2483  -0.0351  -0.0086  -0.0805   0.00    0.0
2026/01/15 02:26:30.000   46.877096829    7.465035351   953.4238   6   6   0.1400   0.1162   0.2479  -0.0350  -0.0092  -0.0802   0.00    0.0
2026/01/15 02:27:00.000   46.877096860    7.465035331   953.4285   6   6   0.1396   0.1160   0.2475  -0.0350  -0.0098  -0.0799   0.00    0.0
2026/01/15 02:27:30.000   46.877096890    7.465035312   953.4336   6   6   0.1393   0.1158   0.2472  -0.0349  -0.0103  -0.0796   0.00    0.0
2026/01/15 02:28:00.000   46.877096922    7.465035290   953.4387   6   6   0.1390   0.1156   0.2468  -0.0349  -0.0107  -0.0793   0.00    0.0
2026/01/15 02:28:30.000   46.877096953    7.465035269   953.4437   6   6   0.1387   0.1155   0.2464  -0.0348  -0.0111  -0.0789   0.00    0.0
2026/01/15 02:29:00.000   46.877096983    7.465035249   953.4490   6   6   0.1384   0.1153   0.2460  -0.0348  -0.0115  -0.0786   0.00    0.0
2026/01/15 02:29:30.000   46.877097013    7.465035229   953.4544   6   6   0.1380   0.1151   0.2456  -0.0347  -0.0118  -0.0783   0.00    0.0
2026/01/15 02:30:00.000   46.877097042    7.465035210   953.4599   6   6   0.1377   0.1149   0.2452  -0.0347  -0.0121  -0.0780   0.00    0.0
2026/01/15 02:30:30.000   46.877097073    7.465035189   953.4655   6   6   0.1374   0.1148   0.2449  -0.0347  -0.0124  -0.0777   0.00    0.0
2026/01/15 02:31:00.000   46.877097105    7.465035168   953.4711   6   6   0.1371   0.1146   0.2445  -0.0346  -0.0126  -0.0774   0.00    0.0
2026/01/15 02:31:30.000   46.877097134    7.465035147   953.4770   6   6   0.1368   0.1144   0.2441  -0.0346  -0.0128  -0.0771   0.00    0.0
2026/01/15 02:32:00.000   46.877097166    7.465035124   953.4826   6   6   0.1365   0.1143   0.2437  -0.0346  -0.0130  -0.0768   0.00    0.0
2026/01/15 02:32:30.000   46.877097198    7.465035100   953.4878   6   6   0.1362   0.1141   0.2434  -0.0345  -0.0132  -0.0765   0.00    0.0
2026/01/15 02:33:00.000   46.877097225    7.465035077   953.4934   6   6   0.1359   0.1139   0.2430  -0.0345  -0.0133  -0.0761   0.00    0.0
2026/01/15 02:33:30.000   46.877097254    7.465035054   953.4989   6   6   0.1356   0.1137   0.2426  -0.0345  -0.0134  -0.0758   0.00    0.0
2026/01/15 02:34:00.000   46.877097284    7.465035029   953.5044   6   6   0.1353   0.1136   0.2422  -0.0345  -0.0135  -0.0755   0.00    0.0
2026/01/15 02:34:30.000   46.877097314    7.465035006   953.5101   6   6   0.1350   0.1134   0.2419  -0.0345  -0.0136  -0.0752   0.00    0.0
2026/01/15 02:35:00.000   46.877097345    7.465034982   953.5159   6   6   0.1347   0.1132   0.2415  -0.0345  -0.0136  -0.0749   0.00    0.0
2026/01/15 02:35:30.000   46.877097375    7.465034954   953.5215   6   6   0.1344   0.1130   0.2411  -0.0345  -0.0137  -0.0746   0.00    0.0
2026/01/15 02:36:00.000   46.877097405    7.465034926   953.5272   6   6   0.1341   0.1129   0.2408  -0.0344  -0.0137  -0.0743   0.00    0.0
2026/01/15 02:36:30.000   46.877097435    7.465034900   953.5329   6   6   0.1338   0.1127   0.2404  -0.0344  -0.0137  -0.0740   0.00    0.0
2026/01/15 02:37:00.000   46.877097465    7.465034873   953.5385   6   6   0.1335   0.1125   0.2401  -0.0344  -0.0136  -0.0737   0.00    0.0
2026/01/15 02:37:30.000   46.877097494    7.465034844   953.5444   6   6   0.1332   0.1124   0.2397  -0.0344  -0.0136  -0.0734   0.00    0.0
2026/01/15 02:38:00.000   46.877097522    7.465034814   953.5506   6   6   0.1329   0.1122   0.2393  -0.0344  -0.0135  -0.0731   0.00    0.0
2026/01/15 02:38:30.000   46.877097551    7.465034785   953.5569   6   6   0.1326   0.1120   0.2390  -0.0344  -0.0135  -0.0728   0.00    0.0
2026/01/15 02:39:00.000   46.877097579    7.465034757   953.5633   6   6   0.1323   0.1118   0.2386  -0.0344  -0.0134  -0.0725   0.00    0.0
2026/01/15 02:39:30.000   46.877097608    7.465034725   953.5697   6   6   0.1320   0.1117   0.2383  -0.0345  -0.0133  -0.0722   0.00    0.0
2026/01/15 02:40:00.000   46.877097635    7.465034694   953.5761   6   6   0.1318   0.1115   0.2379  -0.0345  -0.0131  -0.0719   0.00    0.0
2026/01/15 02:40:30.000   46.877097663    7.465034665   953.5826   6   6   0.1315   0.1113   0.2375  -0.0345  -0.0130  -0.0716   0.00    0.0
2026/01/15 02:41:00.000   46.877097691    7.465034634   953.5890   6   6   0.1312   0.1112   0.2372  -0.0345  -0.0128  -0.0713   0.00    0.0
2026/01/15 02:41:30.000   46.877097719    7.465034603   953.5955   6   6   0.1309   0.1110   0.2368  -0.0345  -0.0126  -0.0710   0.00    0.0
2026/01/15 02:42:00.000   46.877097749    7.465034572   953.6018   6   6   0.1306   0.1108   0.2365  -0.0345  -0.0124  -0.0707   0.00    0.0
2026/01/15 02:42:30.000   46.877097778    7.465034539   953.6083   6   6   0.1304   0.1107   0.2361  -0.0345  -0.0122  -0.0704   0.00    0.0
2026/01/15 02:43:00.000   46.877097808    7.465034504   953.6149   6   6   0.1301   0.1105   0.2358  -0.0345  -0.0119  -0.0701   0.00    0.0
2026/01/15 02:43:30.000   46.877097837    7.465034469   953.6216   6   6   0.1298   0.1103   0.2354  -0.0346  -0.0116  -0.0698   0.00    0.0
2026/01/15 02:44:00.000   46.877097867    7.465034435   953.6281   6   6   0.1295   0.1102   0.2351  -0.0346  -0.0113  -0.0695   0.00    0.0
2026/01/15 02:44:30.000   46.877097897    7.465034400   953.6349   6   6   0.1293   0.1100   0.2347  -0.0346  -0.0110  -0.0692   0.00    0.0
2026/01/15 02:45:00.000   46.877097925    7.465034364   953.6418   6   6   0.1290   0.1098   0.2344  -0.0346  -0.0107  -0.0689   0.00    0.0
2026/01/15 02:45:30.000   46.877097953    7.465034327   953.6488   6   6   0.1287   0.1097   0.2340  -0.0347  -0.0103  -0.0687   0.00    0.0
2026/01/15 02:46:00.000   46.877097980    7.465034292   953.6558   6   6   0.1285   0.1095   0.2337  -0.0347  -0.0099  -0.0684   0.00    0.0
2026/01/15 02:46:30.000   46.877098006    7.465034256   953.6630   6   6   0.1282   0.1093   0.2333  -0.0347  -0.0094  -0.0681   0.00    0.0
2026/01/15 02:47:00.000   46.877098033    7.465034219   953.6701   6   6   0.1279   0.1092   0.2330  -0.0347  -0.0089  -0.0678   0.00    0.0
2026/01/15 02:47:30.000   46.877098060    7.465034181   953.6772   6   6   0.1277   0.1090   0.2326  -0.0348  -0.0083  -0.0675   0.00    0.0
2026/01/15 02:48:00.000   46.877098087    7.465034143   953.6844   6   6   0.1274   0.1088   0.2323  -0.0348  -0.0077  -0.0672   0.00    0.0
2026/01/15 02:48:30.000   46.877098115    7.465034104   953.6916   6   6   0.1271   0.1087   0.2319  -0.0348  -0.0070  -0.0669   0.00    0.0
2026/01/15 02:49:00.000   46.877098144    7.465034065   953.6988   6   6   0.1269   0.1085   0.2316  -0.0349  -0.0062  -0.0666   0.00    0.0
2026/01/15 02:49:30.000   46.877098173    7.465034024   953.7060   6   6   0.1266   0.1084   0.2312  -0.0349  -0.0053  -0.0664   0.00    0.0
2026/01/15 02:50:00.000   46.877098201    7.465033984   953.7133   6   6   0.1264   0.1082   0.2309  -0.0349  -0.0041  -0.0661   0.00    0.0
2026/01/15 02:50:30.000   46.877098229    7.465033944   953.7207   6   6   0.1261   0.1080   0.2305  -0.0350  -0.0024  -0.0658   0.00    0.0
2026/01/15 02:51:00.000   46.877098256    7.465033902   953.7282   6   6   0.1259   0.1079   0.2302  -0.0350   0.0025  -0.0655   0.00    0.0
2026/01/15 02:51:30.000   46.877098284    7.465033860   953.7359   6   6   0.1256   0.1077   0.2298  -0.0350   0.0043  -0.0652   0.00    0.0
2026/01/15 02:52:00.000   46.877098313    7.465033818   953.7435   6   6   0.1254   0.1075   0.2295  -0.0351   0.0055  -0.0650   0.00    0.0
2026/01/15 02:52:30.000   46.877098341    7.465033777   953.7509   6   6   0.1251   0.1074   0.2291  -0.0351   0.0066  -0.0647   0.00    0.0
2026/01/15 02:53:00.000   46.877098368    7.465033735   953.7585   6   6   0.1249   0.1072   0.2288  -0.0352   0.0075  -0.0644   0.00    0.0
2026/01/15 02:53:30.000   46.877098394    7.465033693   953.7662   6   6   0.1246   0.1071   0.2284  -0.0352   0.0083  -0.0641   0.00    0.0
2026/01/15 02:54:00.000   46.877098421    7.465033651   953.7741   6   6   0.1244   0.1069   0.2281  -0.0352   0.0091  -0.0639   0.00    0.0
2026/01/15 02:54:30.000   46.877098446    7.465033609   953.7820   6   6   0.1242   0.1068   0.2278  -0.0353   0.0098  -0.0636   0.00    0.0
2026/01/15 02:55:00.000   46.877098472    7.465033569   953.7897   6   6   0.1239   0.1066   0.2274  -0.0353   0.0105  -0.0633   0.00    0.0
2026/01/15 02:55:30.000   46.877098497    7.465033529   953.7974   6   6   0.1237   0.1064   0.2271  -0.0354   0.0111  -0.0631   0.00    0.0
2026/01/15 02:56:00.000   46.877098522    7.465033489   953.8052   6   6   0.1234   0.1063   0.2267  -0.0354   0.0118  -0.0628   0.00    0.0
2026/01/15 02:56:30.000   46.877098549    7.465033445   953.8130   6   6   0.1232   0.1061   0.2264  -0.0355   0.0124  -0.0625   0.00    0.0
2026/01/15 02:57:00.000   46.877098576    7.465033401   953.8208   6   6   0.1230   0.1060   0.2260  -0.0355   0.0130  -0.0623   0.00    0.0
2026/01/15 02:57:30.000   46.877098603    7.465033358   953.8285   6   6   0.1227   0.1058   0.2257  -0.0355   0.0135  -0.0620   0.00    0.0
2026/01/15 02:58:00.000   46.877098630    7.465033312   953.8364   6   6   0.1225   0.1057   0.2253  -0.0356   0.0141  -0.0618   0.00    0.0
2026/01/15 02:58:30.000   46.877098657    7.465033265   953.8443   6   6   0.1223   0.1055   0.2250  -0.0356   0.0146  -0.0615   0.00    0.0
2026/01/15 02:59:00.000   46.877098684    7.465033219   953.8522   6   6   0.1221   0.1054   0.2246  -0.0357   0.0151  -0.0612   0.00    0.0
2026/01/15 02:59:30.000   46.877098709    7.465033174   953.8601   6   6   0.1218   0.1052   0.2243  -0.0357   0.0156  -0.0610   0.00    0.0
2026/01/15 03:00:00.000   46.877098742    7.465033146   953.8705   6   6   0.1215   0.1050   0.2239  -0.0358   0.0161  -0.0608   0.00    0.0
2026/01/15 03:00:30.000   46.877098776    7.465033118   953.8809   6   6   0.1213   0.1049   0.2235  -0.0358   0.0166  -0.0605   0.00    0.0
2026/01/15 03:01:00.000   46.877098810    7.465033092   953.8911   6   6   0.1210   0.1047   0.2231  -0.0359   0.0171  -0.0603   0.00    0.0
2026/01/15 03:01:30.000   46.877098842    7.465033065   953.9014   6   6   0.1207   0.1046   0.2227  -0.0359   0.0176  -0.0601   0.00    0.0
2026/01/15 03:02:00.000   46.877098873    7.465033037   953.9118   6   6   0.1204   0.1044   0.2223  -0.0360   0.0181  -0.0599   0.00    0.0
2026/01/15 03:02:30.000   46.877098906    7.465033009   953.9222   6   6   0.1202   0.1043   0.2219  -0.0360   0.0185  -0.0597   0.00    0.0
2026/01/15 03:03:00.000   46.877098940    7.465032983   953.9322   6   6   0.1199   0.1041   0.2215  -0.0361   0.0189  -0.0595   0.00    0.0
2026/01/15 03:03:30.000   46.877098974    7.465032957   953.9423   6   6   0.1196   0.1040   0.2211  -0.0362   0.0194  -0.0593   0.00    0.0
2026/01/15 03:04:00.000   46.877099006    7.465032930   953.9524   6   6   0.1194   0.1038   0.2207  -0.0362   0.0198  -0.0591   0.00    0.0
2026/01/15 03:04:30.000   46.877099038    7.465032904   953.9627   6   6   0.1191   0.1036   0.2203  -0.0363   0.0202  -0.0589   0.00    0.0
2026/01/15 03:05:00.000   46.877099070    7.465032878   953.9731   6   6   0.1188   0.1035   0.2199  -0.0363   0.0206  -0.0587   0.00    0.0
2026/01/15 03:05:30.000   46.877099102    7.465032850   953.9834   6   6   0.1186   0.1033   0.2195  -0.0364   0.0210  -0.0585   0.00    0.0
2026/01/15 03:06:00.000   46.877099135    7.465032822   953.9941   6   6   0.1183   0.1032   0.2191  -0.0364   0.0214  -0.0583   0.00    0.0
2026/01/15 03:06:30.000   46.877099166    7.465032793   954.0047   6   6   0.1181   0.1030   0.2187  -0.0365   0.0218  -0.0581   0.00    0.0
2026/01/15 03:07:00.000   46.877099197    7.465032764   954.0155   6   6   0.1178   0.1029   0.2183  -0.0365   0.0222  -0.0579   0.00    0.0
2026/01/15 03:07:30.000   46.877099229    7.465032736   954.0261   6   6   0.1176   0.1027   0.2179  -0.0366   0.0226  -0.0577   0.00    0.0
2026/01/15 03:08:00.000   46.877099261    7.465032708   954.0367   6   6   0.1173   0.1026   0.2175  -0.0366   0.0230  -0.0575   0.00    0.0
2026/01/15 03:08:30.000   46.877099293    7.465032681   954.0473   6   6   0.1171   0.1025   0.2171  -0.0367   0.0233  -0.0574   0.00    0.0
2026/01/15 03:09:00.000   46.877099326    7.465032655   954.0579   6   6   0.1168   0.1023   0.2167  -0.0367   0.0237  -0.0572   0.00    0.0
2026/01/15 03:09:30.000   46.877099358    7.465032626   954.0689   6   6   0.1166   0.1022   0.2163  -0.0368   0.0241  -0.0570   0.00    0.0
2026/01/15 03:10:00.000   46.877099389    7.465032601   954.0800   6   6   0.1164   0.1020   0.2159  -0.0369   0.0244  -0.0568   0.00    0.0
2026/01/15 03:10:30.000   46.877099422    7.465032576   954.0908   6   6   0.1161   0.1019   0.2155  -0.0369   0.0248  -0.0567   0.00    0.0
2026/01/15 03:11:00.000   46.877099454    7.465032551   954.1016   6   6   0.1159   0.1017   0.2151  -0.0370   0.0251  -0.0565   0.00    0.0
2026/01/15 03:11:30.000   46.877099485    7.465032525   954.1124   6   6   0.1157   0.1016   0.2147  -0.0370   0.0255  -0.0564   0.00    0.0
2026/01/15 03:12:00.000   46.877099516    7.465032498   954.1232   6   6   0.1154   0.1014   0.2143  -0.0371   0.0258  -0.0562   0.00    0.0
2026/01/15 03:12:30.000   46.877099547    7.465032470   954.1343   6   6   0.1152   0.1013   0.2139  -0.0371   0.0261  -0.0561   0.00    0.0
2026/01/15 03:13:00.000   46.877099577    7.465032442   954.1453   6   6   0.1150   0.1012   0.2135  -0.0372   0.0264  -0.0559   0.00    0.0
2026/01/15 03:13:30.000   46.877099609    7.465032415   954.1562   6   6   0.1147   0.1010   0.2131  -0.0372   0.0268  -0.0558   0.00    0.0
2026/01/15 03:14:00.000   46.877099641    7.465032388   954.1670   6   6   0.1145   0.1009   0.2127  -0.0373   0.0271  -0.0556   0.00    0.0
2026/01/15 03:14:30.000   46.877099672    7.465032361   954.1775   6   6   0.1143   0.1007   0.2123  -0.0373   0.0274  -0.0555   0.00    0.0
2026/01/15 03:15:00.000   46.877099702    7.465032334   954.1884   6   6   0.1141   0.1006   0.2119  -0.0374   0.0277  -0.0553   0.00    0.0
2026/01/15 03:15:30.000   46.877099733    7.465032306   954.1994   6   7   0.1138   0.1004   0.2114  -0.0373   0.0278  -0.0551   0.00    0.0
2026/01/15 03:16:00.000   46.877099766    7.465032277   954.2102   6   7   0.1136   0.1003   0.2109  -0.0373   0.0279  -0.0548   0.00    0.0
2026/01/15 03:16:30.000   46.877099796    7.465032248   954.2210   6   7   0.1134   0.1001   0.2105  -0.0373   0.0280  -0.0546   0.00    0.0
2026/01/15 03:17:00.000   46.877099827    7.465032218   954.2318   6   7   0.1131   0.1000   0.2100  -0.0373   0.0281  -0.0544   0.00    0.0
2026/01/15 03:17:30.000   46.877099859    7.465032189   954.2420   6   7   0.1129   0.0998   0.2096  -0.0372   0.0282  -0.0541   0.00    0.0
2026/01/15 03:18:00.000   46.877099890    7.465032161   954.2524   6   7   0.1126   0.0996   0.2091  -0.0372   0.0283  -0.0539   0.00    0.0
2026/01/15 03:18:30.000   46.877099921    7.465032130   954.2629   6   7   0.1124   0.0995   0.2087  -0.0372   0.0284  -0.0537   0.00    0.0
2026/01/15 03:19:00.000   46.877099952    7.465032100   954.2735   6   7   0.1122   0.0993   0.2082  -0.0371   0.0285  -0.0534   0.00    0.0
2026/01/15 03:19:30.000   46.877099984    7.465032071   954.2838   6   7   0.1119   0.0992   0.2078  -0.0371   0.0286  -0.0532   0.00    0.0
2026/01/15 03:20:00.000   46.877100015    7.465032043   954.2943   6   7   0.1117   0.0990   0.2073  -0.0371   0.0287  -0.0530   0.00    0.0
2026/01/15 03:20:30.000   46.877100045    7.465032015   954.3046   6   7   0.1115   0.0988   0.2068  -0.0370   0.0288  -0.0528   0.00    0.0
2026/01/15 03:21:00.000   46.877100074    7.465031986   954.3148   6   7   0.1112   0.0987   0.2064  -0.0370   0.0289  -0.0526   0.00    0.0
2026/01/15 03:21:30.000   46.877100104    7.465031954   954.3251   6   7   0.1110   0.0985   0.2059  -0.0370   0.0290  -0.0524   0.00    0.0
2026/01/15 03:22:00.000   46.877100135    7.465031923   954.3353   6   7   0.1108   0.0984   0.2055  -0.0370   0.0291  -0.0521   0.00    0.0
2026/01/15 03:22:30.000   46.877100166    7.465031893   954.3455   6   7   0.1106   0.0982   0.2050  -0.0369   0.0292  -0.0519   0.00    0.0
2026/01/15 03:23:00.000   46.877100197    7.465031863   954.3556   6   7   0.1103   0.0981   0.2046  -0.0369   0.0293  -0.0517   0.00    0.0
2026/01/15 03:23:30.000   46.877100228    7.465031832   954.3660   6   7   0.1101   0.0979   0.2041  -0.0369   0.0294  -0.0516   0.00    0.0
2026/01/15 03:24:00.000   46.877100258    7.465031801   954.3764   6   7   0.1099   0.0978   0.2037  -0.0368   0.0295  -0.0514   0.00    0.0
2026/01/15 03:24:30.000   46.877100288    7.465031771   954.3870   6   8   0.1097   0.0976   0.2032  -0.0368   0.0295  -0.0512   0.00    0.0
2026/01/15 03:25:00.000   46.877100319    7.465031739   954.3975   6   8   0.1095   0.0975   0.2028  -0.0368   0.0296  -0.0510   0.00    0.0
2026/01/15 03:25:30.000   46.877100349    7.465031707   954.4076   6   8   0.1093   0.0973   0.2023  -0.0367   0.0297  -0.0508   0.00    0.0
2026/01/15 03:26:00.000   46.877100379    7.465031675   954.4178   6   8   0.1091   0.0971   0.2019  -0.0367   0.0298  -0.0506   0.00    0.0
2026/01/15 03:26:30.000   46.877100409    7.465031642   954.4282   6   8   0.1088   0.0970   0.2014  -0.0367   0.0299  -0.0505   0.00    0.0
2026/01/15 03:27:00.000   46.877100441    7.465031609   954.4382   6   8   0.1086   0.0968   0.2010  -0.0366   0.0300  -0.0503   0.00    0.0
2026/01/15 03:27:30.000   46.877100473    7.465031576   954.4479   6   8   0.1084   0.0967   0.2006  -0.0366   0.0301  -0.0501   0.00    0.0
