% program   : RTKPOST-EX 2.5.0
% inp file  : C:\Users\tevin\Desktop\GNSS - MASTA\SPRING SEM\4.SAT NAV DATA PROCESSING\TEAM PROJECT\SNDP-PROJECT\Old_data\data\ZIM200CHE_R_20260150000_01D_30S_MO.rnx
% inp file  : C:\Users\tevin\Desktop\GNSS - MASTA\SPRING SEM\4.SAT NAV DATA PROCESSING\TEAM PROJECT\SNDP-PROJECT\Old_data\products\nav\BRDC00IGS_R_20260150000_01D_MN.rnx
% inp file  : C:\Users\tevin\Desktop\GNSS - MASTA\SPRING SEM\4.SAT NAV DATA PROCESSING\TEAM PROJECT\SNDP-PROJECT\Old_data\products\sp3\COD0MGXFIN_20260150000_01D_05M_ORB.SP3
% inp file  : C:\Users\tevin\Desktop\GNSS - MASTA\SPRING SEM\4.SAT NAV DATA PROCESSING\TEAM PROJECT\SNDP-PROJECT\New_Data\DATA_FINAL_ANT_EXTRA\COD0MGXFIN_20260150000_01D_05M_ORB.SP3
% inp file  : C:\Users\tevin\Desktop\GNSS - MASTA\SPRING SEM\4.SAT NAV DATA PROCESSING\TEAM PROJECT\SNDP-PROJECT\Old_data\products\atx\igs20_2401.atx
% obs start : 2026/01/15 00:00:00.0 GPST (week2401 345600.0s)
% obs end   : 2026/01/15 23:59:30.0 GPST (week2401 431970.0s)
% pos mode  : PPP Static
% freqs     : L1+L2/E5b
% solution  : Forward
% elev mask : 15.0 deg
% dynamics  : on
% tidecorr  :
% ionos opt : Iono-Free LC
% tropo opt : Saastamoinen
% ephemeris : Precise
% navi sys  : GPS
% antenna1  : TRM59800.00     NONE  ( 0.0000  0.0000  0.0000)
%
% (lat/lon/height=WGS84/ellipsoidal,Q=1:fix,2:float,3:sbas,4:dgps,5:single,6:ppp,ns=# of satellites)
%  GPST                  latitude(deg) longitude(deg)  height(m)   Q  ns   sdn(m)   sde(m)   sdu(m)  sdne(m)  sdeu(m)  sdun(m) age(s)  ratio
2026/01/15 00:00:00.000   46.877101221    7.465048714   958.1520   6  10   4.1137   3.1349   8.4366   0.2878  -1.5248   2.2836   0.00    0.0
2026/01/15 00:00:30.000   46.877100129    7.465048154   958.2211   6  10   2.9142   2.2233   5.9875   0.1765  -1.1016   1.6048   0.00    0.0
2026/01/15 00:01:00.000   46.877098787    7.465047096   958.3357   6  10   2.3739   1.8163   4.8653   0.1259  -0.9055   1.2821   0.00    0.0
2026/01/15 00:01:30.000   46.877098421    7.465046759   958.2821   6  10   2.0470   1.5726   4.1763   0.0960  -0.7855   1.0742   0.00    0.0
2026/01/15 00:02:00.000   46.877097895    7.465046721   958.1906   6  10   1.8206   1.4058   3.6926   0.0767  -0.7018   0.9207   0.00    0.0
2026/01/15 00:02:30.000   46.877097007    7.465046670   958.1217   6  10   1.6513   1.2822   3.3262   0.0639  -0.6389   0.7985   0.00    0.0
2026/01/15 00:03:00.000   46.877096146    7.465046801   958.0383   6  10   1.5156   1.1856   3.0253   0.0599  -0.5881   0.6874   0.00    0.0
2026/01/15 00:03:30.000   46.877095659    7.465046957   957.9199   6  10   1.4030   1.1071   2.7707   0.0614  -0.5458   0.5841   0.00    0.0
2026/01/15 00:04:00.000   46.877095487    7.465046952   957.8135   6  10   1.3075   1.0418   2.5516   0.0653  -0.5098   0.4866   0.00    0.0
2026/01/15 00:04:30.000   46.877095274    7.465047094   957.7451   6   9   1.2299   0.9884   2.3942  -0.0419  -0.4966   0.4402   0.00    0.0
2026/01/15 00:05:00.000   46.877095267    7.465047143   957.6918   6   9   1.1610   0.9419   2.2512  -0.0706  -0.4811   0.3889   0.00    0.0
2026/01/15 00:05:30.000   46.877095150    7.465047229   957.6285   6   9   1.0995   0.9009   2.1217  -0.0807  -0.4647   0.3352   0.00    0.0
2026/01/15 00:06:00.000   46.877094920    7.465047287   957.5777   6   9   1.0444   0.8644   2.0047  -0.0838  -0.4481   0.2802   0.00    0.0
2026/01/15 00:06:30.000   46.877094672    7.465047201   957.5291   6   9   0.9950   0.8316   1.8992  -0.0835  -0.4321   0.2237   0.00    0.0
2026/01/15 00:07:00.000   46.877094365    7.465046993   957.5037   6   9   0.9505   0.8020   1.8044  -0.0814  -0.4168   0.1632   0.00    0.0
2026/01/15 00:07:30.000   46.877094203    7.465046885   957.4829   6   9   0.9105   0.7751   1.7192  -0.0783  -0.4024   0.0880   0.00    0.0
2026/01/15 00:08:00.000   46.877094213    7.465046846   957.4597   6   9   0.8718   0.7501   1.6350  -0.0716  -0.3876  -0.1085   0.00    0.0
2026/01/15 00:08:30.000   46.877094347    7.465046768   957.4505   6   9   0.8346   0.7266   1.5533  -0.0618  -0.3728  -0.1737   0.00    0.0
2026/01/15 00:09:00.000   46.877094526    7.465046699   957.4228   6   9   0.7993   0.7047   1.4753  -0.0490  -0.3585  -0.2152   0.00    0.0
2026/01/15 00:09:30.000   46.877094532    7.465046625   957.4046   6   8   0.7692   0.6856   1.4096  -0.0295  -0.3445  -0.2637   0.00    0.0
2026/01/15 00:10:00.000   46.877094523    7.465046708   957.3866   6   8   0.7410   0.6676   1.3481   0.0186  -0.3310  -0.2962   0.00    0.0
2026/01/15 00:10:30.000   46.877094575    7.465046770   957.3602   6   8   0.7148   0.6508   1.2915   0.0357  -0.3183  -0.3184   0.00    0.0
2026/01/15 00:11:00.000   46.877094566    7.465046789   957.3299   6   8   0.6907   0.6349   1.2397   0.0443  -0.3064  -0.3335   0.00    0.0
2026/01/15 00:11:30.000   46.877094642    7.465046669   957.2963   6   8   0.6685   0.6200   1.1927   0.0495  -0.2955  -0.3435   0.00    0.0
2026/01/15 00:12:00.000   46.877094660    7.465046602   957.2661   6   8   0.6482   0.6061   1.1501   0.0527  -0.2856  -0.3497   0.00    0.0
2026/01/15 00:12:30.000   46.877094738    7.465046563   957.2418   6   8   0.6296   0.5930   1.1116   0.0546  -0.2766  -0.3533   0.00    0.0
2026/01/15 00:13:00.000   46.877094776    7.465046564   957.2218   6   8   0.6108   0.5802   1.0725   0.0562  -0.2671  -0.3561   0.00    0.0
2026/01/15 00:13:30.000   46.877094895    7.465046512   957.2020   6   8   0.5921   0.5678   1.0334   0.0573  -0.2574  -0.3578   0.00    0.0
2026/01/15 00:14:00.000   46.877094942    7.465046424   957.1807   6   8   0.5737   0.5557   0.9951   0.0579  -0.2478  -0.3584   0.00    0.0
2026/01/15 00:14:30.000   46.877094946    7.465046349   957.1616   6   8   0.5560   0.5440   0.9583   0.0581  -0.2384  -0.3576   0.00    0.0
2026/01/15 00:15:00.000   46.877094936    7.465046362   957.1408   6   8   0.5390   0.5328   0.9236   0.0579  -0.2295  -0.3558   0.00    0.0
2026/01/15 00:15:30.000   46.877094836    7.465046235   957.0937   6   8   0.5230   0.5221   0.8912   0.0573  -0.2212  -0.3530   0.00    0.0
2026/01/15 00:16:00.000   46.877094790    7.465046055   957.0676   6   8   0.5081   0.5119   0.8614   0.0565  -0.2136  -0.3495   0.00    0.0
2026/01/15 00:16:30.000   46.877094710    7.465045874   957.0567   6   8   0.4943   0.5022   0.8342   0.0556  -0.2068  -0.3455   0.00    0.0
2026/01/15 00:17:00.000   46.877094632    7.465045753   957.0505   6   8   0.4817   0.4931   0.8095   0.0545  -0.2006  -0.3412   0.00    0.0
2026/01/15 00:17:30.000   46.877094640    7.465045650   957.0403   6   8   0.4700   0.4845   0.7872   0.0533  -0.1950  -0.3368   0.00    0.0
2026/01/15 00:18:00.000   46.877094683    7.465045589   957.0346   6   8   0.4581   0.4759   0.7642   0.0521  -0.1892  -0.3321   0.00    0.0
2026/01/15 00:18:30.000   46.877094736    7.465045550   957.0353   6   8   0.4460   0.4674   0.7409   0.0510  -0.1834  -0.3271   0.00    0.0
2026/01/15 00:19:00.000   46.877094842    7.465045442   957.0296   6   8   0.4340   0.4590   0.7179   0.0498  -0.1776  -0.3218   0.00    0.0
2026/01/15 00:19:30.000   46.877094891    7.465045329   957.0156   6   8   0.4222   0.4508   0.6955   0.0486  -0.1720  -0.3163   0.00    0.0
2026/01/15 00:20:00.000   46.877094919    7.465045167   957.0016   6   8   0.4108   0.4428   0.6741   0.0474  -0.1667  -0.3108   0.00    0.0
2026/01/15 00:20:30.000   46.877094902    7.465045047   956.9842   6   8   0.4001   0.4351   0.6540   0.0462  -0.1618  -0.3052   0.00    0.0
2026/01/15 00:21:00.000   46.877094916    7.465044918   956.9610   6   8   0.3900   0.4277   0.6353   0.0450  -0.1573  -0.2997   0.00    0.0
2026/01/15 00:21:30.000   46.877094916    7.465044847   956.9378   6   8   0.3806   0.4207   0.6182   0.0439  -0.1532  -0.2944   0.00    0.0
2026/01/15 00:22:00.000   46.877094982    7.465044769   956.9191   6   8   0.3720   0.4141   0.6026   0.0429  -0.1495  -0.2893   0.00    0.0
2026/01/15 00:22:30.000   46.877095022    7.465044753   956.9039   6   8   0.3642   0.4079   0.5885   0.0418  -0.1462  -0.2845   0.00    0.0
2026/01/15 00:23:00.000   46.877095007    7.465044684   956.8937   6   8   0.3560   0.4016   0.5738   0.0409  -0.1428  -0.2794   0.00    0.0
2026/01/15 00:23:30.000   46.877094983    7.465044650   956.8853   6   8   0.3477   0.3953   0.5589   0.0400  -0.1394  -0.2742   0.00    0.0
2026/01/15 00:24:00.000   46.877094961    7.465044639   956.8801   6   8   0.3393   0.3890   0.5439   0.0391  -0.1360  -0.2689   0.00    0.0
2026/01/15 00:24:30.000   46.877094964    7.465044642   956.8770   6   8   0.3311   0.3828   0.5292   0.0383  -0.1328  -0.2635   0.00    0.0
2026/01/15 00:25:00.000   46.877095006    7.465044536   956.8691   6   8   0.3231   0.3767   0.5151   0.0376  -0.1297  -0.2582   0.00    0.0
2026/01/15 00:25:30.000   46.877095025    7.465044405   956.8559   6   8   0.3155   0.3708   0.5018   0.0369  -0.1268  -0.2531   0.00    0.0
2026/01/15 00:26:00.000   46.877094982    7.465044297   956.8443   6   8   0.3083   0.3652   0.4893   0.0363  -0.1242  -0.2482   0.00    0.0
2026/01/15 00:26:30.000   46.877094915    7.465044218   956.8339   6   8   0.3017   0.3598   0.4778   0.0357  -0.1218  -0.2436   0.00    0.0
2026/01/15 00:27:00.000   46.877094866    7.465044158   956.8247   6   8   0.2956   0.3548   0.4674   0.0351  -0.1196  -0.2392   0.00    0.0
2026/01/15 00:27:30.000   46.877094859    7.465044122   956.8184   6   8   0.2901   0.3500   0.4578   0.0346  -0.1176  -0.2352   0.00    0.0
2026/01/15 00:28:00.000   46.877094862    7.465044065   956.8150   6   8   0.2843   0.3452   0.4479   0.0341  -0.1156  -0.2310   0.00    0.0
2026/01/15 00:28:30.000   46.877094859    7.465043964   956.8097   6   8   0.2783   0.3403   0.4377   0.0337  -0.1136  -0.2266   0.00    0.0
2026/01/15 00:29:00.000   46.877094909    7.465043864   956.7979   6   8   0.2723   0.3353   0.4274   0.0333  -0.1117  -0.2222   0.00    0.0
2026/01/15 00:29:30.000   46.877094967    7.465043749   956.7901   6   8   0.2663   0.3304   0.4173   0.0330  -0.1097  -0.2178   0.00    0.0
2026/01/15 00:30:00.000   46.877095021    7.465043641   956.7840   6   8   0.2606   0.3256   0.4075   0.0328  -0.1079  -0.2134   0.00    0.0
2026/01/15 00:30:30.000   46.877095068    7.465043521   956.7774   6   8   0.2550   0.3210   0.3982   0.0325  -0.1062  -0.2093   0.00    0.0
2026/01/15 00:31:00.000   46.877095104    7.465043440   956.7742   6   8   0.2498   0.3165   0.3895   0.0323  -0.1046  -0.2053   0.00    0.0
2026/01/15 00:31:30.000   46.877095114    7.465043389   956.7749   6   8   0.2450   0.3123   0.3814   0.0321  -0.1032  -0.2016   0.00    0.0
2026/01/15 00:32:00.000   46.877095142    7.465043364   956.7717   6   8   0.2406   0.3083   0.3741   0.0318  -0.1018  -0.1981   0.00    0.0
2026/01/15 00:32:30.000   46.877095157    7.465043353   956.7684   6   8   0.2365   0.3046   0.3673   0.0316  -0.1006  -0.1949   0.00    0.0
2026/01/15 00:33:00.000   46.877095160    7.465043317   956.7673   6   8   0.2322   0.3008   0.3603   0.0314  -0.0994  -0.1916   0.00    0.0
2026/01/15 00:33:30.000   46.877095134    7.465043241   956.7624   6   8   0.2278   0.2968   0.3531   0.0313  -0.0981  -0.1881   0.00    0.0
2026/01/15 00:34:00.000   46.877095136    7.465043116   956.7551   6   8   0.2234   0.2929   0.3457   0.0312  -0.0969  -0.1846   0.00    0.0
2026/01/15 00:34:30.000   46.877095186    7.465042972   956.7460   6   8   0.2190   0.2889   0.3385   0.0311  -0.0957  -0.1811   0.00    0.0
2026/01/15 00:35:00.000   46.877095243    7.465042902   956.7418   6   8   0.2147   0.2850   0.3314   0.0310  -0.0946  -0.1777   0.00    0.0
2026/01/15 00:35:30.000   46.877095298    7.465042860   956.7385   6   8   0.2106   0.2813   0.3246   0.0310  -0.0935  -0.1744   0.00    0.0
2026/01/15 00:36:00.000   46.877095353    7.465042800   956.7348   6   8   0.2067   0.2777   0.3183   0.0309  -0.0925  -0.1712   0.00    0.0
2026/01/15 00:36:30.000   46.877095413    7.465042702   956.7302   6   8   0.2031   0.2743   0.3124   0.0308  -0.0915  -0.1683   0.00    0.0
2026/01/15 00:37:00.000   46.877095437    7.465042630   956.7299   6   8   0.1997   0.2711   0.3070   0.0307  -0.0906  -0.1656   0.00    0.0
2026/01/15 00:37:30.000   46.877095447    7.465042605   956.7298   6   8   0.1967   0.2681   0.3021   0.0306  -0.0898  -0.1631   0.00    0.0
2026/01/15 00:38:00.000   46.877095455    7.465042593   956.7297   6   8   0.1935   0.2650   0.2970   0.0305  -0.0890  -0.1605   0.00    0.0
2026/01/15 00:38:30.000   46.877095485    7.465042584   956.7270   6   8   0.1902   0.2618   0.2916   0.0305  -0.0882  -0.1577   0.00    0.0
2026/01/15 00:39:00.000   46.877095525    7.465042468   956.7161   6   8   0.1868   0.2586   0.2862   0.0304  -0.0873  -0.1550   0.00    0.0
2026/01/15 00:39:30.000   46.877095559    7.465042366   956.7072   6   8   0.1835   0.2553   0.2808   0.0304  -0.0865  -0.1522   0.00    0.0
2026/01/15 00:40:00.000   46.877095584    7.465042281   956.7026   6   8   0.1802   0.2522   0.2756   0.0304  -0.0857  -0.1495   0.00    0.0
2026/01/15 00:40:30.000   46.877095594    7.465042211   956.7000   6   8   0.1770   0.2491   0.2705   0.0303  -0.0850  -0.1469   0.00    0.0
2026/01/15 00:41:00.000   46.877095606    7.465042141   956.6977   6   8   0.1741   0.2461   0.2658   0.0303  -0.0842  -0.1444   0.00    0.0
2026/01/15 00:41:30.000   46.877095615    7.465042045   956.6944   6   8   0.1713   0.2433   0.2614   0.0302  -0.0835  -0.1421   0.00    0.0
2026/01/15 00:42:00.000   46.877095624    7.465041956   956.6907   6   8   0.1687   0.2407   0.2573   0.0301  -0.0829  -0.1400   0.00    0.0
2026/01/15 00:42:30.000   46.877095630    7.465041895   956.6869   6   8   0.1664   0.2383   0.2536   0.0300  -0.0823  -0.1380   0.00    0.0
2026/01/15 00:43:00.000   46.877095640    7.465041833   956.6827   6   8   0.1639   0.2357   0.2497   0.0299  -0.0817  -0.1359   0.00    0.0
2026/01/15 00:43:30.000   46.877095647    7.465041775   956.6779   6   8   0.1614   0.2331   0.2457   0.0299  -0.0811  -0.1338   0.00    0.0
2026/01/15 00:44:00.000   46.877095665    7.465041731   956.6731   6   8   0.1588   0.2305   0.2416   0.0298  -0.0805  -0.1316   0.00    0.0
2026/01/15 00:44:30.000   46.877095690    7.465041635   956.6677   6   8   0.1562   0.2278   0.2375   0.0298  -0.0799  -0.1294   0.00    0.0
2026/01/15 00:45:00.000   46.877095713    7.465041518   956.6622   6   8   0.1536   0.2252   0.2335   0.0297  -0.0793  -0.1272   0.00    0.0
2026/01/15 00:45:30.000   46.877095768    7.465041392   956.6561   6   8   0.1512   0.2226   0.2296   0.0296  -0.0787  -0.1252   0.00    0.0
2026/01/15 00:46:00.000   46.877095786    7.465041285   956.6526   6   8   0.1489   0.2201   0.2260   0.0296  -0.0781  -0.1232   0.00    0.0
2026/01/15 00:46:30.000   46.877095786    7.465041178   956.6516   6   8   0.1467   0.2178   0.2226   0.0295  -0.0776  -0.1214   0.00    0.0
2026/01/15 00:47:00.000   46.877095788    7.465041085   956.6507   6   8   0.1447   0.2157   0.2195   0.0294  -0.0771  -0.1197   0.00    0.0
2026/01/15 00:47:30.000   46.877095801    7.465041002   956.6488   6   8   0.1429   0.2136   0.2166   0.0293  -0.0766  -0.1181   0.00    0.0
2026/01/15 00:48:00.000   46.877095821    7.465040930   956.6466   6   8   0.1410   0.2115   0.2136   0.0292  -0.0761  -0.1164   0.00    0.0
2026/01/15 00:48:30.000   46.877095849    7.465040876   956.6448   6   8   0.1389   0.2094   0.2105   0.0291  -0.0756  -0.1147   0.00    0.0
2026/01/15 00:49:00.000   46.877095887    7.465040796   956.6416   6   8   0.1369   0.2071   0.2073   0.0290  -0.0751  -0.1130   0.00    0.0
2026/01/15 00:49:30.000   46.877095917    7.465040704   956.6378   6   8   0.1348   0.2049   0.2041   0.0289  -0.0746  -0.1112   0.00    0.0
2026/01/15 00:50:00.000   46.877095934    7.465040627   956.6340   6   8   0.1328   0.2027   0.2010   0.0288  -0.0741  -0.1095   0.00    0.0
2026/01/15 00:50:30.000   46.877095933    7.465040571   956.6321   6   8   0.1309   0.2006   0.1980   0.0287  -0.0736  -0.1078   0.00    0.0
2026/01/15 00:51:00.000   46.877095935    7.465040526   956.6305   6   8   0.1290   0.1985   0.1951   0.0286  -0.0731  -0.1062   0.00    0.0
2026/01/15 00:51:30.000   46.877095953    7.465040473   956.6283   6   8   0.1273   0.1966   0.1924   0.0285  -0.0727  -0.1048   0.00    0.0
2026/01/15 00:52:00.000   46.877095961    7.465040435   956.6254   6   8   0.1257   0.1947   0.1900   0.0284  -0.0723  -0.1034   0.00    0.0
2026/01/15 00:52:30.000   46.877095967    7.465040394   956.6225   6   8   0.1243   0.1931   0.1877   0.0282  -0.0719  -0.1021   0.00    0.0
2026/01/15 00:53:00.000   46.877095975    7.465040350   956.6195   6   8   0.1227   0.1913   0.1854   0.0281  -0.0715  -0.1008   0.00    0.0
2026/01/15 00:53:30.000   46.877095985    7.465040290   956.6163   6   8   0.1211   0.1895   0.1829   0.0280  -0.0710  -0.0994   0.00    0.0
2026/01/15 00:54:00.000   46.877096000    7.465040220   956.6128   6   8   0.1195   0.1876   0.1804   0.0279  -0.0706  -0.0980   0.00    0.0
2026/01/15 00:54:30.000   46.877096017    7.465040150   956.6093   6   8   0.1178   0.1857   0.1778   0.0277  -0.0702  -0.0966   0.00    0.0
2026/01/15 00:55:00.000   46.877096032    7.465040081   956.6065   6   8   0.1162   0.1838   0.1753   0.0276  -0.0698  -0.0952   0.00    0.0
2026/01/15 00:55:30.000   46.877096052    7.465040014   956.6048   6   8   0.1146   0.1820   0.1729   0.0275  -0.0693  -0.0938   0.00    0.0
2026/01/15 00:56:00.000   46.877096071    7.465039963   956.6040   6   8   0.1131   0.1803   0.1707   0.0273  -0.0689  -0.0925   0.00    0.0
2026/01/15 00:56:30.000   46.877096097    7.465039915   956.6011   6   8   0.1118   0.1787   0.1685   0.0272  -0.0685  -0.0913   0.00    0.0
2026/01/15 00:57:00.000   46.877096114    7.465039888   956.5994   6   8   0.1105   0.1771   0.1666   0.0271  -0.0682  -0.0902   0.00    0.0
2026/01/15 00:57:30.000   46.877096119    7.465039881   956.5986   6   8   0.1093   0.1757   0.1648   0.0269  -0.0678  -0.0892   0.00    0.0
2026/01/15 00:58:00.000   46.877096130    7.465039865   956.5976   6   8   0.1080   0.1742   0.1629   0.0268  -0.0675  -0.0881   0.00    0.0
2026/01/15 00:58:30.000   46.877096143    7.465039843   956.5967   6   8   0.1067   0.1727   0.1609   0.0266  -0.0671  -0.0869   0.00    0.0
2026/01/15 00:59:00.000   46.877096165    7.465039809   956.5955   6   8   0.1054   0.1711   0.1589   0.0265  -0.0667  -0.0858   0.00    0.0
2026/01/15 00:59:30.000   46.877096191    7.465039768   956.5928   6   8   0.1041   0.1695   0.1568   0.0263  -0.0663  -0.0846   0.00    0.0
2026/01/15 01:00:00.000   46.877096206    7.465039700   956.5893   6   8   0.1027   0.1679   0.1548   0.0262  -0.0659  -0.0835   0.00    0.0
2026/01/15 01:00:30.000   46.877096207    7.465039615   956.5861   6   8   0.1015   0.1663   0.1529   0.0260  -0.0656  -0.0823   0.00    0.0
2026/01/15 01:01:00.000   46.877096204    7.465039508   956.5825   6   8   0.1002   0.1648   0.1510   0.0259  -0.0652  -0.0813   0.00    0.0
2026/01/15 01:01:30.000   46.877096195    7.465039392   956.5789   6   8   0.0991   0.1634   0.1493   0.0257  -0.0648  -0.0803   0.00    0.0
2026/01/15 01:02:00.000   46.877096194    7.465039324   956.5761   6   8   0.0980   0.1621   0.1477   0.0256  -0.0645  -0.0794   0.00    0.0
2026/01/15 01:02:30.000   46.877096202    7.465039288   956.5738   6   8   0.0971   0.1609   0.1462   0.0254  -0.0642  -0.0785   0.00    0.0
2026/01/15 01:03:00.000   46.877096220    7.465039251   956.5713   6   8   0.0960   0.1596   0.1447   0.0253  -0.0639  -0.0776   0.00    0.0
2026/01/15 01:03:30.000   46.877096236    7.465039213   956.5699   6   8   0.0950   0.1583   0.1430   0.0251  -0.0636  -0.0767   0.00    0.0
2026/01/15 01:04:00.000   46.877096249    7.465039178   956.5683   6   8   0.0939   0.1570   0.1414   0.0249  -0.0632  -0.0757   0.00    0.0
2026/01/15 01:04:30.000   46.877096259    7.465039147   956.5663   6   8   0.0928   0.1556   0.1397   0.0248  -0.0629  -0.0747   0.00    0.0
2026/01/15 01:05:00.000   46.877096269    7.465039094   956.5637   6   8   0.0917   0.1542   0.1381   0.0246  -0.0625  -0.0738   0.00    0.0
2026/01/15 01:05:30.000   46.877096284    7.465039033   956.5614   6   8   0.0906   0.1529   0.1365   0.0244  -0.0622  -0.0728   0.00    0.0
2026/01/15 01:06:00.000   46.877096295    7.465038973   956.5594   6   8   0.0896   0.1516   0.1350   0.0242  -0.0618  -0.0720   0.00    0.0
2026/01/15 01:06:30.000   46.877096310    7.465038907   956.5564   6   8   0.0886   0.1504   0.1335   0.0241  -0.0615  -0.0711   0.00    0.0
2026/01/15 01:07:00.000   46.877096326    7.465038834   956.5534   6   8   0.0878   0.1493   0.1322   0.0239  -0.0612  -0.0704   0.00    0.0
2026/01/15 01:07:30.000   46.877096339    7.465038779   956.5506   6   8   0.0870   0.1482   0.1310   0.0238  -0.0609  -0.0697   0.00    0.0
2026/01/15 01:08:00.000   46.877096353    7.465038726   956.5483   6   8   0.0861   0.1471   0.1297   0.0236  -0.0607  -0.0689   0.00    0.0
2026/01/15 01:08:30.000   46.877096373    7.465038665   956.5457   6   8   0.0852   0.1460   0.1284   0.0234  -0.0603  -0.0681   0.00    0.0
2026/01/15 01:09:00.000   46.877096393    7.465038606   956.5432   6   8   0.0843   0.1448   0.1270   0.0232  -0.0600  -0.0673   0.00    0.0
2026/01/15 01:09:30.000   46.877096402    7.465038547   956.5401   6   8   0.0834   0.1436   0.1256   0.0231  -0.0597  -0.0665   0.00    0.0
2026/01/15 01:10:00.000   46.877096408    7.465038482   956.5361   6   8   0.0824   0.1424   0.1243   0.0229  -0.0594  -0.0657   0.00    0.0
2026/01/15 01:10:30.000   46.877096422    7.465038438   956.5352   6   7   0.0816   0.1413   0.1231   0.0227  -0.0589  -0.0649   0.00    0.0
2026/01/15 01:11:00.000   46.877096434    7.465038396   956.5348   6   7   0.0807   0.1402   0.1221   0.0225  -0.0585  -0.0641   0.00    0.0
2026/01/15 01:11:30.000   46.877096440    7.465038361   956.5337   6   7   0.0799   0.1392   0.1211   0.0223  -0.0581  -0.0634   0.00    0.0
2026/01/15 01:12:00.000   46.877096448    7.465038314   956.5316   6   7   0.0792   0.1383   0.1201   0.0222  -0.0577  -0.0628   0.00    0.0
2026/01/15 01:12:30.000   46.877096454    7.465038273   956.5305   6   8   0.0785   0.1374   0.1193   0.0220  -0.0574  -0.0622   0.00    0.0
2026/01/15 01:13:00.000   46.877096463    7.465038227   956.5293   6   8   0.0778   0.1364   0.1183   0.0219  -0.0570  -0.0615   0.00    0.0
2026/01/15 01:13:30.000   46.877096475    7.465038187   956.5289   6   8   0.0770   0.1355   0.1174   0.0217  -0.0566  -0.0609   0.00    0.0
2026/01/15 01:14:00.000   46.877096484    7.465038125   956.5266   6   8   0.0763   0.1344   0.1164   0.0215  -0.0562  -0.0602   0.00    0.0
2026/01/15 01:14:30.000   46.877096487    7.465038067   956.5239   6   8   0.0755   0.1334   0.1153   0.0214  -0.0558  -0.0595   0.00    0.0
2026/01/15 01:15:00.000   46.877096491    7.465038012   956.5223   6   8   0.0747   0.1324   0.1143   0.0212  -0.0555  -0.0588   0.00    0.0
2026/01/15 01:15:30.000   46.877096503    7.465037943   956.5203   6   8   0.0739   0.1314   0.1133   0.0210  -0.0551  -0.0581   0.00    0.0
2026/01/15 01:16:00.000   46.877096515    7.465037878   956.5187   6   8   0.0732   0.1305   0.1124   0.0208  -0.0547  -0.0575   0.00    0.0
2026/01/15 01:16:30.000   46.877096525    7.465037823   956.5176   6   9   0.0725   0.1296   0.1115   0.0207  -0.0544  -0.0568   0.00    0.0
2026/01/15 01:17:00.000   46.877096531    7.465037776   956.5161   6   9   0.0719   0.1287   0.1107   0.0205  -0.0540  -0.0563   0.00    0.0
2026/01/15 01:17:30.000   46.877096535    7.465037743   956.5155   6   8   0.0714   0.1280   0.1100   0.0204  -0.0537  -0.0557   0.00    0.0
2026/01/15 01:18:00.000   46.877096542    7.465037699   956.5147   6   8   0.0708   0.1271   0.1093   0.0202  -0.0534  -0.0551   0.00    0.0
2026/01/15 01:18:30.000   46.877096549    7.465037663   956.5140   6   8   0.0701   0.1263   0.1085   0.0201  -0.0530  -0.0545   0.00    0.0
2026/01/15 01:19:00.000   46.877096558    7.465037618   956.5129   6   8   0.0695   0.1254   0.1077   0.0199  -0.0526  -0.0538   0.00    0.0
2026/01/15 01:19:30.000   46.877096562    7.465037568   956.5116   6   8   0.0688   0.1245   0.1069   0.0197  -0.0523  -0.0531   0.00    0.0
2026/01/15 01:20:00.000   46.877096570    7.465037517   956.5103   6   8   0.0682   0.1236   0.1061   0.0196  -0.0519  -0.0525   0.00    0.0
2026/01/15 01:20:30.000   46.877096580    7.465037459   956.5088   6   8   0.0676   0.1227   0.1053   0.0194  -0.0516  -0.0518   0.00    0.0
2026/01/15 01:21:00.000   46.877096599    7.465037389   956.5067   6   8   0.0670   0.1219   0.1045   0.0192  -0.0512  -0.0512   0.00    0.0
2026/01/15 01:21:30.000   46.877096619    7.465037330   956.5049   6   8   0.0664   0.1211   0.1038   0.0191  -0.0509  -0.0507   0.00    0.0
2026/01/15 01:22:00.000   46.877096637    7.465037275   956.5030   6   8   0.0659   0.1204   0.1031   0.0189  -0.0506  -0.0501   0.00    0.0
2026/01/15 01:22:30.000   46.877096653    7.465037225   956.5012   6   8   0.0654   0.1197   0.1025   0.0188  -0.0503  -0.0496   0.00    0.0
2026/01/15 01:23:00.000   46.877096665    7.465037178   956.4997   6   8   0.0649   0.1190   0.1019   0.0186  -0.0500  -0.0491   0.00    0.0
2026/01/15 01:23:30.000   46.877096677    7.465037132   956.4985   6   8   0.0644   0.1182   0.1012   0.0184  -0.0497  -0.0486   0.00    0.0
2026/01/15 01:24:00.000   46.877096689    7.465037096   956.4976   6   8   0.0638   0.1174   0.1005   0.0182  -0.0494  -0.0480   0.00    0.0
2026/01/15 01:24:30.000   46.877096689    7.465037099   956.4984   6   7   0.0634   0.1170   0.0998   0.0171  -0.0487  -0.0476   0.00    0.0
2026/01/15 01:25:00.000   46.877096680    7.465037090   956.4985   6   7   0.0629   0.1165   0.0992   0.0159  -0.0480  -0.0472   0.00    0.0
2026/01/15 01:25:30.000   46.877096672    7.465037079   956.4984   6   7   0.0625   0.1161   0.0985   0.0146  -0.0473  -0.0468   0.00    0.0
2026/01/15 01:26:00.000   46.877096668    7.465037079   956.4987   6   7   0.0621   0.1157   0.0979   0.0133  -0.0467  -0.0464   0.00    0.0
2026/01/15 01:26:30.000   46.877096668    7.465037084   956.4992   6   7   0.0617   0.1153   0.0974   0.0120  -0.0460  -0.0461   0.00    0.0
2026/01/15 01:27:00.000   46.877096664    7.465037081   956.4994   6   7   0.0613   0.1149   0.0968   0.0106  -0.0454  -0.0457   0.00    0.0
2026/01/15 01:27:30.000   46.877096664    7.465037083   956.4999   6   7   0.0610   0.1146   0.0963   0.0091  -0.0449  -0.0454   0.00    0.0
2026/01/15 01:28:00.000   46.877096663    7.465037087   956.5005   6   7   0.0606   0.1142   0.0958   0.0073  -0.0443  -0.0451   0.00    0.0
2026/01/15 01:28:30.000   46.877096660    7.465037089   956.5010   6   7   0.0602   0.1138   0.0952   0.0046  -0.0437  -0.0448   0.00    0.0
2026/01/15 01:29:00.000   46.877096659    7.465037095   956.5016   6   7   0.0598   0.1134   0.0946  -0.0034  -0.0431  -0.0444   0.00    0.0
2026/01/15 01:29:30.000   46.877096652    7.465037094   956.5014   6   7   0.0594   0.1130   0.0940  -0.0067  -0.0424  -0.0441   0.00    0.0
2026/01/15 01:30:00.000   46.877096646    7.465037092   956.5010   6   7   0.0590   0.1127   0.0934  -0.0087  -0.0418  -0.0437   0.00    0.0
2026/01/15 01:30:30.000   46.877096645    7.465037097   956.5013   6   7   0.0587   0.1123   0.0929  -0.0104  -0.0412  -0.0434   0.00    0.0
2026/01/15 01:31:00.000   46.877096642    7.465037096   956.5013   6   7   0.0583   0.1119   0.0923  -0.0117  -0.0406  -0.0430   0.00    0.0
2026/01/15 01:31:30.000   46.877096636    7.465037086   956.5009   6   7   0.0579   0.1116   0.0918  -0.0128  -0.0400  -0.0427   0.00    0.0
2026/01/15 01:32:00.000   46.877096629    7.465037073   956.5006   6   7   0.0576   0.1112   0.0913  -0.0138  -0.0394  -0.0424   0.00    0.0
2026/01/15 01:32:30.000   46.877096624    7.465037061   956.5003   6   7   0.0573   0.1109   0.0908  -0.0146  -0.0389  -0.0422   0.00    0.0
2026/01/15 01:33:00.000   46.877096620    7.465037054   956.5002   6   7   0.0570   0.1106   0.0903  -0.0154  -0.0384  -0.0419   0.00    0.0
2026/01/15 01:33:30.000   46.877096616    7.465037048   956.5000   6   7   0.0566   0.1103   0.0898  -0.0162  -0.0378  -0.0416   0.00    0.0
2026/01/15 01:34:00.000   46.877096612    7.465037046   956.4998   6   7   0.0563   0.1100   0.0892  -0.0170  -0.0372  -0.0413   0.00    0.0
2026/01/15 01:34:30.000   46.877096606    7.465037037   956.4993   6   7   0.0559   0.1096   0.0887  -0.0178  -0.0366  -0.0410   0.00    0.0
2026/01/15 01:35:00.000   46.877096602    7.465037027   956.4991   6   7   0.0556   0.1093   0.0881  -0.0185  -0.0360  -0.0407   0.00    0.0
2026/01/15 01:35:30.000   46.877096597    7.465037018   956.4988   6   7   0.0552   0.1089   0.0876  -0.0192  -0.0354  -0.0403   0.00    0.0
2026/01/15 01:36:00.000   46.877096592    7.465037015   956.4987   6   7   0.0549   0.1086   0.0871  -0.0198  -0.0349  -0.0401   0.00    0.0
2026/01/15 01:36:30.000   46.877096588    7.465037007   956.4987   6   7   0.0546   0.1083   0.0866  -0.0204  -0.0343  -0.0398   0.00    0.0
2026/01/15 01:37:00.000   46.877096585    7.465037002   956.4988   6   7   0.0543   0.1080   0.0861  -0.0209  -0.0338  -0.0395   0.00    0.0
2026/01/15 01:37:30.000   46.877096583    7.465037002   956.4990   6   7   0.0540   0.1078   0.0857  -0.0213  -0.0333  -0.0393   0.00    0.0
2026/01/15 01:38:00.000   46.877096579    7.465037001   956.4991   6   7   0.0538   0.1075   0.0852  -0.0218  -0.0328  -0.0390   0.00    0.0
2026/01/15 01:38:30.000   46.877096576    7.465037000   956.4991   6   7   0.0535   0.1072   0.0847  -0.0222  -0.0323  -0.0388   0.00    0.0
2026/01/15 01:39:00.000   46.877096573    7.465036994   956.4989   6   7   0.0532   0.1069   0.0842  -0.0227  -0.0317  -0.0385   0.00    0.0
2026/01/15 01:39:30.000   46.877096569    7.465036985   956.4986   6   7   0.0528   0.1066   0.0837  -0.0232  -0.0311  -0.0382   0.00    0.0
2026/01/15 01:40:00.000   46.877096562    7.465036967   956.4978   6   7   0.0525   0.1063   0.0832  -0.0236  -0.0305  -0.0379   0.00    0.0
2026/01/15 01:40:30.000   46.877096556    7.465036953   956.4970   6   7   0.0522   0.1060   0.0827  -0.0241  -0.0300  -0.0377   0.00    0.0
2026/01/15 01:41:00.000   46.877096550    7.465036937   956.4962   6   7   0.0519   0.1057   0.0822  -0.0245  -0.0294  -0.0374   0.00    0.0
2026/01/15 01:41:30.000   46.877096544    7.465036917   956.4952   6   7   0.0516   0.1055   0.0817  -0.0249  -0.0289  -0.0371   0.00    0.0
2026/01/15 01:42:00.000   46.877096541    7.465036911   956.4951   6   7   0.0514   0.1052   0.0813  -0.0252  -0.0284  -0.0369   0.00    0.0
2026/01/15 01:42:30.000   46.877096536    7.465036899   956.4944   6   7   0.0511   0.1050   0.0809  -0.0255  -0.0279  -0.0367   0.00    0.0
2026/01/15 01:43:00.000   46.877096535    7.465036903   956.4943   6   7   0.0509   0.1048   0.0805  -0.0257  -0.0272  -0.0364   0.00    0.0
2026/01/15 01:43:30.000   46.877096534    7.465036907   956.4944   6   7   0.0507   0.1046   0.0801  -0.0260  -0.0265  -0.0361   0.00    0.0
2026/01/15 01:44:00.000   46.877096532    7.465036903   956.4948   6   6   0.0504   0.1044   0.0797  -0.0262  -0.0257  -0.0358   0.00    0.0
2026/01/15 01:44:30.000   46.877096531    7.465036901   956.4951   6   6   0.0501   0.1042   0.0793  -0.0264  -0.0248  -0.0355   0.00    0.0
2026/01/15 01:45:00.000   46.877096530    7.465036897   956.4955   6   6   0.0499   0.1040   0.0788  -0.0267  -0.0240  -0.0352   0.00    0.0
2026/01/15 01:45:30.000   46.877096529    7.465036898   956.4956   6   6   0.0496   0.1039   0.0784  -0.0269  -0.0231  -0.0349   0.00    0.0
2026/01/15 01:46:00.000   46.877096528    7.465036892   956.4960   6   6   0.0494   0.1037   0.0780  -0.0271  -0.0223  -0.0346   0.00    0.0
2026/01/15 01:46:30.000   46.877096527    7.465036882   956.4965   6   6   0.0491   0.1035   0.0777  -0.0273  -0.0214  -0.0344   0.00    0.0
2026/01/15 01:47:00.000   46.877096526    7.465036875   956.4968   6   6   0.0489   0.1034   0.0773  -0.0275  -0.0206  -0.0341   0.00    0.0
2026/01/15 01:47:30.000   46.877096525    7.465036868   956.4972   6   6   0.0487   0.1032   0.0770  -0.0277  -0.0199  -0.0339   0.00    0.0
2026/01/15 01:48:00.000   46.877096525    7.465036861   956.4976   6   6   0.0485   0.1031   0.0766  -0.0279  -0.0190  -0.0337   0.00    0.0
2026/01/15 01:48:30.000   46.877096524    7.465036853   956.4979   6   6   0.0483   0.1029   0.0763  -0.0281  -0.0181  -0.0334   0.00    0.0
2026/01/15 01:49:00.000   46.877096524    7.465036850   956.4981   6   6   0.0480   0.1027   0.0759  -0.0283  -0.0171  -0.0331   0.00    0.0
2026/01/15 01:49:30.000   46.877096523    7.465036851   956.4980   6   6   0.0478   0.1026   0.0755  -0.0285  -0.0160  -0.0329   0.00    0.0
2026/01/15 01:50:00.000   46.877096522    7.465036847   956.4981   6   6   0.0476   0.1024   0.0751  -0.0287  -0.0149  -0.0326   0.00    0.0
2026/01/15 01:50:30.000   46.877096521    7.465036845   956.4983   6   6   0.0473   0.1022   0.0748  -0.0289  -0.0137  -0.0324   0.00    0.0
2026/01/15 01:51:00.000   46.877096521    7.465036843   956.4983   6   6   0.0471   0.1021   0.0744  -0.0291  -0.0124  -0.0321   0.00    0.0
2026/01/15 01:51:30.000   46.877096520    7.465036841   956.4983   6   6   0.0469   0.1019   0.0741  -0.0292  -0.0111  -0.0319   0.00    0.0
2026/01/15 01:52:00.000   46.877096520    7.465036836   956.4983   6   6   0.0467   0.1018   0.0737  -0.0294  -0.0097  -0.0317   0.00    0.0
2026/01/15 01:52:30.000   46.877096520    7.465036831   956.4984   6   6   0.0465   0.1017   0.0734  -0.0296  -0.0083  -0.0315   0.00    0.0
2026/01/15 01:53:00.000   46.877096520    7.465036830   956.4984   6   6   0.0463   0.1015   0.0731  -0.0297  -0.0064  -0.0313   0.00    0.0
2026/01/15 01:53:30.000   46.877096520    7.465036823   956.4987   6   6   0.0461   0.1014   0.0728  -0.0299  -0.0034  -0.0311   0.00    0.0
2026/01/15 01:54:00.000   46.877096519    7.465036816   956.4989   6   6   0.0459   0.1012   0.0724  -0.0301   0.0043  -0.0308   0.00    0.0
2026/01/15 01:54:30.000   46.877096519    7.465036812   956.4990   6   6   0.0457   0.1011   0.0721  -0.0302   0.0070  -0.0306   0.00    0.0
2026/01/15 01:55:00.000   46.877096519    7.465036811   956.4990   6   6   0.0455   0.1009   0.0717  -0.0304   0.0089  -0.0304   0.00    0.0
2026/01/15 01:55:30.000   46.877096518    7.465036811   956.4989   6   6   0.0453   0.1008   0.0714  -0.0306   0.0104  -0.0302   0.00    0.0
2026/01/15 01:56:00.000   46.877096517    7.465036813   956.4986   6   6   0.0451   0.1006   0.0711  -0.0307   0.0116  -0.0300   0.00    0.0
2026/01/15 01:56:30.000   46.877096517    7.465036815   956.4981   6   6   0.0449   0.1005   0.0707  -0.0309   0.0127  -0.0298   0.00    0.0
2026/01/15 01:57:00.000   46.877096517    7.465036816   956.4979   6   6   0.0447   0.1004   0.0704  -0.0310   0.0136  -0.0296   0.00    0.0
2026/01/15 01:57:30.000   46.877096517    7.465036813   956.4978   6   6   0.0445   0.1002   0.0702  -0.0312   0.0144  -0.0294   0.00    0.0
2026/01/15 01:58:00.000   46.877096516    7.465036815   956.4974   6   6   0.0443   0.1001   0.0699  -0.0313   0.0152  -0.0293   0.00    0.0
2026/01/15 01:58:30.000   46.877096515    7.465036819   956.4970   6   6   0.0442   0.1000   0.0696  -0.0314   0.0160  -0.0291   0.00    0.0
2026/01/15 01:59:00.000   46.877096514    7.465036823   956.4965   6   6   0.0440   0.0998   0.0693  -0.0316   0.0167  -0.0289   0.00    0.0
2026/01/15 01:59:30.000   46.877096514    7.465036821   956.4962   6   6   0.0438   0.0997   0.0689  -0.0318   0.0175  -0.0287   0.00    0.0
2026/01/15 02:00:00.000   46.877096514    7.465036817   956.4962   6   6   0.0436   0.0996   0.0686  -0.0319   0.0182  -0.0285   0.00    0.0
2026/01/15 02:00:30.000   46.877096513    7.465036815   956.4961   6   6   0.0434   0.0994   0.0683  -0.0321   0.0188  -0.0283   0.00    0.0
2026/01/15 02:01:00.000   46.877096513    7.465036815   956.4957   6   7   0.0432   0.0993   0.0680  -0.0322   0.0194  -0.0282   0.00    0.0
2026/01/15 02:01:30.000   46.877096513    7.465036812   956.4951   6   7   0.0430   0.0991   0.0677  -0.0323   0.0200  -0.0280   0.00    0.0
2026/01/15 02:02:00.000   46.877096513    7.465036809   956.4947   6   7   0.0429   0.0990   0.0674  -0.0324   0.0205  -0.0279   0.00    0.0
2026/01/15 02:02:30.000   46.877096514    7.465036804   956.4946   6   7   0.0427   0.0989   0.0672  -0.0326   0.0209  -0.0277   0.00    0.0
2026/01/15 02:03:00.000   46.877096513    7.465036799   956.4945   6   7   0.0426   0.0988   0.0669  -0.0327   0.0214  -0.0276   0.00    0.0
2026/01/15 02:03:30.000   46.877096513    7.465036796   956.4943   6   7   0.0424   0.0986   0.0666  -0.0328   0.0218  -0.0274   0.00    0.0
2026/01/15 02:04:00.000   46.877096513    7.465036793   956.4941   6   7   0.0422   0.0985   0.0663  -0.0329   0.0223  -0.0273   0.00    0.0
2026/01/15 02:04:30.000   46.877096513    7.465036787   956.4939   6   7   0.0421   0.0984   0.0660  -0.0331   0.0228  -0.0271   0.00    0.0
2026/01/15 02:05:00.000   46.877096513    7.465036783   956.4936   6   7   0.0419   0.0982   0.0657  -0.0332   0.0232  -0.0270   0.00    0.0
2026/01/15 02:05:30.000   46.877096513    7.465036781   956.4934   6   7   0.0417   0.0981   0.0654  -0.0333   0.0236  -0.0268   0.00    0.0
2026/01/15 02:06:00.000   46.877096512    7.465036776   956.4932   6   7   0.0416   0.0979   0.0651  -0.0335   0.0240  -0.0267   0.00    0.0
2026/01/15 02:06:30.000   46.877096512    7.465036774   956.4929   6   7   0.0414   0.0978   0.0649  -0.0336   0.0244  -0.0265   0.00    0.0
2026/01/15 02:07:00.000   46.877096513    7.465036771   956.4926   6   7   0.0413   0.0977   0.0646  -0.0337   0.0247  -0.0264   0.00    0.0
2026/01/15 02:07:30.000   46.877096513    7.465036766   956.4922   6   7   0.0411   0.0976   0.0644  -0.0338   0.0250  -0.0263   0.00    0.0
2026/01/15 02:08:00.000   46.877096513    7.465036762   956.4918   6   7   0.0410   0.0974   0.0641  -0.0339   0.0253  -0.0262   0.00    0.0
2026/01/15 02:08:30.000   46.877096513    7.465036758   956.4914   6   7   0.0409   0.0973   0.0639  -0.0340   0.0256  -0.0261   0.00    0.0
2026/01/15 02:09:00.000   46.877096513    7.465036753   956.4911   6   7   0.0407   0.0972   0.0636  -0.0341   0.0260  -0.0259   0.00    0.0
2026/01/15 02:09:30.000   46.877096513    7.465036748   956.4907   6   7   0.0406   0.0970   0.0633  -0.0342   0.0263  -0.0258   0.00    0.0
2026/01/15 02:10:00.000   46.877096513    7.465036743   956.4903   6   7   0.0404   0.0969   0.0630  -0.0344   0.0266  -0.0257   0.00    0.0
2026/01/15 02:10:30.000   46.877096513    7.465036736   956.4899   6   7   0.0403   0.0968   0.0627  -0.0345   0.0269  -0.0256   0.00    0.0
2026/01/15 02:11:00.000   46.877096514    7.465036728   956.4896   6   7   0.0401   0.0966   0.0625  -0.0346   0.0272  -0.0255   0.00    0.0
2026/01/15 02:11:30.000   46.877096514    7.465036722   956.4894   6   7   0.0400   0.0965   0.0622  -0.0347   0.0275  -0.0254   0.00    0.0
2026/01/15 02:12:00.000   46.877096515    7.465036716   956.4892   6   8   0.0398   0.0964   0.0620  -0.0348   0.0277  -0.0253   0.00    0.0
2026/01/15 02:12:30.000   46.877096516    7.465036709   956.4889   6   8   0.0397   0.0963   0.0618  -0.0349   0.0279  -0.0252   0.00    0.0
2026/01/15 02:13:00.000   46.877096516    7.465036704   956.4883   6   8   0.0396   0.0961   0.0615  -0.0350   0.0281  -0.0251   0.00    0.0
2026/01/15 02:13:30.000   46.877096516    7.465036699   956.4879   6   8   0.0395   0.0960   0.0613  -0.0351   0.0284  -0.0250   0.00    0.0
2026/01/15 02:14:00.000   46.877096517    7.465036691   956.4876   6   8   0.0393   0.0959   0.0610  -0.0352   0.0286  -0.0249   0.00    0.0
2026/01/15 02:14:30.000   46.877096516    7.465036687   956.4870   6   8   0.0392   0.0957   0.0608  -0.0353   0.0288  -0.0248   0.00    0.0
2026/01/15 02:15:00.000   46.877096516    7.465036681   956.4864   6   8   0.0391   0.0956   0.0605  -0.0354   0.0291  -0.0247   0.00    0.0
2026/01/15 02:15:30.000   46.877096516    7.465036673   956.4860   6   8   0.0389   0.0954   0.0602  -0.0355   0.0293  -0.0246   0.00    0.0
2026/01/15 02:16:00.000   46.877096516    7.465036665   956.4856   6   8   0.0388   0.0953   0.0600  -0.0356   0.0295  -0.0245   0.00    0.0
2026/01/15 02:16:30.000   46.877096516    7.465036655   956.4852   6   8   0.0387   0.0952   0.0598  -0.0357   0.0297  -0.0244   0.00    0.0
2026/01/15 02:17:00.000   46.877096516    7.465036649   956.4846   6   8   0.0386   0.0950   0.0595  -0.0357   0.0298  -0.0244   0.00    0.0
2026/01/15 02:17:30.000   46.877096515    7.465036644   956.4840   6   8   0.0385   0.0949   0.0593  -0.0358   0.0300  -0.0243   0.00    0.0
2026/01/15 02:18:00.000   46.877096515    7.465036638   956.4834   6   8   0.0384   0.0948   0.0591  -0.0359   0.0302  -0.0242   0.00    0.0
2026/01/15 02:18:30.000   46.877096516    7.465036625   956.4830   6   8   0.0383   0.0946   0.0589  -0.0360   0.0303  -0.0241   0.00    0.0
2026/01/15 02:19:00.000   46.877096516    7.465036615   956.4825   6   8   0.0381   0.0945   0.0586  -0.0361   0.0305  -0.0241   0.00    0.0
2026/01/15 02:19:30.000   46.877096515    7.465036608   956.4815   6   8   0.0380   0.0944   0.0584  -0.0362   0.0307  -0.0240   0.00    0.0
2026/01/15 02:20:00.000   46.877096514    7.465036602   956.4803   6   8   0.0379   0.0942   0.0582  -0.0363   0.0308  -0.0239   0.00    0.0
2026/01/15 02:20:30.000   46.877096513    7.465036596   956.4795   6   8   0.0378   0.0941   0.0579  -0.0363   0.0310  -0.0238   0.00    0.0
2026/01/15 02:21:00.000   46.877096512    7.465036591   956.4786   6   8   0.0377   0.0939   0.0577  -0.0364   0.0311  -0.0238   0.00    0.0
2026/01/15 02:21:30.000   46.877096511    7.465036583   956.4777   6   8   0.0376   0.0938   0.0575  -0.0365   0.0313  -0.0237   0.00    0.0
2026/01/15 02:22:00.000   46.877096510    7.465036574   956.4767   6   8   0.0375   0.0936   0.0572  -0.0366   0.0314  -0.0236   0.00    0.0
2026/01/15 02:22:30.000   46.877096508    7.465036568   956.4758   6   8   0.0374   0.0935   0.0571  -0.0366   0.0315  -0.0236   0.00    0.0
2026/01/15 02:23:00.000   46.877096507    7.465036566   956.4748   6   8   0.0373   0.0934   0.0568  -0.0367   0.0316  -0.0235   0.00    0.0
2026/01/15 02:23:30.000   46.877096505    7.465036562   956.4737   6   8   0.0372   0.0932   0.0566  -0.0368   0.0317  -0.0235   0.00    0.0
2026/01/15 02:24:00.000   46.877096503    7.465036556   956.4724   6   8   0.0371   0.0931   0.0564  -0.0369   0.0319  -0.0234   0.00    0.0
2026/01/15 02:24:30.000   46.877096501    7.465036553   956.4710   6   8   0.0370   0.0929   0.0562  -0.0369   0.0320  -0.0234   0.00    0.0
2026/01/15 02:25:00.000   46.877096499    7.465036547   956.4698   6   8   0.0369   0.0928   0.0559  -0.0370   0.0321  -0.0233   0.00    0.0
2026/01/15 02:25:30.000   46.877096498    7.465036537   956.4688   6   8   0.0368   0.0926   0.0557  -0.0371   0.0322  -0.0232   0.00    0.0
2026/01/15 02:26:00.000   46.877096499    7.465036531   956.4686   6   7   0.0367   0.0925   0.0556  -0.0371   0.0324  -0.0231   0.00    0.0
2026/01/15 02:26:30.000   46.877096499    7.465036526   956.4684   6   7   0.0366   0.0923   0.0555  -0.0372   0.0325  -0.0230   0.00    0.0
2026/01/15 02:27:00.000   46.877096500    7.465036520   956.4684   6   7   0.0365   0.0922   0.0554  -0.0373   0.0326  -0.0230   0.00    0.0
2026/01/15 02:27:30.000   46.877096501    7.465036513   956.4683   6   7   0.0364   0.0921   0.0553  -0.0373   0.0327  -0.0229   0.00    0.0
2026/01/15 02:28:00.000   46.877096502    7.465036507   956.4682   6   7   0.0364   0.0919   0.0552  -0.0374   0.0328  -0.0228   0.00    0.0
2026/01/15 02:28:30.000   46.877096504    7.465036499   956.4682   6   7   0.0363   0.0918   0.0551  -0.0374   0.0329  -0.0227   0.00    0.0
2026/01/15 02:29:00.000   46.877096504    7.465036492   956.4682   6   7   0.0362   0.0916   0.0550  -0.0375   0.0331  -0.0226   0.00    0.0
2026/01/15 02:29:30.000   46.877096505    7.465036486   956.4681   6   7   0.0361   0.0915   0.0549  -0.0375   0.0332  -0.0225   0.00    0.0
2026/01/15 02:30:00.000   46.877096506    7.465036482   956.4680   6   7   0.0360   0.0913   0.0547  -0.0376   0.0333  -0.0224   0.00    0.0
2026/01/15 02:30:30.000   46.877096507    7.465036475   956.4680   6   7   0.0359   0.0912   0.0546  -0.0376   0.0335  -0.0223   0.00    0.0
2026/01/15 02:31:00.000   46.877096508    7.465036469   956.4679   6   7   0.0358   0.0910   0.0545  -0.0377   0.0336  -0.0223   0.00    0.0
2026/01/15 02:31:30.000   46.877096508    7.465036468   956.4678   6   7   0.0358   0.0908   0.0544  -0.0377   0.0337  -0.0222   0.00    0.0
2026/01/15 02:32:00.000   46.877096508    7.465036468   956.4676   6   7   0.0357   0.0907   0.0543  -0.0378   0.0338  -0.0221   0.00    0.0
2026/01/15 02:32:30.000   46.877096508    7.465036466   956.4675   6   7   0.0356   0.0906   0.0542  -0.0378   0.0339  -0.0220   0.00    0.0
2026/01/15 02:33:00.000   46.877096508    7.465036466   956.4672   6   7   0.0356   0.0904   0.0541  -0.0378   0.0340  -0.0220   0.00    0.0
2026/01/15 02:33:30.000   46.877096508    7.465036467   956.4670   6   7   0.0355   0.0903   0.0540  -0.0379   0.0341  -0.0219   0.00    0.0
2026/01/15 02:34:00.000   46.877096508    7.465036464   956.4669   6   7   0.0354   0.0901   0.0539  -0.0379   0.0342  -0.0218   0.00    0.0
2026/01/15 02:34:30.000   46.877096509    7.465036462   956.4668   6   7   0.0353   0.0899   0.0538  -0.0379   0.0343  -0.0218   0.00    0.0
2026/01/15 02:35:00.000   46.877096509    7.465036458   956.4667   6   7   0.0352   0.0898   0.0537  -0.0380   0.0344  -0.0217   0.00    0.0
2026/01/15 02:35:30.000   46.877096509    7.465036455   956.4665   6   7   0.0352   0.0896   0.0536  -0.0380   0.0345  -0.0216   0.00    0.0
2026/01/15 02:36:00.000   46.877096510    7.465036452   956.4663   6   7   0.0351   0.0895   0.0535  -0.0380   0.0346  -0.0216   0.00    0.0
2026/01/15 02:36:30.000   46.877096510    7.465036448   956.4662   6   7   0.0350   0.0893   0.0534  -0.0381   0.0347  -0.0215   0.00    0.0
2026/01/15 02:37:00.000   46.877096511    7.465036442   956.4662   6   7   0.0349   0.0892   0.0533  -0.0381   0.0348  -0.0215   0.00    0.0
2026/01/15 02:37:30.000   46.877096512    7.465036438   956.4661   6   7   0.0349   0.0890   0.0532  -0.0381   0.0349  -0.0214   0.00    0.0
2026/01/15 02:38:00.000   46.877096514    7.465036429   956.4661   6   7   0.0348   0.0889   0.0531  -0.0381   0.0350  -0.0214   0.00    0.0
2026/01/15 02:38:30.000   46.877096515    7.465036421   956.4661   6   7   0.0347   0.0887   0.0530  -0.0382   0.0350  -0.0213   0.00    0.0
2026/01/15 02:39:00.000   46.877096516    7.465036416   956.4660   6   7   0.0347   0.0885   0.0529  -0.0382   0.0351  -0.0213   0.00    0.0
2026/01/15 02:39:30.000   46.877096517    7.465036411   956.4658   6   7   0.0346   0.0884   0.0527  -0.0382   0.0352  -0.0212   0.00    0.0
2026/01/15 02:40:00.000   46.877096518    7.465036404   956.4655   6   7   0.0345   0.0882   0.0526  -0.0382   0.0353  -0.0212   0.00    0.0
2026/01/15 02:40:30.000   46.877096518    7.465036399   956.4653   6   7   0.0345   0.0880   0.0525  -0.0383   0.0354  -0.0211   0.00    0.0
2026/01/15 02:41:00.000   46.877096519    7.465036394   956.4652   6   7   0.0344   0.0879   0.0524  -0.0383   0.0355  -0.0211   0.00    0.0
2026/01/15 02:41:30.000   46.877096520    7.465036390   956.4650   6   7   0.0343   0.0877   0.0523  -0.0383   0.0356  -0.0211   0.00    0.0
2026/01/15 02:42:00.000   46.877096520    7.465036388   956.4648   6   7   0.0343   0.0875   0.0522  -0.0383   0.0356  -0.0210   0.00    0.0
2026/01/15 02:42:30.000   46.877096520    7.465036387   956.4644   6   7   0.0342   0.0874   0.0521  -0.0383   0.0357  -0.0210   0.00    0.0
2026/01/15 02:43:00.000   46.877096520    7.465036386   956.4641   6   7   0.0341   0.0872   0.0520  -0.0383   0.0358  -0.0210   0.00    0.0
2026/01/15 02:43:30.000   46.877096520    7.465036381   956.4638   6   7   0.0341   0.0871   0.0519  -0.0383   0.0358  -0.0209   0.00    0.0
2026/01/15 02:44:00.000   46.877096521    7.465036377   956.4635   6   7   0.0340   0.0869   0.0518  -0.0383   0.0359  -0.0209   0.00    0.0
2026/01/15 02:44:30.000   46.877096521    7.465036374   956.4633   6   7   0.0339   0.0867   0.0517  -0.0384   0.0360  -0.0209   0.00    0.0
2026/01/15 02:45:00.000   46.877096522    7.465036369   956.4630   6   7   0.0339   0.0866   0.0516  -0.0384   0.0361  -0.0208   0.00    0.0
2026/01/15 02:45:30.000   46.877096524    7.465036361   956.4627   6   7   0.0338   0.0864   0.0515  -0.0384   0.0361  -0.0208   0.00    0.0
2026/01/15 02:46:00.000   46.877096526    7.465036353   956.4626   6   7   0.0337   0.0862   0.0513  -0.0384   0.0362  -0.0208   0.00    0.0
2026/01/15 02:46:30.000   46.877096527    7.465036346   956.4624   6   7   0.0337   0.0860   0.0512  -0.0384   0.0363  -0.0208   0.00    0.0
2026/01/15 02:47:00.000   46.877096529    7.465036339   956.4622   6   7   0.0336   0.0859   0.0511  -0.0384   0.0363  -0.0207   0.00    0.0
2026/01/15 02:47:30.000   46.877096529    7.465036338   956.4619   6   7   0.0336   0.0857   0.0510  -0.0384   0.0364  -0.0207   0.00    0.0
2026/01/15 02:48:00.000   46.877096528    7.465036339   956.4616   6   7   0.0335   0.0856   0.0509  -0.0384   0.0364  -0.0207   0.00    0.0
2026/01/15 02:48:30.000   46.877096530    7.465036332   956.4613   6   7   0.0334   0.0854   0.0508  -0.0384   0.0365  -0.0207   0.00    0.0
2026/01/15 02:49:00.000   46.877096532    7.465036323   956.4611   6   7   0.0334   0.0852   0.0507  -0.0384   0.0365  -0.0206   0.00    0.0
2026/01/15 02:49:30.000   46.877096533    7.465036317   956.4607   6   7   0.0333   0.0851   0.0506  -0.0384   0.0366  -0.0206   0.00    0.0
2026/01/15 02:50:00.000   46.877096534    7.465036312   956.4604   6   7   0.0332   0.0849   0.0505  -0.0384   0.0366  -0.0206   0.00    0.0
2026/01/15 02:50:30.000   46.877096535    7.465036304   956.4602   6   7   0.0332   0.0847   0.0504  -0.0384   0.0367  -0.0206   0.00    0.0
2026/01/15 02:51:00.000   46.877096538    7.465036292   956.4600   6   7   0.0331   0.0845   0.0503  -0.0384   0.0367  -0.0206   0.00    0.0
2026/01/15 02:51:30.000   46.877096540    7.465036280   956.4598   6   7   0.0330   0.0843   0.0502  -0.0384   0.0368  -0.0206   0.00    0.0
2026/01/15 02:52:00.000   46.877096543    7.465036269   956.4595   6   7   0.0330   0.0842   0.0501  -0.0384   0.0368  -0.0206   0.00    0.0
2026/01/15 02:52:30.000   46.877096544    7.465036261   956.4593   6   7   0.0329   0.0840   0.0500  -0.0383   0.0369  -0.0205   0.00    0.0
2026/01/15 02:53:00.000   46.877096546    7.465036252   956.4591   6   7   0.0329   0.0839   0.0499  -0.0383   0.0369  -0.0205   0.00    0.0
2026/01/15 02:53:30.000   46.877096548    7.465036244   956.4588   6   7   0.0328   0.0837   0.0498  -0.0383   0.0369  -0.0205   0.00    0.0
2026/01/15 02:54:00.000   46.877096549    7.465036238   956.4585   6   7   0.0328   0.0835   0.0496  -0.0383   0.0370  -0.0205   0.00    0.0
2026/01/15 02:54:30.000   46.877096550    7.465036232   956.4582   6   7   0.0327   0.0833   0.0495  -0.0383   0.0370  -0.0205   0.00    0.0
2026/01/15 02:55:00.000   46.877096551    7.465036226   956.4579   6   7   0.0326   0.0831   0.0494  -0.0383   0.0370  -0.0205   0.00    0.0
2026/01/15 02:55:30.000   46.877096552    7.465036221   956.4575   6   7   0.0326   0.0829   0.0493  -0.0383   0.0371  -0.0205   0.00    0.0
2026/01/15 02:56:00.000   46.877096553    7.465036216   956.4572   6   7   0.0325   0.0828   0.0492  -0.0382   0.0371  -0.0205   0.00    0.0
2026/01/15 02:56:30.000   46.877096554    7.465036209   956.4569   6   7   0.0324   0.0826   0.0491  -0.0382   0.0371  -0.0205   0.00    0.0
2026/01/15 02:57:00.000   46.877096555    7.465036205   956.4564   6   7   0.0324   0.0824   0.0490  -0.0382   0.0372  -0.0205   0.00    0.0
2026/01/15 02:57:30.000   46.877096554    7.465036202   956.4560   6   7   0.0323   0.0823   0.0489  -0.0382   0.0372  -0.0205   0.00    0.0
2026/01/15 02:58:00.000   46.877096554    7.465036200   956.4554   6   7   0.0323   0.0821   0.0488  -0.0382   0.0372  -0.0205   0.00    0.0
2026/01/15 02:58:30.000   46.877096553    7.465036200   956.4548   6   7   0.0322   0.0819   0.0487  -0.0381   0.0372  -0.0204   0.00    0.0
2026/01/15 02:59:00.000   46.877096551    7.465036199   956.4540   6   7   0.0322   0.0817   0.0485  -0.0381   0.0372  -0.0204   0.00    0.0
2026/01/15 02:59:30.000   46.877096549    7.465036199   956.4534   6   7   0.0321   0.0815   0.0484  -0.0381   0.0373  -0.0204   0.00    0.0
2026/01/15 03:00:00.000   46.877096550    7.465036191   956.4530   6   7   0.0320   0.0813   0.0483  -0.0381   0.0373  -0.0204   0.00    0.0
2026/01/15 03:00:30.000   46.877096552    7.465036185   956.4525   6   7   0.0320   0.0811   0.0482  -0.0380   0.0373  -0.0204   0.00    0.0
2026/01/15 03:01:00.000   46.877096552    7.465036180   956.4521   6   7   0.0319   0.0810   0.0481  -0.0380   0.0373  -0.0204   0.00    0.0
2026/01/15 03:01:30.000   46.877096551    7.465036178   956.4516   6   7   0.0319   0.0808   0.0480  -0.0380   0.0373  -0.0204   0.00    0.0
2026/01/15 03:02:00.000   46.877096551    7.465036176   956.4510   6   7   0.0318   0.0806   0.0478  -0.0380   0.0373  -0.0204   0.00    0.0
2026/01/15 03:02:30.000   46.877096550    7.465036173   956.4505   6   7   0.0318   0.0804   0.0478  -0.0379   0.0373  -0.0204   0.00    0.0
2026/01/15 03:03:00.000   46.877096549    7.465036175   956.4500   6   7   0.0317   0.0803   0.0476  -0.0379   0.0374  -0.0204   0.00    0.0
2026/01/15 03:03:30.000   46.877096548    7.465036174   956.4494   6   7   0.0316   0.0801   0.0475  -0.0379   0.0374  -0.0204   0.00    0.0
2026/01/15 03:04:00.000   46.877096547    7.465036175   956.4489   6   7   0.0316   0.0799   0.0474  -0.0378   0.0374  -0.0204   0.00    0.0
2026/01/15 03:04:30.000   46.877096547    7.465036172   956.4484   6   7   0.0315   0.0797   0.0473  -0.0378   0.0374  -0.0204   0.00    0.0
2026/01/15 03:05:00.000   46.877096548    7.465036166   956.4480   6   7   0.0315   0.0795   0.0472  -0.0378   0.0374  -0.0204   0.00    0.0
2026/01/15 03:05:30.000   46.877096548    7.465036163   956.4474   6   7   0.0314   0.0793   0.0471  -0.0377   0.0374  -0.0204   0.00    0.0
2026/01/15 03:06:00.000   46.877096549    7.465036157   956.4470   6   7   0.0313   0.0791   0.0469  -0.0377   0.0374  -0.0204   0.00    0.0
2026/01/15 03:06:30.000   46.877096551    7.465036149   956.4466   6   7   0.0313   0.0789   0.0468  -0.0377   0.0374  -0.0204   0.00    0.0
2026/01/15 03:07:00.000   46.877096552    7.465036143   956.4462   6   7   0.0312   0.0788   0.0467  -0.0376   0.0374  -0.0204   0.00    0.0
2026/01/15 03:07:30.000   46.877096551    7.465036141   956.4457   6   7   0.0312   0.0786   0.0466  -0.0376   0.0373  -0.0204   0.00    0.0
2026/01/15 03:08:00.000   46.877096550    7.465036142   956.4451   6   7   0.0311   0.0784   0.0465  -0.0376   0.0373  -0.0204   0.00    0.0
2026/01/15 03:08:30.000   46.877096549    7.465036145   956.4444   6   7   0.0311   0.0782   0.0464  -0.0375   0.0373  -0.0204   0.00    0.0
2026/01/15 03:09:00.000   46.877096547    7.465036149   956.4438   6   7   0.0310   0.0780   0.0463  -0.0375   0.0373  -0.0204   0.00    0.0
2026/01/15 03:09:30.000   46.877096547    7.465036146   956.4432   6   7   0.0310   0.0778   0.0462  -0.0374   0.0373  -0.0204   0.00    0.0
2026/01/15 03:10:00.000   46.877096548    7.465036143   956.4427   6   7   0.0309   0.0776   0.0460  -0.0374   0.0373  -0.0204   0.00    0.0
2026/01/15 03:10:30.000   46.877096549    7.465036142   956.4422   6   7   0.0308   0.0774   0.0459  -0.0373   0.0373  -0.0204   0.00    0.0
2026/01/15 03:11:00.000   46.877096550    7.465036140   956.4417   6   7   0.0308   0.0773   0.0458  -0.0373   0.0373  -0.0204   0.00    0.0
2026/01/15 03:11:30.000   46.877096551    7.465036135   956.4412   6   7   0.0307   0.0771   0.0457  -0.0372   0.0372  -0.0204   0.00    0.0
2026/01/15 03:12:00.000   46.877096551    7.465036134   956.4407   6   7   0.0307   0.0769   0.0456  -0.0372   0.0372  -0.0204   0.00    0.0
2026/01/15 03:12:30.000   46.877096551    7.465036134   956.4402   6   7   0.0306   0.0767   0.0455  -0.0372   0.0372  -0.0204   0.00    0.0
2026/01/15 03:13:00.000   46.877096552    7.465036130   956.4397   6   7   0.0306   0.0765   0.0454  -0.0371   0.0372  -0.0204   0.00    0.0
2026/01/15 03:13:30.000   46.877096554    7.465036124   956.4392   6   7   0.0305   0.0763   0.0452  -0.0371   0.0372  -0.0204   0.00    0.0
2026/01/15 03:14:00.000   46.877096555    7.465036121   956.4385   6   7   0.0304   0.0762   0.0451  -0.0370   0.0371  -0.0204   0.00    0.0
2026/01/15 03:14:30.000   46.877096554    7.465036122   956.4380   6   7   0.0304   0.0759   0.0450  -0.0370   0.0371  -0.0204   0.00    0.0
2026/01/15 03:15:00.000   46.877096556    7.465036119   956.4375   6   7   0.0303   0.0757   0.0449  -0.0369   0.0371  -0.0204   0.00    0.0
2026/01/15 03:15:30.000   46.877096557    7.465036114   956.4370   6   8   0.0303   0.0755   0.0447  -0.0369   0.0370  -0.0204   0.00    0.0
2026/01/15 03:16:00.000   46.877096558    7.465036110   956.4365   6   8   0.0302   0.0753   0.0446  -0.0368   0.0370  -0.0204   0.00    0.0
2026/01/15 03:16:30.000   46.877096558    7.465036110   956.4361   6   8   0.0301   0.0751   0.0445  -0.0367   0.0370  -0.0204   0.00    0.0
2026/01/15 03:17:00.000   46.877096559    7.465036108   956.4357   6   8   0.0301   0.0750   0.0444  -0.0367   0.0369  -0.0204   0.00    0.0
2026/01/15 03:17:30.000   46.877096559    7.465036109   956.4350   6   8   0.0300   0.0748   0.0443  -0.0366   0.0369  -0.0204   0.00    0.0
2026/01/15 03:18:00.000   46.877096558    7.465036109   956.4344   6   8   0.0300   0.0746   0.0442  -0.0366   0.0369  -0.0204   0.00    0.0
2026/01/15 03:18:30.000   46.877096559    7.465036106   956.4337   6   8   0.0299   0.0744   0.0441  -0.0365   0.0368  -0.0204   0.00    0.0
2026/01/15 03:19:00.000   46.877096561    7.465036101   956.4331   6   8   0.0299   0.0742   0.0440  -0.0365   0.0368  -0.0204   0.00    0.0
2026/01/15 03:19:30.000   46.877096562    7.465036096   956.4324   6   8   0.0298   0.0740   0.0438  -0.0364   0.0367  -0.0204   0.00    0.0
2026/01/15 03:20:00.000   46.877096564    7.465036093   956.4318   6   8   0.0297   0.0738   0.0437  -0.0364   0.0367  -0.0204   0.00    0.0
2026/01/15 03:20:30.000   46.877096564    7.465036089   956.4312   6   8   0.0297   0.0736   0.0436  -0.0363   0.0366  -0.0204   0.00    0.0
2026/01/15 03:21:00.000   46.877096563    7.465036091   956.4304   6   8   0.0296   0.0734   0.0435  -0.0362   0.0366  -0.0203   0.00    0.0
2026/01/15 03:21:30.000   46.877096562    7.465036092   956.4296   6   8   0.0296   0.0732   0.0433  -0.0362   0.0365  -0.0203   0.00    0.0
2026/01/15 03:22:00.000   46.877096561    7.465036093   956.4289   6   8   0.0295   0.0730   0.0432  -0.0361   0.0365  -0.0203   0.00    0.0
2026/01/15 03:22:30.000   46.877096562    7.465036089   956.4283   6   8   0.0295   0.0728   0.0431  -0.0360   0.0364  -0.0203   0.00    0.0
2026/01/15 03:23:00.000   46.877096563    7.465036087   956.4277   6   8   0.0294   0.0726   0.0430  -0.0360   0.0364  -0.0203   0.00    0.0
2026/01/15 03:23:30.000   46.877096563    7.465036084   956.4270   6   8   0.0293   0.0724   0.0429  -0.0359   0.0363  -0.0203   0.00    0.0
2026/01/15 03:24:00.000   46.877096565    7.465036078   956.4264   6   8   0.0293   0.0722   0.0428  -0.0359   0.0363  -0.0203   0.00    0.0
2026/01/15 03:24:30.000   46.877096568    7.465036071   956.4257   6   8   0.0292   0.0720   0.0426  -0.0358   0.0362  -0.0203   0.00    0.0
2026/01/15 03:25:00.000   46.877096570    7.465036064   956.4249   6   8   0.0291   0.0718   0.0425  -0.0357   0.0362  -0.0203   0.00    0.0
2026/01/15 03:25:30.000   46.877096570    7.465036061   956.4241   6   8   0.0291   0.0716   0.0424  -0.0356   0.0361  -0.0203   0.00    0.0
2026/01/15 03:26:00.000   46.877096572    7.465036057   956.4233   6   8   0.0290   0.0714   0.0423  -0.0356   0.0360  -0.0203   0.00    0.0
2026/01/15 03:26:30.000   46.877096573    7.465036052   956.4224   6   8   0.0290   0.0712   0.0422  -0.0355   0.0360  -0.0202   0.00    0.0
