% program   : RTKLIB ver.EX 2.5.0
% inp file  : C:\Users\tevin\Desktop\GNSS - MASTA\SPRING SEM\4.SAT NAV DATA PROCESSING\TEAM PROJECT\SNDP-PROJECT\Old_data\data\ZIM200CHE_R_20260150000_01D_30S_MO.rnx
% inp file  : C:\Users\tevin\Desktop\GNSS - MASTA\SPRING SEM\4.SAT NAV DATA PROCESSING\TEAM PROJECT\SNDP-PROJECT\Old_data\products\nav\BRDC00IGS_R_20260150000_01D_MN.rnx
% inp file  : C:\Users\tevin\Desktop\GNSS - MASTA\SPRING SEM\4.SAT NAV DATA PROCESSING\TEAM PROJECT\SNDP-PROJECT\Old_data\products\sp3\COD0MGXFIN_20260150000_01D_05M_ORB.SP3
% inp file  : C:\Users\tevin\Desktop\GNSS - MASTA\SPRING SEM\4.SAT NAV DATA PROCESSING\TEAM PROJECT\SNDP-PROJECT\Old_data\products\clk\COD0MGXFIN_20260150000_01D_30S_CLK.CLK
% inp file  : C:\Users\tevin\Desktop\GNSS - MASTA\SPRING SEM\4.SAT NAV DATA PROCESSING\TEAM PROJECT\SNDP-PROJECT\Old_data\products\bia\COD0MGXFIN_20260150000_01D_01D_OSB.BIA
% obs start : 2026/01/15 00:00:00.0 GPST (week2401 345600.0s)
% obs end   : 2026/01/15 23:59:30.0 GPST (week2401 431970.0s)
% pos mode  : PPP Static
% freqs     : L1+L2/E5b
% solution  : Forward
% elev mask : 15.0 deg
% dynamics  : on
% tidecorr  :
% ionos opt : Iono-Free LC
% tropo opt : Saastamoinen
% ephemeris : Precise
% navi sys  : GPS Galileo BDS
% antenna1  : TRM59800.00     NONE  ( 0.0000  0.0000  0.0000)
%
% (lat/lon/height=WGS84/ellipsoidal,Q=1:fix,2:float,3:sbas,4:dgps,5:single,6:ppp,ns=# of satellites)
%  GPST                  latitude(deg) longitude(deg)  height(m)   Q  ns   sdn(m)   sde(m)   sdu(m)  sdne(m)  sdeu(m)  sdun(m) age(s)  ratio
2026/01/15 00:00:00.000   46.877097698    7.465040067   956.4903   6  11   3.2200   2.7185   6.3287  -0.4834   0.7836  -1.3176   0.00    0.0
2026/01/15 00:00:30.000   46.877097681    7.465039111   956.5669   6   9   2.2229   1.8616   4.3380   0.3549  -0.5043  -0.5276   0.00    0.0
2026/01/15 00:01:00.000   46.877096535    7.465038415   956.7854   6   8   1.8028   1.5074   3.5085   0.3481  -0.5149  -0.3003   0.00    0.0
2026/01/15 00:01:30.000   46.877096381    7.465037767   956.9022   6   8   1.5550   1.3002   3.0189   0.3194  -0.4819  -0.1963   0.00    0.0
2026/01/15 00:02:00.000   46.877096351    7.465037590   956.9710   6   8   1.3862   1.1601   2.6841   0.2928  -0.4486  -0.1446   0.00    0.0
2026/01/15 00:02:30.000   46.877096177    7.465037335   957.0327   6   8   1.2614   1.0572   2.4349   0.2702  -0.4196  -0.1230   0.00    0.0
2026/01/15 00:03:00.000   46.877095690    7.465037289   957.1025   6   8   1.1639   0.9774   2.2390   0.2511  -0.3947  -0.1191   0.00    0.0
2026/01/15 00:03:30.000   46.877095292    7.465037359   957.1342   6   8   1.0850   0.9133   2.0788   0.2348  -0.3733  -0.1244   0.00    0.0
2026/01/15 00:04:00.000   46.877095137    7.465037467   957.1596   6   8   1.0191   0.8602   1.9440   0.2207  -0.3547  -0.1332   0.00    0.0
2026/01/15 00:04:30.000   46.877095045    7.465037570   957.1644   6   8   0.9643   0.8165   1.8337   0.2028  -0.3475  -0.1126   0.00    0.0
2026/01/15 00:05:00.000   46.877095064    7.465037645   957.1556   6   8   0.9166   0.7787   1.7360   0.1878  -0.3390  -0.1041   0.00    0.0
2026/01/15 00:05:30.000   46.877095132    7.465037749   957.1458   6   8   0.8743   0.7457   1.6484   0.1751  -0.3302  -0.1046   0.00    0.0
2026/01/15 00:06:00.000   46.877095258    7.465037811   957.1417   6   8   0.8365   0.7165   1.5689   0.1641  -0.3211  -0.1105   0.00    0.0
2026/01/15 00:06:30.000   46.877095310    7.465037810   957.1406   6   8   0.8024   0.6903   1.4963   0.1546  -0.3121  -0.1190   0.00    0.0
2026/01/15 00:07:00.000   46.877095220    7.465037744   957.1416   6   8   0.7713   0.6668   1.4296   0.1462  -0.3033  -0.1282   0.00    0.0
2026/01/15 00:07:30.000   46.877095159    7.465037712   957.1559   6   8   0.7427   0.6454   1.3678   0.1388  -0.2947  -0.1373   0.00    0.0
2026/01/15 00:08:00.000   46.877095143    7.465037697   957.1465   6   8   0.7164   0.6259   1.3105   0.1323  -0.2864  -0.1458   0.00    0.0
2026/01/15 00:08:30.000   46.877095135    7.465037591   957.1279   6   8   0.6920   0.6080   1.2569   0.1264  -0.2784  -0.1534   0.00    0.0
2026/01/15 00:09:00.000   46.877095090    7.465037403   957.1269   6   8   0.6692   0.5915   1.2069   0.1210  -0.2707  -0.1603   0.00    0.0
2026/01/15 00:12:30.000   46.877095402    7.465036356   957.2275   6   5   0.5774   0.5088   1.0705   0.1006  -0.2590  -0.1704   0.00    0.0
2026/01/15 00:13:00.000   46.877095348    7.465036336   957.1650   6   8   0.5572   0.4986   1.0080   0.1013  -0.2493  -0.1860   0.00    0.0
2026/01/15 00:13:30.000   46.877095324    7.465036330   957.1086   6   8   0.5388   0.4890   0.9546   0.1013  -0.2409  -0.1953   0.00    0.0
2026/01/15 00:14:00.000   46.877095275    7.465036321   957.0609   6   8   0.5219   0.4799   0.9081   0.1008  -0.2333  -0.2009   0.00    0.0
2026/01/15 00:14:30.000   46.877095214    7.465036351   957.0257   6   8   0.5063   0.4713   0.8671   0.1000  -0.2265  -0.2042   0.00    0.0
2026/01/15 00:15:00.000   46.877095150    7.465036381   956.9968   6   8   0.4917   0.4631   0.8304   0.0990  -0.2203  -0.2058   0.00    0.0
2026/01/15 00:23:30.000   46.877094799    7.465036163   957.1472   6   4   0.4064   0.3757   0.7292   0.0519  -0.2001  -0.1669   0.00    0.0
2026/01/15 00:24:00.000   46.877094950    7.465036268   957.0744   6   7   0.3882   0.3704   0.6731   0.0581  -0.1840  -0.1608   0.00    0.0
2026/01/15 00:24:30.000   46.877095059    7.465036328   957.0248   6   7   0.3725   0.3654   0.6290   0.0621  -0.1713  -0.1553   0.00    0.0
2026/01/15 00:25:00.000   46.877095147    7.465036414   956.9862   6   7   0.3587   0.3608   0.5931   0.0648  -0.1610  -0.1504   0.00    0.0
2026/01/15 00:25:30.000   46.877095238    7.465036466   956.9549   6   7   0.3465   0.3564   0.5631   0.0667  -0.1524  -0.1460   0.00    0.0
2026/01/15 00:26:00.000   46.877095317    7.465036502   956.9275   6   7   0.3355   0.3522   0.5374   0.0680  -0.1450  -0.1420   0.00    0.0
2026/01/15 00:26:30.000   46.877095382    7.465036544   956.9055   6   7   0.3255   0.3481   0.5150   0.0688  -0.1386  -0.1383   0.00    0.0
2026/01/15 00:27:00.000   46.877095452    7.465036579   956.8844   6   7   0.3164   0.3443   0.4953   0.0694  -0.1330  -0.1349   0.00    0.0
2026/01/15 00:27:30.000   46.877095510    7.465036618   956.8680   6   7   0.3081   0.3405   0.4778   0.0696  -0.1280  -0.1318   0.00    0.0
2026/01/15 00:28:00.000   46.877095538    7.465036674   956.8564   6   7   0.3003   0.3370   0.4620   0.0697  -0.1234  -0.1289   0.00    0.0
2026/01/15 00:28:30.000   46.877095582    7.465036667   956.8456   6   7   0.2931   0.3335   0.4476   0.0696  -0.1193  -0.1261   0.00    0.0
2026/01/15 00:29:00.000   46.877095617    7.465036706   956.8340   6   7   0.2864   0.3301   0.4345   0.0695  -0.1156  -0.1236   0.00    0.0
2026/01/15 00:29:30.000   46.877095656    7.465036769   956.8236   6   7   0.2801   0.3269   0.4224   0.0692  -0.1121  -0.1212   0.00    0.0
2026/01/15 00:30:00.000   46.877095702    7.465036754   956.8159   6   7   0.2742   0.3237   0.4112   0.0688  -0.1089  -0.1189   0.00    0.0
2026/01/15 00:30:30.000   46.877095718    7.465036770   956.8094   6   7   0.2686   0.3206   0.4007   0.0684  -0.1059  -0.1167   0.00    0.0
2026/01/15 00:31:00.000   46.877095732    7.465036779   956.8027   6   7   0.2632   0.3176   0.3909   0.0679  -0.1031  -0.1146   0.00    0.0
2026/01/15 00:31:30.000   46.877095756    7.465036785   956.7958   6   7   0.2582   0.3147   0.3818   0.0674  -0.1005  -0.1127   0.00    0.0
2026/01/15 00:32:00.000   46.877095776    7.465036828   956.7891   6   7   0.2534   0.3119   0.3731   0.0668  -0.0980  -0.1108   0.00    0.0
2026/01/15 00:32:30.000   46.877095787    7.465036854   956.7803   6   7   0.2488   0.3092   0.3650   0.0662  -0.0956  -0.1090   0.00    0.0
2026/01/15 00:33:00.000   46.877095805    7.465036869   956.7736   6   7   0.2443   0.3065   0.3572   0.0656  -0.0934  -0.1072   0.00    0.0
2026/01/15 00:33:30.000   46.877095807    7.465036937   956.7667   6   7   0.2401   0.3038   0.3499   0.0650  -0.0913  -0.1056   0.00    0.0
2026/01/15 00:34:00.000   46.877095814    7.465036961   956.7593   6   7   0.2361   0.3013   0.3429   0.0643  -0.0893  -0.1040   0.00    0.0
2026/01/15 00:34:30.000   46.877095820    7.465037003   956.7531   6   7   0.2322   0.2988   0.3362   0.0637  -0.0874  -0.1024   0.00    0.0
2026/01/15 00:35:00.000   46.877095824    7.465037052   956.7482   6   7   0.2284   0.2963   0.3298   0.0630  -0.0855  -0.1009   0.00    0.0
2026/01/15 00:35:30.000   46.877095841    7.465037064   956.7425   6   7   0.2248   0.2940   0.3236   0.0623  -0.0838  -0.0995   0.00    0.0
2026/01/15 00:36:00.000   46.877095854    7.465037085   956.7363   6   7   0.2212   0.2916   0.3177   0.0616  -0.0821  -0.0981   0.00    0.0
2026/01/15 00:36:30.000   46.877095864    7.465037087   956.7316   6   7   0.2178   0.2893   0.3121   0.0609  -0.0805  -0.0967   0.00    0.0
2026/01/15 00:37:00.000   46.877095875    7.465037070   956.7274   6   7   0.2146   0.2871   0.3066   0.0602  -0.0789  -0.0954   0.00    0.0
2026/01/15 00:37:30.000   46.877095887    7.465037098   956.7232   6   7   0.2114   0.2849   0.3013   0.0595  -0.0774  -0.0941   0.00    0.0
2026/01/15 00:38:00.000   46.877095911    7.465037140   956.7178   6   7   0.2083   0.2828   0.2963   0.0588  -0.0759  -0.0928   0.00    0.0
2026/01/15 00:38:30.000   46.877095939    7.465037217   956.7113   6   7   0.2053   0.2806   0.2913   0.0581  -0.0745  -0.0916   0.00    0.0
2026/01/15 00:39:00.000   46.877095962    7.465037296   956.7062   6   7   0.2023   0.2786   0.2866   0.0574  -0.0731  -0.0904   0.00    0.0
2026/01/15 00:39:30.000   46.877095975    7.465037335   956.7031   6   7   0.1995   0.2766   0.2820   0.0567  -0.0718  -0.0892   0.00    0.0
2026/01/15 00:40:00.000   46.877095974    7.465037370   956.7008   6   7   0.1967   0.2746   0.2775   0.0560  -0.0706  -0.0881   0.00    0.0
2026/01/15 00:40:30.000   46.877095970    7.465037373   956.6994   6   7   0.1940   0.2726   0.2732   0.0553  -0.0693  -0.0870   0.00    0.0
2026/01/15 00:41:00.000   46.877095974    7.465037342   956.6972   6   7   0.1914   0.2707   0.2690   0.0546  -0.0681  -0.0859   0.00    0.0
2026/01/15 00:41:30.000   46.877095972    7.465037312   956.6946   6   7   0.1888   0.2688   0.2649   0.0539  -0.0669  -0.0848   0.00    0.0
2026/01/15 00:42:00.000   46.877095977    7.465037269   956.6923   6   7   0.1863   0.2670   0.2609   0.0532  -0.0658  -0.0838   0.00    0.0
2026/01/15 00:42:30.000   46.877095982    7.465037246   956.6899   6   7   0.1839   0.2652   0.2570   0.0525  -0.0647  -0.0828   0.00    0.0
2026/01/15 00:43:00.000   46.877095991    7.465037245   956.6869   6   7   0.1815   0.2634   0.2532   0.0518  -0.0636  -0.0818   0.00    0.0
2026/01/15 00:43:30.000   46.877096002    7.465037276   956.6837   6   7   0.1792   0.2616   0.2496   0.0511  -0.0626  -0.0808   0.00    0.0
2026/01/15 00:44:00.000   46.877096009    7.465037324   956.6807   6   7   0.1769   0.2599   0.2460   0.0503  -0.0616  -0.0798   0.00    0.0
2026/01/15 00:44:30.000   46.877096018    7.465037345   956.6782   6   7   0.1747   0.2582   0.2425   0.0496  -0.0606  -0.0789   0.00    0.0
2026/01/15 00:45:00.000   46.877096025    7.465037353   956.6749   6   7   0.1725   0.2565   0.2391   0.0489  -0.0596  -0.0780   0.00    0.0
2026/01/15 00:45:30.000   46.877096037    7.465037367   956.6731   6   7   0.1704   0.2549   0.2358   0.0482  -0.0587  -0.0771   0.00    0.0
2026/01/15 00:46:00.000   46.877096044    7.465037379   956.6709   6   7   0.1683   0.2533   0.2325   0.0476  -0.0578  -0.0762   0.00    0.0
2026/01/15 00:46:30.000   46.877096049    7.465037375   956.6688   6   7   0.1662   0.2517   0.2294   0.0469  -0.0569  -0.0753   0.00    0.0
2026/01/15 00:47:00.000   46.877096054    7.465037349   956.6674   6   7   0.1642   0.2501   0.2263   0.0462  -0.0560  -0.0745   0.00    0.0
2026/01/15 00:47:30.000   46.877096061    7.465037340   956.6662   6   7   0.1623   0.2485   0.2232   0.0455  -0.0551  -0.0736   0.00    0.0
2026/01/15 00:48:00.000   46.877096070    7.465037347   956.6648   6   7   0.1603   0.2470   0.2203   0.0448  -0.0543  -0.0728   0.00    0.0
2026/01/15 00:48:30.000   46.877096078    7.465037347   956.6627   6   7   0.1584   0.2455   0.2174   0.0441  -0.0535  -0.0720   0.00    0.0
2026/01/15 00:49:00.000   46.877096090    7.465037349   956.6610   6   7   0.1566   0.2440   0.2145   0.0434  -0.0527  -0.0712   0.00    0.0
2026/01/15 00:49:30.000   46.877096104    7.465037346   956.6600   6   7   0.1548   0.2426   0.2118   0.0427  -0.0519  -0.0704   0.00    0.0
2026/01/15 00:50:00.000   46.877096113    7.465037359   956.6592   6   7   0.1530   0.2411   0.2090   0.0420  -0.0512  -0.0696   0.00    0.0
2026/01/15 00:50:30.000   46.877096121    7.465037364   956.6585   6   7   0.1512   0.2397   0.2064   0.0413  -0.0504  -0.0689   0.00    0.0
2026/01/15 00:51:00.000   46.877096128    7.465037373   956.6575   6   7   0.1495   0.2383   0.2038   0.0406  -0.0497  -0.0681   0.00    0.0
2026/01/15 00:51:30.000   46.877096137    7.465037404   956.6558   6   7   0.1478   0.2369   0.2012   0.0399  -0.0490  -0.0674   0.00    0.0
2026/01/15 01:04:30.000   46.877096234    7.465037760   956.6822   6   5   0.1442   0.2161   0.1985   0.0264  -0.0428  -0.0653   0.00    0.0
2026/01/15 01:05:00.000   46.877096236    7.465037790   956.6830   6   7   0.1440   0.2155   0.1984   0.0258  -0.0426  -0.0652   0.00    0.0
2026/01/15 01:05:30.000   46.877096237    7.465037827   956.6838   6   7   0.1439   0.2148   0.1983   0.0252  -0.0423  -0.0651   0.00    0.0
2026/01/15 01:06:00.000   46.877096237    7.465037855   956.6843   6   7   0.1438   0.2141   0.1982   0.0247  -0.0420  -0.0651   0.00    0.0
2026/01/15 01:06:30.000   46.877096237    7.465037882   956.6848   6   7   0.1436   0.2135   0.1981   0.0241  -0.0418  -0.0650   0.00    0.0
2026/01/15 01:07:00.000   46.877096236    7.465037903   956.6856   6   7   0.1435   0.2128   0.1980   0.0235  -0.0415  -0.0649   0.00    0.0
2026/01/15 01:07:30.000   46.877096233    7.465037924   956.6868   6   7   0.1434   0.2122   0.1979   0.0229  -0.0412  -0.0648   0.00    0.0
2026/01/15 01:08:00.000   46.877096230    7.465037945   956.6883   6   7   0.1433   0.2116   0.1978   0.0223  -0.0409  -0.0648   0.00    0.0
2026/01/15 01:08:30.000   46.877096225    7.465037964   956.6892   6   7   0.1431   0.2110   0.1977   0.0217  -0.0407  -0.0647   0.00    0.0
2026/01/15 01:09:00.000   46.877096223    7.465037979   956.6898   6   7   0.1430   0.2104   0.1975   0.0210  -0.0404  -0.0646   0.00    0.0
2026/01/15 01:09:30.000   46.877096222    7.465037986   956.6905   6   7   0.1429   0.2097   0.1974   0.0204  -0.0401  -0.0645   0.00    0.0
2026/01/15 01:10:00.000   46.877096221    7.465037988   956.6917   6   7   0.1427   0.2091   0.1973   0.0197  -0.0398  -0.0644   0.00    0.0
2026/01/15 01:10:30.000   46.877096219    7.465037986   956.6925   6   7   0.1426   0.2086   0.1971   0.0189  -0.0396  -0.0643   0.00    0.0
2026/01/15 01:11:00.000   46.877096221    7.465037991   956.6933   6   7   0.1424   0.2080   0.1970   0.0181  -0.0393  -0.0642   0.00    0.0
2026/01/15 01:11:30.000   46.877096224    7.465037999   956.6939   6   7   0.1423   0.2074   0.1968   0.0173  -0.0391  -0.0641   0.00    0.0
2026/01/15 01:12:00.000   46.877096224    7.465038014   956.6943   6   7   0.1422   0.2068   0.1967   0.0164  -0.0388  -0.0640   0.00    0.0
2026/01/15 01:12:30.000   46.877096223    7.465038030   956.6953   6   7   0.1420   0.2063   0.1965   0.0156  -0.0386  -0.0639   0.00    0.0
2026/01/15 01:13:00.000   46.877096220    7.465038030   956.6963   6   7   0.1418   0.2057   0.1963   0.0147  -0.0384  -0.0638   0.00    0.0
2026/01/15 01:13:30.000   46.877096214    7.465038015   956.6972   6   7   0.1417   0.2051   0.1961   0.0138  -0.0382  -0.0636   0.00    0.0
2026/01/15 01:14:00.000   46.877096206    7.465038002   956.6977   6   7   0.1415   0.2046   0.1959   0.0129  -0.0380  -0.0635   0.00    0.0
2026/01/15 01:14:30.000   46.877096203    7.465038012   956.6981   6   7   0.1413   0.2040   0.1957   0.0119  -0.0378  -0.0634   0.00    0.0
2026/01/15 01:15:00.000   46.877096201    7.465038027   956.6982   6   7   0.1412   0.2034   0.1955   0.0107  -0.0376  -0.0632   0.00    0.0
2026/01/15 01:15:30.000   46.877096198    7.465038037   956.6981   6   7   0.1410   0.2029   0.1953   0.0095  -0.0374  -0.0631   0.00    0.0
2026/01/15 01:16:00.000   46.877096193    7.465038037   956.6980   6   7   0.1408   0.2023   0.1951   0.0080  -0.0372  -0.0630   0.00    0.0
2026/01/15 01:16:30.000   46.877096188    7.465038031   956.6982   6   7   0.1406   0.2018   0.1948   0.0064  -0.0369  -0.0628   0.00    0.0
2026/01/15 01:17:00.000   46.877096188    7.465038025   956.6985   6   7   0.1404   0.2013   0.1945   0.0040  -0.0367  -0.0627   0.00    0.0
2026/01/15 01:17:30.000   46.877096189    7.465038023   956.6985   6   7   0.1402   0.2007   0.1943  -0.0024  -0.0364  -0.0626   0.00    0.0
2026/01/15 01:18:00.000   46.877096192    7.465038030   956.6980   6   7   0.1400   0.2002   0.1940  -0.0052  -0.0362  -0.0624   0.00    0.0
2026/01/15 01:18:30.000   46.877096194    7.465038045   956.6978   6   7   0.1397   0.1997   0.1937  -0.0070  -0.0359  -0.0623   0.00    0.0
2026/01/15 01:19:00.000   46.877096195    7.465038041   956.6975   6   7   0.1395   0.1992   0.1934  -0.0085  -0.0356  -0.0621   0.00    0.0
2026/01/15 01:19:30.000   46.877096196    7.465038026   956.6975   6   7   0.1393   0.1987   0.1931  -0.0097  -0.0353  -0.0620   0.00    0.0
2026/01/15 01:20:00.000   46.877096196    7.465038014   956.6973   6   7   0.1390   0.1982   0.1927  -0.0108  -0.0350  -0.0618   0.00    0.0
2026/01/15 01:20:30.000   46.877096197    7.465038001   956.6972   6   7   0.1388   0.1977   0.1924  -0.0118  -0.0347  -0.0617   0.00    0.0
2026/01/15 01:21:00.000   46.877096197    7.465037977   956.6968   6   7   0.1385   0.1971   0.1920  -0.0127  -0.0345  -0.0615   0.00    0.0
2026/01/15 01:21:30.000   46.877096198    7.465037948   956.6964   6   7   0.1383   0.1966   0.1916  -0.0136  -0.0342  -0.0614   0.00    0.0
2026/01/15 01:22:00.000   46.877096194    7.465037937   956.6957   6   7   0.1380   0.1961   0.1913  -0.0144  -0.0339  -0.0612   0.00    0.0
2026/01/15 01:22:30.000   46.877096189    7.465037940   956.6945   6   7   0.1377   0.1956   0.1909  -0.0152  -0.0336  -0.0610   0.00    0.0
2026/01/15 01:23:00.000   46.877096188    7.465037958   956.6930   6   7   0.1374   0.1951   0.1904  -0.0160  -0.0333  -0.0609   0.00    0.0
2026/01/15 01:23:30.000   46.877096188    7.465037972   956.6914   6   7   0.1371   0.1947   0.1900  -0.0167  -0.0330  -0.0607   0.00    0.0
2026/01/15 01:24:00.000   46.877096188    7.465037981   956.6903   6   7   0.1368   0.1942   0.1896  -0.0174  -0.0327  -0.0605   0.00    0.0
2026/01/15 01:24:30.000   46.877096188    7.465037986   956.6893   6   8   0.1365   0.1937   0.1891  -0.0180  -0.0325  -0.0604   0.00    0.0
2026/01/15 01:25:00.000   46.877096192    7.465038000   956.6887   6   7   0.1362   0.1932   0.1887  -0.0186  -0.0323  -0.0603   0.00    0.0
2026/01/15 01:25:30.000   46.877096197    7.465037995   956.6876   6   7   0.1359   0.1927   0.1882  -0.0192  -0.0321  -0.0601   0.00    0.0
2026/01/15 01:26:00.000   46.877096203    7.465037990   956.6861   6   7   0.1356   0.1923   0.1877  -0.0198  -0.0318  -0.0600   0.00    0.0
2026/01/15 01:26:30.000   46.877096207    7.465037979   956.6845   6   7   0.1352   0.1918   0.1872  -0.0203  -0.0316  -0.0598   0.00    0.0
2026/01/15 01:27:00.000   46.877096209    7.465037976   956.6836   6   7   0.1349   0.1913   0.1867  -0.0209  -0.0314  -0.0596   0.00    0.0
2026/01/15 01:27:30.000   46.877096209    7.465037959   956.6822   6   7   0.1345   0.1908   0.1862  -0.0214  -0.0311  -0.0595   0.00    0.0
2026/01/15 01:28:00.000   46.877096210    7.465037947   956.6805   6   7   0.1342   0.1904   0.1856  -0.0220  -0.0309  -0.0593   0.00    0.0
2026/01/15 01:28:30.000   46.877096212    7.465037945   956.6784   6   7   0.1338   0.1899   0.1851  -0.0225  -0.0307  -0.0592   0.00    0.0
2026/01/15 01:29:00.000   46.877096214    7.465037940   956.6759   6   7   0.1335   0.1894   0.1845  -0.0231  -0.0305  -0.0590   0.00    0.0
2026/01/15 01:29:30.000   46.877096217    7.465037944   956.6737   6   7   0.1331   0.1889   0.1839  -0.0236  -0.0302  -0.0588   0.00    0.0
2026/01/15 01:30:00.000   46.877096219    7.465037963   956.6713   6   7   0.1327   0.1885   0.1833  -0.0241  -0.0300  -0.0586   0.00    0.0
2026/01/15 01:30:30.000   46.877096221    7.465037985   956.6685   6   7   0.1323   0.1880   0.1827  -0.0246  -0.0298  -0.0585   0.00    0.0
2026/01/15 01:31:00.000   46.877096222    7.465038007   956.6655   6   7   0.1319   0.1875   0.1821  -0.0252  -0.0295  -0.0583   0.00    0.0
2026/01/15 01:31:30.000   46.877096221    7.465038033   956.6628   6   7   0.1315   0.1871   0.1815  -0.0257  -0.0293  -0.0581   0.00    0.0
2026/01/15 01:32:00.000   46.877096219    7.465038038   956.6600   6   7   0.1311   0.1866   0.1808  -0.0262  -0.0291  -0.0579   0.00    0.0
2026/01/15 01:32:30.000   46.877096219    7.465038029   956.6567   6   7   0.1306   0.1861   0.1801  -0.0267  -0.0289  -0.0577   0.00    0.0
2026/01/15 01:33:00.000   46.877096224    7.465038027   956.6551   6   6   0.1302   0.1857   0.1796  -0.0271  -0.0282  -0.0575   0.00    0.0
2026/01/15 02:01:00.000   46.877096302    7.465037983   956.6662   6   4   0.1259   0.1695   0.1769  -0.0296  -0.0114  -0.0550   0.00    0.0
2026/01/15 02:01:30.000   46.877096310    7.465037971   956.6655   6   4   0.1258   0.1693   0.1769  -0.0296  -0.0111  -0.0550   0.00    0.0
2026/01/15 02:03:00.000   46.877096322    7.465037962   956.6643   6   5   0.1255   0.1685   0.1767  -0.0295  -0.0100  -0.0547   0.00    0.0
2026/01/15 02:03:30.000   46.877096325    7.465037968   956.6641   6   5   0.1255   0.1682   0.1766  -0.0295  -0.0097  -0.0546   0.00    0.0
2026/01/15 02:04:00.000   46.877096329    7.465037977   956.6640   6   6   0.1254   0.1679   0.1766  -0.0295  -0.0093  -0.0546   0.00    0.0
2026/01/15 02:04:30.000   46.877096333    7.465037973   956.6641   6   6   0.1253   0.1677   0.1765  -0.0295  -0.0089  -0.0545   0.00    0.0
2026/01/15 02:05:00.000   46.877096335    7.465037968   956.6643   6   6   0.1252   0.1674   0.1764  -0.0295  -0.0084  -0.0544   0.00    0.0
2026/01/15 02:05:30.000   46.877096336    7.465037977   956.6651   6   6   0.1251   0.1671   0.1764  -0.0295  -0.0082  -0.0543   0.00    0.0
2026/01/15 02:06:00.000   46.877096336    7.465037977   956.6657   6   7   0.1250   0.1668   0.1763  -0.0295  -0.0079  -0.0543   0.00    0.0
2026/01/15 02:06:30.000   46.877096336    7.465037971   956.6660   6   7   0.1249   0.1666   0.1762  -0.0295  -0.0076  -0.0542   0.00    0.0
2026/01/15 02:07:00.000   46.877096341    7.465037972   956.6663   6   7   0.1248   0.1663   0.1761  -0.0295  -0.0072  -0.0541   0.00    0.0
2026/01/15 02:07:30.000   46.877096344    7.465037972   956.6665   6   7   0.1247   0.1660   0.1761  -0.0295  -0.0069  -0.0540   0.00    0.0
2026/01/15 02:08:00.000   46.877096344    7.465037968   956.6665   6   7   0.1246   0.1657   0.1760  -0.0295  -0.0065  -0.0539   0.00    0.0
2026/01/15 02:08:30.000   46.877096342    7.465037959   956.6669   6   7   0.1245   0.1655   0.1759  -0.0295  -0.0061  -0.0539   0.00    0.0
2026/01/15 02:09:00.000   46.877096341    7.465037938   956.6673   6   7   0.1244   0.1652   0.1758  -0.0295  -0.0056  -0.0538   0.00    0.0
2026/01/15 02:09:30.000   46.877096341    7.465037934   956.6678   6   7   0.1243   0.1649   0.1757  -0.0296  -0.0051  -0.0537   0.00    0.0
2026/01/15 02:10:00.000   46.877096342    7.465037920   956.6674   6   7   0.1242   0.1647   0.1756  -0.0296  -0.0044  -0.0536   0.00    0.0
2026/01/15 02:10:30.000   46.877096345    7.465037907   956.6668   6   7   0.1241   0.1644   0.1754  -0.0296  -0.0037  -0.0535   0.00    0.0
2026/01/15 02:11:00.000   46.877096351    7.465037894   956.6663   6   7   0.1240   0.1641   0.1753  -0.0297  -0.0026  -0.0534   0.00    0.0
2026/01/15 02:11:30.000   46.877096358    7.465037894   956.6662   6   7   0.1238   0.1638   0.1752  -0.0297  -0.0006  -0.0534   0.00    0.0
2026/01/15 02:12:00.000   46.877096364    7.465037892   956.6662   6   7   0.1237   0.1636   0.1751  -0.0298   0.0026  -0.0533   0.00    0.0
2026/01/15 02:12:30.000   46.877096369    7.465037896   956.6661   6   7   0.1236   0.1633   0.1749  -0.0298   0.0037  -0.0532   0.00    0.0
2026/01/15 02:13:00.000   46.877096374    7.465037902   956.6661   6   7   0.1235   0.1630   0.1748  -0.0299   0.0046  -0.0532   0.00    0.0
2026/01/15 02:13:30.000   46.877096375    7.465037908   956.6660   6   7   0.1233   0.1627   0.1746  -0.0299   0.0054  -0.0531   0.00    0.0
2026/01/15 02:14:00.000   46.877096373    7.465037904   956.6662   6   7   0.1232   0.1625   0.1744  -0.0300   0.0062  -0.0530   0.00    0.0
2026/01/15 02:14:30.000   46.877096371    7.465037896   956.6666   6   7   0.1230   0.1622   0.1742  -0.0301   0.0068  -0.0529   0.00    0.0
2026/01/15 02:15:00.000   46.877096370    7.465037892   956.6665   6   7   0.1229   0.1619   0.1741  -0.0302   0.0075  -0.0529   0.00    0.0
2026/01/15 02:15:30.000   46.877096370    7.465037894   956.6662   6   7   0.1228   0.1616   0.1739  -0.0302   0.0081  -0.0528   0.00    0.0
2026/01/15 02:16:00.000   46.877096372    7.465037901   956.6662   6   7   0.1226   0.1613   0.1737  -0.0303   0.0087  -0.0527   0.00    0.0
2026/01/15 02:16:30.000   46.877096371    7.465037899   956.6662   6   7   0.1225   0.1611   0.1734  -0.0304   0.0093  -0.0526   0.00    0.0
2026/01/15 02:17:00.000   46.877096369    7.465037888   956.6661   6   7   0.1223   0.1608   0.1732  -0.0305   0.0099  -0.0526   0.00    0.0
2026/01/15 02:17:30.000   46.877096368    7.465037882   956.6656   6   7   0.1221   0.1605   0.1730  -0.0306   0.0105  -0.0525   0.00    0.0
2026/01/15 02:18:00.000   46.877096369    7.465037877   956.6651   6   7   0.1220   0.1602   0.1727  -0.0307   0.0111  -0.0524   0.00    0.0
2026/01/15 02:18:30.000   46.877096370    7.465037876   956.6644   6   7   0.1218   0.1600   0.1725  -0.0308   0.0116  -0.0524   0.00    0.0
2026/01/15 02:19:00.000   46.877096368    7.465037868   956.6638   6   7   0.1216   0.1597   0.1722  -0.0310   0.0122  -0.0523   0.00    0.0
2026/01/15 02:19:30.000   46.877096367    7.465037863   956.6634   6   7   0.1214   0.1594   0.1719  -0.0311   0.0127  -0.0522   0.00    0.0
2026/01/15 02:20:00.000   46.877096366    7.465037857   956.6627   6   7   0.1213   0.1591   0.1716  -0.0312   0.0133  -0.0522   0.00    0.0
2026/01/15 02:20:30.000   46.877096365    7.465037854   956.6617   6   7   0.1211   0.1588   0.1713  -0.0313   0.0138  -0.0521   0.00    0.0
2026/01/15 02:21:00.000   46.877096363    7.465037853   956.6608   6   7   0.1209   0.1585   0.1710  -0.0315   0.0144  -0.0520   0.00    0.0
2026/01/15 02:21:30.000   46.877096364    7.465037852   956.6603   6   7   0.1207   0.1582   0.1707  -0.0316   0.0149  -0.0520   0.00    0.0
2026/01/15 02:22:00.000   46.877096364    7.465037845   956.6596   6   7   0.1205   0.1580   0.1703  -0.0318   0.0155  -0.0519   0.00    0.0
2026/01/15 02:22:30.000   46.877096363    7.465037838   956.6586   6   7   0.1203   0.1577   0.1700  -0.0319   0.0160  -0.0518   0.00    0.0
2026/01/15 02:23:00.000   46.877096360    7.465037839   956.6577   6   7   0.1201   0.1574   0.1696  -0.0321   0.0166  -0.0518   0.00    0.0
2026/01/15 02:23:30.000   46.877096358    7.465037837   956.6569   6   7   0.1199   0.1571   0.1692  -0.0323   0.0171  -0.0517   0.00    0.0
2026/01/15 02:24:00.000   46.877096358    7.465037837   956.6557   6   7   0.1196   0.1568   0.1688  -0.0324   0.0176  -0.0516   0.00    0.0
2026/01/15 02:24:30.000   46.877096358    7.465037835   956.6543   6   7   0.1194   0.1565   0.1684  -0.0326   0.0182  -0.0516   0.00    0.0
2026/01/15 02:25:00.000   46.877096357    7.465037851   956.6528   6   7   0.1192   0.1562   0.1680  -0.0328   0.0187  -0.0515   0.00    0.0
2026/01/15 02:25:30.000   46.877096357    7.465037854   956.6513   6   7   0.1189   0.1559   0.1676  -0.0330   0.0192  -0.0515   0.00    0.0
2026/01/15 02:26:00.000   46.877096355    7.465037863   956.6497   6   7   0.1187   0.1556   0.1672  -0.0332   0.0197  -0.0514   0.00    0.0
2026/01/15 02:26:30.000   46.877096355    7.465037860   956.6482   6   7   0.1185   0.1554   0.1667  -0.0334   0.0202  -0.0514   0.00    0.0
2026/01/15 02:27:00.000   46.877096355    7.465037855   956.6470   6   7   0.1182   0.1551   0.1662  -0.0336   0.0206  -0.0513   0.00    0.0
2026/01/15 02:27:30.000   46.877096352    7.465037857   956.6459   6   7   0.1180   0.1548   0.1658  -0.0338   0.0211  -0.0512   0.00    0.0
2026/01/15 02:28:00.000   46.877096353    7.465037856   956.6446   6   7   0.1177   0.1545   0.1653  -0.0340   0.0216  -0.0512   0.00    0.0
2026/01/15 02:28:30.000   46.877096357    7.465037854   956.6434   6   7   0.1175   0.1542   0.1648  -0.0342   0.0220  -0.0511   0.00    0.0
2026/01/15 02:29:00.000   46.877096362    7.465037864   956.6417   6   7   0.1172   0.1539   0.1643  -0.0345   0.0225  -0.0511   0.00    0.0
2026/01/15 02:29:30.000   46.877096367    7.465037871   956.6404   6   7   0.1169   0.1536   0.1637  -0.0347   0.0230  -0.0510   0.00    0.0
2026/01/15 02:30:00.000   46.877096369    7.465037882   956.6389   6   7   0.1167   0.1533   0.1632  -0.0349   0.0235  -0.0510   0.00    0.0
2026/01/15 02:30:30.000   46.877096371    7.465037891   956.6374   6   7   0.1164   0.1530   0.1626  -0.0352   0.0239  -0.0510   0.00    0.0
2026/01/15 02:31:00.000   46.877096374    7.465037896   956.6354   6   7   0.1161   0.1527   0.1621  -0.0354   0.0244  -0.0509   0.00    0.0
2026/01/15 02:31:30.000   46.877096373    7.465037894   956.6335   6   7   0.1158   0.1524   0.1615  -0.0356   0.0249  -0.0509   0.00    0.0
2026/01/15 02:32:00.000   46.877096374    7.465037894   956.6312   6   7   0.1155   0.1521   0.1609  -0.0359   0.0254  -0.0508   0.00    0.0
2026/01/15 02:32:30.000   46.877096374    7.465037888   956.6291   6   7   0.1152   0.1518   0.1603  -0.0361   0.0258  -0.0508   0.00    0.0
2026/01/15 02:33:00.000   46.877096370    7.465037889   956.6267   6   7   0.1149   0.1515   0.1597  -0.0364   0.0263  -0.0508   0.00    0.0
2026/01/15 02:33:30.000   46.877096366    7.465037886   956.6249   6   7   0.1146   0.1512   0.1591  -0.0366   0.0268  -0.0507   0.00    0.0
2026/01/15 02:34:00.000   46.877096365    7.465037884   956.6230   6   7   0.1143   0.1509   0.1585  -0.0369   0.0272  -0.0507   0.00    0.0
2026/01/15 02:34:30.000   46.877096365    7.465037882   956.6209   6   7   0.1140   0.1506   0.1578  -0.0371   0.0277  -0.0507   0.00    0.0
2026/01/15 02:35:00.000   46.877096364    7.465037888   956.6186   6   7   0.1137   0.1503   0.1572  -0.0374   0.0281  -0.0506   0.00    0.0
2026/01/15 02:35:30.000   46.877096365    7.465037898   956.6160   6   7   0.1134   0.1500   0.1565  -0.0377   0.0286  -0.0506   0.00    0.0
2026/01/15 02:36:00.000   46.877096366    7.465037909   956.6134   6   7   0.1130   0.1497   0.1559  -0.0379   0.0290  -0.0506   0.00    0.0
2026/01/15 02:36:30.000   46.877096368    7.465037915   956.6108   6   7   0.1127   0.1494   0.1552  -0.0382   0.0294  -0.0506   0.00    0.0
2026/01/15 02:37:00.000   46.877096368    7.465037921   956.6080   6   7   0.1124   0.1490   0.1545  -0.0385   0.0299  -0.0505   0.00    0.0
2026/01/15 02:37:30.000   46.877096368    7.465037925   956.6051   6   7   0.1120   0.1487   0.1538  -0.0387   0.0303  -0.0505   0.00    0.0
2026/01/15 02:38:00.000   46.877096369    7.465037932   956.6026   6   7   0.1117   0.1484   0.1531  -0.0390   0.0307  -0.0505   0.00    0.0
2026/01/15 02:38:30.000   46.877096372    7.465037933   956.6001   6   7   0.1114   0.1481   0.1524  -0.0393   0.0312  -0.0505   0.00    0.0
2026/01/15 02:39:00.000   46.877096373    7.465037931   956.5977   6   7   0.1110   0.1478   0.1517  -0.0395   0.0316  -0.0504   0.00    0.0
2026/01/15 02:39:30.000   46.877096375    7.465037930   956.5953   6   7   0.1107   0.1474   0.1509  -0.0398   0.0320  -0.0504   0.00    0.0
2026/01/15 02:40:00.000   46.877096376    7.465037931   956.5928   6   7   0.1103   0.1471   0.1502  -0.0401   0.0324  -0.0504   0.00    0.0
2026/01/15 02:40:30.000   46.877096375    7.465037941   956.5902   6   7   0.1100   0.1468   0.1495  -0.0403   0.0328  -0.0504   0.00    0.0
2026/01/15 02:41:00.000   46.877096375    7.465037945   956.5880   6   7   0.1096   0.1465   0.1487  -0.0406   0.0332  -0.0504   0.00    0.0
2026/01/15 02:41:30.000   46.877096374    7.465037943   956.5857   6   7   0.1093   0.1461   0.1480  -0.0409   0.0336  -0.0504   0.00    0.0
2026/01/15 02:42:00.000   46.877096373    7.465037940   956.5834   6   7   0.1089   0.1458   0.1472  -0.0411   0.0339  -0.0503   0.00    0.0
2026/01/15 02:42:30.000   46.877096372    7.465037941   956.5809   6   7   0.1085   0.1455   0.1465  -0.0414   0.0343  -0.0503   0.00    0.0
2026/01/15 02:43:00.000   46.877096373    7.465037943   956.5785   6   7   0.1082   0.1452   0.1457  -0.0417   0.0347  -0.0503   0.00    0.0
2026/01/15 02:43:30.000   46.877096375    7.465037937   956.5759   6   7   0.1078   0.1448   0.1449  -0.0419   0.0350  -0.0503   0.00    0.0
2026/01/15 02:44:00.000   46.877096377    7.465037937   956.5729   6  13   0.1074   0.1445   0.1442  -0.0422   0.0354  -0.0503   0.00    0.0
2026/01/15 02:44:30.000   46.877096378    7.465037935   956.5703   6  13   0.1070   0.1442   0.1434  -0.0425   0.0357  -0.0503   0.00    0.0
2026/01/15 02:45:00.000   46.877096377    7.465037928   956.5673   6  14   0.1067   0.1438   0.1426  -0.0427   0.0361  -0.0502   0.00    0.0
2026/01/15 02:45:30.000   46.877096380    7.465037923   956.5644   6  14   0.1063   0.1435   0.1418  -0.0430   0.0364  -0.0502   0.00    0.0
2026/01/15 02:46:00.000   46.877096383    7.465037926   956.5614   6  14   0.1059   0.1432   0.1410  -0.0433   0.0368  -0.0502   0.00    0.0
2026/01/15 02:46:30.000   46.877096386    7.465037931   956.5584   6  14   0.1055   0.1428   0.1402  -0.0435   0.0371  -0.0502   0.00    0.0
2026/01/15 02:47:00.000   46.877096388    7.465037930   956.5556   6  14   0.1051   0.1425   0.1394  -0.0438   0.0374  -0.0502   0.00    0.0
2026/01/15 02:47:30.000   46.877096387    7.465037940   956.5528   6  14   0.1048   0.1421   0.1386  -0.0440   0.0377  -0.0502   0.00    0.0
2026/01/15 02:48:00.000   46.877096385    7.465037956   956.5498   6  14   0.1044   0.1418   0.1378  -0.0443   0.0380  -0.0502   0.00    0.0
2026/01/15 02:48:30.000   46.877096384    7.465037965   956.5471   6  14   0.1040   0.1415   0.1370  -0.0446   0.0383  -0.0501   0.00    0.0
2026/01/15 02:49:00.000   46.877096383    7.465037968   956.5445   6  14   0.1036   0.1411   0.1362  -0.0448   0.0386  -0.0501   0.00    0.0
2026/01/15 02:49:30.000   46.877096382    7.465037964   956.5416   6  14   0.1032   0.1408   0.1354  -0.0451   0.0389  -0.0501   0.00    0.0
2026/01/15 02:50:00.000   46.877096382    7.465037964   956.5386   6  14   0.1028   0.1404   0.1346  -0.0453   0.0392  -0.0501   0.00    0.0
2026/01/15 02:50:30.000   46.877096382    7.465037970   956.5358   6  14   0.1024   0.1401   0.1338  -0.0456   0.0395  -0.0501   0.00    0.0
2026/01/15 02:51:00.000   46.877096382    7.465037971   956.5329   6  14   0.1020   0.1397   0.1330  -0.0458   0.0398  -0.0501   0.00    0.0
2026/01/15 02:51:30.000   46.877096383    7.465037971   956.5301   6  14   0.1016   0.1394   0.1321  -0.0461   0.0401  -0.0501   0.00    0.0
2026/01/15 02:52:00.000   46.877096385    7.465037974   956.5276   6  14   0.1012   0.1390   0.1313  -0.0463   0.0403  -0.0500   0.00    0.0
2026/01/15 02:52:30.000   46.877096385    7.465037986   956.5248   6  14   0.1008   0.1387   0.1305  -0.0466   0.0406  -0.0500   0.00    0.0
2026/01/15 02:53:00.000   46.877096385    7.465037996   956.5221   6  14   0.1004   0.1383   0.1297  -0.0468   0.0408  -0.0500   0.00    0.0
2026/01/15 02:53:30.000   46.877096387    7.465038005   956.5196   6  14   0.1000   0.1379   0.1288  -0.0470   0.0411  -0.0500   0.00    0.0
2026/01/15 02:54:00.000   46.877096390    7.465038010   956.5170   6  14   0.0996   0.1376   0.1280  -0.0473   0.0413  -0.0500   0.00    0.0
2026/01/15 02:54:30.000   46.877096392    7.465038010   956.5143   6  14   0.0991   0.1372   0.1272  -0.0475   0.0416  -0.0500   0.00    0.0
2026/01/15 02:55:00.000   46.877096396    7.465038006   956.5117   6  14   0.0987   0.1369   0.1264  -0.0477   0.0418  -0.0500   0.00    0.0
2026/01/15 02:55:30.000   46.877096397    7.465038007   956.5089   6  14   0.0983   0.1365   0.1255  -0.0479   0.0420  -0.0499   0.00    0.0
2026/01/15 02:56:00.000   46.877096397    7.465038008   956.5061   6  14   0.0979   0.1361   0.1247  -0.0482   0.0423  -0.0499   0.00    0.0
2026/01/15 02:56:30.000   46.877096396    7.465038003   956.5048   6  13   0.0975   0.1358   0.1240  -0.0484   0.0424  -0.0499   0.00    0.0
2026/01/15 02:57:00.000   46.877096396    7.465037994   956.5035   6  13   0.0971   0.1354   0.1233  -0.0486   0.0425  -0.0499   0.00    0.0
2026/01/15 02:57:30.000   46.877096396    7.465037988   956.5022   6  13   0.0966   0.1351   0.1226  -0.0488   0.0426  -0.0499   0.00    0.0
2026/01/15 02:58:00.000   46.877096397    7.465037981   956.5012   6  13   0.0962   0.1347   0.1219  -0.0490   0.0426  -0.0499   0.00    0.0
2026/01/15 02:58:30.000   46.877096397    7.465037973   956.5003   6  13   0.0958   0.1343   0.1212  -0.0492   0.0427  -0.0499   0.00    0.0
2026/01/15 02:59:00.000   46.877096395    7.465037967   956.4991   6  13   0.0954   0.1340   0.1205  -0.0494   0.0428  -0.0499   0.00    0.0
2026/01/15 02:59:30.000   46.877096392    7.465037957   956.4981   6  13   0.0950   0.1336   0.1198  -0.0496   0.0429  -0.0499   0.00    0.0
2026/01/15 03:00:00.000   46.877096390    7.465037944   956.4970   6  13   0.0945   0.1333   0.1191  -0.0498   0.0430  -0.0498   0.00    0.0
2026/01/15 03:00:30.000   46.877096390    7.465037933   956.4957   6  13   0.0941   0.1329   0.1184  -0.0500   0.0431  -0.0498   0.00    0.0
2026/01/15 03:01:00.000   46.877096391    7.465037921   956.4943   6  13   0.0937   0.1325   0.1177  -0.0501   0.0432  -0.0498   0.00    0.0
2026/01/15 03:01:30.000   46.877096392    7.465037907   956.4932   6  13   0.0933   0.1322   0.1169  -0.0503   0.0433  -0.0498   0.00    0.0
2026/01/15 03:02:00.000   46.877096392    7.465037892   956.4918   6  13   0.0928   0.1318   0.1162  -0.0505   0.0434  -0.0498   0.00    0.0
2026/01/15 03:02:30.000   46.877096392    7.465037872   956.4906   6  13   0.0924   0.1314   0.1155  -0.0507   0.0434  -0.0497   0.00    0.0
2026/01/15 03:03:00.000   46.877096392    7.465037855   956.4893   6  13   0.0920   0.1310   0.1148  -0.0508   0.0435  -0.0497   0.00    0.0
2026/01/15 03:03:30.000   46.877096392    7.465037843   956.4876   6  13   0.0916   0.1306   0.1141  -0.0510   0.0436  -0.0497   0.00    0.0
2026/01/15 03:04:00.000   46.877096393    7.465037831   956.4861   6  13   0.0911   0.1303   0.1134  -0.0511   0.0437  -0.0496   0.00    0.0
2026/01/15 03:04:30.000   46.877096392    7.465037819   956.4848   6  13   0.0907   0.1299   0.1126  -0.0513   0.0437  -0.0496   0.00    0.0
2026/01/15 03:05:00.000   46.877096392    7.465037807   956.4832   6  14   0.0903   0.1295   0.1119  -0.0514   0.0438  -0.0496   0.00    0.0
2026/01/15 03:05:30.000   46.877096390    7.465037800   956.4818   6  14   0.0899   0.1291   0.1112  -0.0516   0.0439  -0.0495   0.00    0.0
2026/01/15 03:06:00.000   46.877096387    7.465037788   956.4805   6  14   0.0894   0.1287   0.1105  -0.0517   0.0440  -0.0495   0.00    0.0
2026/01/15 03:06:30.000   46.877096384    7.465037779   956.4792   6  14   0.0890   0.1283   0.1098  -0.0519   0.0440  -0.0494   0.00    0.0
2026/01/15 03:07:00.000   46.877096382    7.465037764   956.4778   6  14   0.0886   0.1279   0.1091  -0.0520   0.0441  -0.0494   0.00    0.0
2026/01/15 03:07:30.000   46.877096381    7.465037750   956.4765   6  14   0.0882   0.1275   0.1084  -0.0521   0.0441  -0.0493   0.00    0.0
2026/01/15 03:08:00.000   46.877096381    7.465037737   956.4751   6  14   0.0877   0.1271   0.1076  -0.0522   0.0442  -0.0493   0.00    0.0
2026/01/15 03:08:30.000   46.877096381    7.465037727   956.4736   6  14   0.0873   0.1267   0.1069  -0.0523   0.0443  -0.0492   0.00    0.0
2026/01/15 03:09:00.000   46.877096380    7.465037717   956.4724   6  14   0.0869   0.1263   0.1062  -0.0525   0.0443  -0.0492   0.00    0.0
2026/01/15 03:09:30.000   46.877096379    7.465037708   956.4711   6  14   0.0865   0.1259   0.1055  -0.0526   0.0443  -0.0491   0.00    0.0
2026/01/15 03:10:00.000   46.877096378    7.465037705   956.4698   6  14   0.0861   0.1255   0.1048  -0.0527   0.0444  -0.0491   0.00    0.0
2026/01/15 03:10:30.000   46.877096376    7.465037707   956.4683   6  14   0.0856   0.1251   0.1041  -0.0528   0.0444  -0.0490   0.00    0.0
2026/01/15 03:11:00.000   46.877096375    7.465037712   956.4671   6  14   0.0852   0.1247   0.1034  -0.0528   0.0445  -0.0489   0.00    0.0
2026/01/15 03:11:30.000   46.877096374    7.465037711   956.4656   6  14   0.0848   0.1243   0.1027  -0.0529   0.0445  -0.0489   0.00    0.0
2026/01/15 03:12:00.000   46.877096372    7.465037710   956.4643   6  14   0.0844   0.1238   0.1020  -0.0530   0.0445  -0.0488   0.00    0.0
2026/01/15 03:12:30.000   46.877096371    7.465037703   956.4631   6  14   0.0840   0.1234   0.1013  -0.0531   0.0445  -0.0487   0.00    0.0
2026/01/15 03:13:00.000   46.877096370    7.465037692   956.4617   6  14   0.0835   0.1230   0.1006  -0.0531   0.0446  -0.0487   0.00    0.0
2026/01/15 03:13:30.000   46.877096371    7.465037674   956.4603   6  14   0.0831   0.1226   0.1000  -0.0532   0.0446  -0.0486   0.00    0.0
2026/01/15 03:14:00.000   46.877096371    7.465037665   956.4590   6  14   0.0827   0.1222   0.0993  -0.0533   0.0446  -0.0485   0.00    0.0
2026/01/15 03:14:30.000   46.877096371    7.465037660   956.4577   6  14   0.0823   0.1218   0.0986  -0.0533   0.0446  -0.0484   0.00    0.0
2026/01/15 03:15:00.000   46.877096370    7.465037665   956.4564   6  14   0.0819   0.1213   0.0979  -0.0533   0.0446  -0.0484   0.00    0.0
2026/01/15 03:15:30.000   46.877096368    7.465037665   956.4553   6  15   0.0815   0.1209   0.0973  -0.0534   0.0446  -0.0483   0.00    0.0
2026/01/15 03:16:00.000   46.877096367    7.465037660   956.4540   6  15   0.0810   0.1205   0.0966  -0.0534   0.0446  -0.0482   0.00    0.0
2026/01/15 03:16:30.000   46.877096365    7.465037648   956.4527   6  15   0.0806   0.1200   0.0959  -0.0534   0.0446  -0.0481   0.00    0.0
2026/01/15 03:17:00.000   46.877096364    7.465037637   956.4515   6  15   0.0802   0.1196   0.0953  -0.0534   0.0445  -0.0480   0.00    0.0
2026/01/15 03:17:30.000   46.877096364    7.465037625   956.4501   6  15   0.0798   0.1192   0.0946  -0.0534   0.0445  -0.0479   0.00    0.0
2026/01/15 03:18:00.000   46.877096363    7.465037615   956.4489   6  15   0.0794   0.1187   0.0940  -0.0534   0.0445  -0.0478   0.00    0.0
2026/01/15 03:18:30.000   46.877096361    7.465037605   956.4476   6  15   0.0790   0.1183   0.0933  -0.0534   0.0444  -0.0477   0.00    0.0
2026/01/15 03:19:00.000   46.877096360    7.465037595   956.4461   6  15   0.0786   0.1178   0.0927  -0.0534   0.0444  -0.0476   0.00    0.0
2026/01/15 03:19:30.000   46.877096359    7.465037584   956.4447   6  15   0.0782   0.1174   0.0920  -0.0534   0.0444  -0.0475   0.00    0.0
2026/01/15 03:20:00.000   46.877096358    7.465037569   956.4431   6  15   0.0778   0.1169   0.0914  -0.0534   0.0443  -0.0473   0.00    0.0
2026/01/15 03:20:30.000   46.877096359    7.465037552   956.4417   6  15   0.0774   0.1165   0.0908  -0.0534   0.0443  -0.0472   0.00    0.0
2026/01/15 03:21:00.000   46.877096360    7.465037538   956.4402   6  15   0.0770   0.1160   0.0901  -0.0534   0.0442  -0.0471   0.00    0.0
2026/01/15 03:21:30.000   46.877096361    7.465037524   956.4386   6  15   0.0765   0.1156   0.0895  -0.0533   0.0442  -0.0470   0.00    0.0
2026/01/15 03:22:00.000   46.877096362    7.465037513   956.4372   6  15   0.0761   0.1151   0.0889  -0.0533   0.0441  -0.0469   0.00    0.0
2026/01/15 03:22:30.000   46.877096362    7.465037502   956.4358   6  15   0.0757   0.1147   0.0883  -0.0532   0.0440  -0.0468   0.00    0.0
2026/01/15 03:23:00.000   46.877096362    7.465037496   956.4347   6  15   0.0753   0.1142   0.0876  -0.0532   0.0440  -0.0466   0.00    0.0
2026/01/15 03:23:30.000   46.877096363    7.465037484   956.4332   6  15   0.0749   0.1138   0.0870  -0.0531   0.0439  -0.0465   0.00    0.0
2026/01/15 03:24:00.000   46.877096364    7.465037472   956.4319   6  15   0.0745   0.1133   0.0864  -0.0531   0.0438  -0.0464   0.00    0.0
2026/01/15 03:24:30.000   46.877096365    7.465037459   956.4302   6  15   0.0742   0.1129   0.0858  -0.0530   0.0437  -0.0463   0.00    0.0
2026/01/15 03:25:00.000   46.877096367    7.465037443   956.4286   6  15   0.0738   0.1124   0.0852  -0.0529   0.0436  -0.0461   0.00    0.0
2026/01/15 03:25:30.000   46.877096369    7.465037426   956.4272   6  15   0.0734   0.1120   0.0847  -0.0529   0.0435  -0.0460   0.00    0.0
2026/01/15 03:26:00.000   46.877096371    7.465037404   956.4255   6  15   0.0730   0.1115   0.0841  -0.0528   0.0435  -0.0459   0.00    0.0
2026/01/15 03:26:30.000   46.877096374    7.465037384   956.4236   6  15   0.0726   0.1110   0.0835  -0.0527   0.0434  -0.0457   0.00    0.0
2026/01/15 03:27:00.000   46.877096376    7.465037370   956.4218   6  15   0.0722   0.1106   0.0829  -0.0526   0.0433  -0.0456   0.00    0.0
2026/01/15 03:27:30.000   46.877096378    7.465037351   956.4200   6  15   0.0718   0.1101   0.0823  -0.0525   0.0432  -0.0454   0.00    0.0
2026/01/15 03:28:00.000   46.877096379    7.465037332   956.4186   6   7   0.0716   0.1098   0.0819  -0.0525   0.0431  -0.0453   0.00    0.0
2026/01/15 03:28:30.000   46.877096380    7.465037314   956.4170   6   7   0.0713   0.1095   0.0816  -0.0525   0.0430  -0.0452   0.00    0.0
2026/01/15 03:29:00.000   46.877096382    7.465037306   956.4169   6  13   0.0709   0.1090   0.0812  -0.0524   0.0431  -0.0451   0.00    0.0
2026/01/15 03:29:30.000   46.877096384    7.465037297   956.4167   6  13   0.0705   0.1086   0.0808  -0.0524   0.0432  -0.0450   0.00    0.0
2026/01/15 03:30:00.000   46.877096386    7.465037289   956.4164   6  13   0.0701   0.1082   0.0805  -0.0523   0.0433  -0.0449   0.00    0.0
2026/01/15 03:30:30.000   46.877096388    7.465037281   956.4162   6  13   0.0697   0.1078   0.0801  -0.0522   0.0433  -0.0447   0.00    0.0
2026/01/15 03:31:00.000   46.877096390    7.465037273   956.4159   6  13   0.0694   0.1074   0.0798  -0.0521   0.0434  -0.0446   0.00    0.0
2026/01/15 03:31:30.000   46.877096392    7.465037264   956.4156   6  13   0.0690   0.1070   0.0794  -0.0519   0.0435  -0.0445   0.00    0.0
2026/01/15 03:32:00.000   46.877096394    7.465037255   956.4152   6  13   0.0686   0.1066   0.0790  -0.0518   0.0435  -0.0444   0.00    0.0
2026/01/15 03:32:30.000   46.877096397    7.465037245   956.4147   6  13   0.0682   0.1062   0.0787  -0.0517   0.0436  -0.0443   0.00    0.0
2026/01/15 03:33:00.000   46.877096401    7.465037233   956.4143   6  13   0.0678   0.1057   0.0783  -0.0516   0.0436  -0.0442   0.00    0.0
2026/01/15 03:33:30.000   46.877096405    7.465037221   956.4138   6  13   0.0675   0.1053   0.0780  -0.0515   0.0436  -0.0441   0.00    0.0
2026/01/15 03:34:00.000   46.877096410    7.465037210   956.4132   6  13   0.0671   0.1049   0.0776  -0.0514   0.0437  -0.0439   0.00    0.0
2026/01/15 03:34:30.000   46.877096414    7.465037202   956.4127   6  13   0.0667   0.1045   0.0772  -0.0513   0.0437  -0.0438   0.00    0.0
2026/01/15 03:35:00.000   46.877096416    7.465037193   956.4122   6  13   0.0663   0.1041   0.0769  -0.0511   0.0437  -0.0437   0.00    0.0
2026/01/15 03:35:30.000   46.877096417    7.465037186   956.4117   6  13   0.0660   0.1036   0.0765  -0.0510   0.0437  -0.0436   0.00    0.0
2026/01/15 03:36:00.000   46.877096419    7.465037179   956.4111   6  13   0.0656   0.1032   0.0762  -0.0509   0.0437  -0.0434   0.00    0.0
2026/01/15 03:36:30.000   46.877096422    7.465037172   956.4106   6  13   0.0652   0.1028   0.0758  -0.0507   0.0437  -0.0433   0.00    0.0
2026/01/15 03:37:00.000   46.877096424    7.465037168   956.4102   6  13   0.0649   0.1024   0.0755  -0.0506   0.0437  -0.0432   0.00    0.0
2026/01/15 03:37:30.000   46.877096425    7.465037163   956.4096   6  13   0.0645   0.1020   0.0751  -0.0505   0.0436  -0.0431   0.00    0.0
2026/01/15 03:38:00.000   46.877096426    7.465037158   956.4091   6  13   0.0642   0.1015   0.0747  -0.0503   0.0436  -0.0429   0.00    0.0
2026/01/15 03:38:30.000   46.877096428    7.465037153   956.4086   6  13   0.0638   0.1011   0.0744  -0.0502   0.0436  -0.0428   0.00    0.0
2026/01/15 03:39:00.000   46.877096429    7.465037149   956.4081   6  13   0.0635   0.1007   0.0740  -0.0500   0.0435  -0.0427   0.00    0.0
2026/01/15 03:39:30.000   46.877096431    7.465037143   956.4075   6  13   0.0631   0.1003   0.0737  -0.0499   0.0435  -0.0426   0.00    0.0
2026/01/15 03:40:00.000   46.877096433    7.465037134   956.4070   6  13   0.0627   0.0998   0.0733  -0.0497   0.0435  -0.0424   0.00    0.0
2026/01/15 03:40:30.000   46.877096435    7.465037126   956.4064   6  13   0.0624   0.0994   0.0730  -0.0496   0.0434  -0.0423   0.00    0.0
2026/01/15 03:41:00.000   46.877096438    7.465037115   956.4057   6  13   0.0621   0.0990   0.0726  -0.0494   0.0433  -0.0422   0.00    0.0
2026/01/15 03:41:30.000   46.877096440    7.465037102   956.4050   6  13   0.0617   0.0986   0.0723  -0.0493   0.0433  -0.0420   0.00    0.0
2026/01/15 03:42:00.000   46.877096442    7.465037091   956.4043   6  13   0.0614   0.0981   0.0719  -0.0491   0.0432  -0.0419   0.00    0.0
2026/01/15 03:42:30.000   46.877096444    7.465037080   956.4035   6  13   0.0610   0.0977   0.0715  -0.0489   0.0431  -0.0417   0.00    0.0
2026/01/15 03:43:00.000   46.877096447    7.465037072   956.4028   6  13   0.0607   0.0973   0.0712  -0.0488   0.0431  -0.0416   0.00    0.0
2026/01/15 03:43:30.000   46.877096448    7.465037066   956.4021   6  13   0.0603   0.0969   0.0708  -0.0486   0.0430  -0.0415   0.00    0.0
2026/01/15 03:44:00.000   46.877096451    7.465037057   956.4013   6  13   0.0600   0.0964   0.0705  -0.0484   0.0429  -0.0413   0.00    0.0
2026/01/15 03:44:30.000   46.877096454    7.465037047   956.4005   6  13   0.0597   0.0960   0.0701  -0.0483   0.0428  -0.0412   0.00    0.0
2026/01/15 03:45:00.000   46.877096456    7.465037037   956.3997   6  13   0.0593   0.0956   0.0698  -0.0481   0.0427  -0.0410   0.00    0.0
2026/01/15 03:45:30.000   46.877096457    7.465037028   956.3989   6  13   0.0590   0.0952   0.0694  -0.0479   0.0426  -0.0409   0.00    0.0
2026/01/15 03:46:00.000   46.877096459    7.465037019   956.3981   6  13   0.0587   0.0947   0.0691  -0.0477   0.0425  -0.0407   0.00    0.0
2026/01/15 03:46:30.000   46.877096463    7.465037009   956.3972   6  13   0.0583   0.0943   0.0687  -0.0476   0.0424  -0.0406   0.00    0.0
2026/01/15 03:47:00.000   46.877096466    7.465036999   956.3964   6  13   0.0580   0.0939   0.0684  -0.0474   0.0423  -0.0404   0.00    0.0
2026/01/15 03:47:30.000   46.877096468    7.465036990   956.3957   6  13   0.0577   0.0934   0.0681  -0.0472   0.0421  -0.0403   0.00    0.0
2026/01/15 03:48:00.000   46.877096470    7.465036981   956.3948   6  13   0.0574   0.0930   0.0677  -0.0470   0.0420  -0.0401   0.00    0.0
2026/01/15 03:48:30.000   46.877096471    7.465036976   956.3945   6   6   0.0572   0.0928   0.0676  -0.0470   0.0421  -0.0401   0.00    0.0
2026/01/15 03:49:00.000   46.877096471    7.465036972   956.3942   6   6   0.0571   0.0925   0.0674  -0.0470   0.0421  -0.0401   0.00    0.0
2026/01/15 03:49:30.000   46.877096471    7.465036968   956.3939   6   6   0.0569   0.0922   0.0672  -0.0470   0.0421  -0.0400   0.00    0.0
2026/01/15 03:50:00.000   46.877096471    7.465036964   956.3937   6   6   0.0568   0.0920   0.0671  -0.0469   0.0421  -0.0400   0.00    0.0
2026/01/15 03:50:30.000   46.877096471    7.465036960   956.3933   6   6   0.0566   0.0917   0.0669  -0.0469   0.0422  -0.0399   0.00    0.0
2026/01/15 03:51:00.000   46.877096472    7.465036956   956.3929   6   6   0.0565   0.0915   0.0668  -0.0469   0.0422  -0.0399   0.00    0.0
2026/01/15 03:51:30.000   46.877096473    7.465036952   956.3926   6   6   0.0563   0.0912   0.0666  -0.0469   0.0422  -0.0398   0.00    0.0
2026/01/15 03:52:00.000   46.877096473    7.465036947   956.3923   6   6   0.0562   0.0909   0.0665  -0.0468   0.0422  -0.0398   0.00    0.0
2026/01/15 03:52:30.000   46.877096473    7.465036940   956.3920   6   6   0.0560   0.0907   0.0663  -0.0468   0.0422  -0.0397   0.00    0.0
2026/01/15 03:53:00.000   46.877096474    7.465036932   956.3917   6   6   0.0559   0.0904   0.0661  -0.0468   0.0422  -0.0397   0.00    0.0
2026/01/15 03:53:30.000   46.877096476    7.465036926   956.3913   6   6   0.0557   0.0902   0.0660  -0.0468   0.0422  -0.0396   0.00    0.0
2026/01/15 03:54:00.000   46.877096477    7.465036921   956.3910   6   6   0.0556   0.0899   0.0658  -0.0467   0.0423  -0.0396   0.00    0.0
2026/01/15 03:54:30.000   46.877096478    7.465036919   956.3907   6   6   0.0554   0.0896   0.0657  -0.0467   0.0423  -0.0395   0.00    0.0
2026/01/15 03:55:00.000   46.877096479    7.465036912   956.3904   6   6   0.0553   0.0894   0.0655  -0.0467   0.0423  -0.0395   0.00    0.0
2026/01/15 03:55:30.000   46.877096479    7.465036908   956.3902   6   6   0.0552   0.0891   0.0654  -0.0466   0.0422  -0.0395   0.00    0.0
2026/01/15 03:56:00.000   46.877096479    7.465036903   956.3898   6   6   0.0550   0.0888   0.0652  -0.0466   0.0422  -0.0394   0.00    0.0
2026/01/15 03:56:30.000   46.877096481    7.465036900   956.3894   6   6   0.0549   0.0886   0.0650  -0.0465   0.0422  -0.0394   0.00    0.0
2026/01/15 03:57:00.000   46.877096483    7.465036894   956.3890   6   6   0.0547   0.0883   0.0649  -0.0465   0.0422  -0.0393   0.00    0.0
2026/01/15 03:57:30.000   46.877096484    7.465036887   956.3887   6   6   0.0546   0.0880   0.0647  -0.0465   0.0422  -0.0393   0.00    0.0
2026/01/15 03:58:00.000   46.877096485    7.465036882   956.3885   6   6   0.0544   0.0877   0.0646  -0.0464   0.0422  -0.0392   0.00    0.0
2026/01/15 03:58:30.000   46.877096485    7.465036879   956.3882   6   6   0.0543   0.0875   0.0644  -0.0464   0.0422  -0.0392   0.00    0.0
2026/01/15 03:59:00.000   46.877096485    7.465036879   956.3880   6   6   0.0542   0.0872   0.0643  -0.0463   0.0421  -0.0391   0.00    0.0
2026/01/15 03:59:30.000   46.877096485    7.465036875   956.3878   6   6   0.0540   0.0869   0.0641  -0.0463   0.0421  -0.0391   0.00    0.0
2026/01/15 04:00:00.000   46.877096485    7.465036875   956.3876   6   6   0.0539   0.0866   0.0640  -0.0462   0.0421  -0.0390   0.00    0.0
2026/01/15 04:00:30.000   46.877096486    7.465036872   956.3873   6   6   0.0537   0.0864   0.0638  -0.0462   0.0421  -0.0390   0.00    0.0
2026/01/15 04:01:00.000   46.877096485    7.465036874   956.3871   6   6   0.0536   0.0861   0.0636  -0.0461   0.0420  -0.0389   0.00    0.0
2026/01/15 04:01:30.000   46.877096485    7.465036873   956.3869   6   6   0.0535   0.0858   0.0635  -0.0460   0.0420  -0.0389   0.00    0.0
2026/01/15 04:02:00.000   46.877096484    7.465036873   956.3867   6   6   0.0533   0.0855   0.0633  -0.0460   0.0420  -0.0388   0.00    0.0
2026/01/15 04:02:30.000   46.877096484    7.465036871   956.3864   6   7   0.0532   0.0853   0.0632  -0.0459   0.0419  -0.0388   0.00    0.0
2026/01/15 04:03:00.000   46.877096485    7.465036868   956.3860   6   6   0.0530   0.0850   0.0630  -0.0459   0.0419  -0.0387   0.00    0.0
2026/01/15 04:03:30.000   46.877096485    7.465036864   956.3856   6   6   0.0529   0.0847   0.0629  -0.0458   0.0418  -0.0387   0.00    0.0
2026/01/15 04:04:00.000   46.877096486    7.465036856   956.3852   6   6   0.0528   0.0844   0.0627  -0.0457   0.0418  -0.0386   0.00    0.0
2026/01/15 04:04:30.000   46.877096487    7.465036851   956.3848   6   6   0.0526   0.0841   0.0625  -0.0457   0.0417  -0.0386   0.00    0.0
2026/01/15 04:05:00.000   46.877096488    7.465036846   956.3845   6   6   0.0525   0.0839   0.0624  -0.0456   0.0417  -0.0385   0.00    0.0
2026/01/15 04:05:30.000   46.877096488    7.465036841   956.3842   6  13   0.0524   0.0836   0.0622  -0.0455   0.0416  -0.0385   0.00    0.0
2026/01/15 04:06:00.000   46.877096489    7.465036835   956.3838   6  13   0.0522   0.0833   0.0621  -0.0454   0.0416  -0.0384   0.00    0.0
2026/01/15 04:06:30.000   46.877096489    7.465036834   956.3835   6  13   0.0521   0.0830   0.0619  -0.0454   0.0415  -0.0384   0.00    0.0
2026/01/15 04:07:00.000   46.877096489    7.465036831   956.3831   6  13   0.0519   0.0827   0.0618  -0.0453   0.0415  -0.0383   0.00    0.0
2026/01/15 04:07:30.000   46.877096489    7.465036828   956.3828   6  13   0.0518   0.0825   0.0616  -0.0452   0.0414  -0.0383   0.00    0.0
2026/01/15 04:08:00.000   46.877096489    7.465036822   956.3824   6  13   0.0517   0.0822   0.0615  -0.0451   0.0413  -0.0382   0.00    0.0
2026/01/15 04:08:30.000   46.877096489    7.465036817   956.3821   6  13   0.0515   0.0819   0.0613  -0.0451   0.0413  -0.0382   0.00    0.0
2026/01/15 04:09:00.000   46.877096489    7.465036814   956.3817   6  13   0.0514   0.0816   0.0611  -0.0450   0.0412  -0.0381   0.00    0.0
2026/01/15 04:09:30.000   46.877096488    7.465036812   956.3813   6  13   0.0513   0.0813   0.0610  -0.0449   0.0411  -0.0380   0.00    0.0
2026/01/15 04:10:00.000   46.877096488    7.465036810   956.3808   6  13   0.0511   0.0810   0.0608  -0.0448   0.0411  -0.0380   0.00    0.0
2026/01/15 04:10:30.000   46.877096488    7.465036810   956.3804   6  13   0.0510   0.0807   0.0607  -0.0447   0.0410  -0.0379   0.00    0.0
2026/01/15 04:11:00.000   46.877096487    7.465036811   956.3800   6  13   0.0509   0.0805   0.0605  -0.0447   0.0409  -0.0379   0.00    0.0
2026/01/15 04:11:30.000   46.877096485    7.465036811   956.3796   6  13   0.0507   0.0802   0.0604  -0.0446   0.0408  -0.0378   0.00    0.0
2026/01/15 04:12:00.000   46.877096485    7.465036808   956.3791   6  13   0.0506   0.0799   0.0602  -0.0445   0.0408  -0.0378   0.00    0.0
2026/01/15 04:12:30.000   46.877096484    7.465036805   956.3786   6  13   0.0505   0.0796   0.0600  -0.0444   0.0407  -0.0377   0.00    0.0
2026/01/15 04:13:00.000   46.877096484    7.465036802   956.3781   6  13   0.0503   0.0793   0.0599  -0.0443   0.0406  -0.0376   0.00    0.0
2026/01/15 04:13:30.000   46.877096484    7.465036798   956.3776   6  13   0.0502   0.0790   0.0597  -0.0442   0.0405  -0.0376   0.00    0.0
2026/01/15 04:14:00.000   46.877096483    7.465036795   956.3770   6  13   0.0501   0.0787   0.0596  -0.0441   0.0404  -0.0375   0.00    0.0
2026/01/15 04:14:30.000   46.877096483    7.465036793   956.3765   6  13   0.0499   0.0785   0.0594  -0.0440   0.0403  -0.0374   0.00    0.0
2026/01/15 04:15:00.000   46.877096482    7.465036794   956.3760   6  13   0.0498   0.0782   0.0593  -0.0439   0.0402  -0.0374   0.00    0.0
2026/01/15 04:15:30.000   46.877096481    7.465036794   956.3754   6  13   0.0497   0.0779   0.0591  -0.0438   0.0401  -0.0373   0.00    0.0
2026/01/15 04:16:00.000   46.877096481    7.465036792   956.3748   6  13   0.0495   0.0776   0.0589  -0.0437   0.0400  -0.0372   0.00    0.0
2026/01/15 04:16:30.000   46.877096480    7.465036791   956.3743   6  13   0.0494   0.0773   0.0588  -0.0436   0.0399  -0.0372   0.00    0.0
2026/01/15 04:17:00.000   46.877096480    7.465036791   956.3737   6  13   0.0492   0.0770   0.0586  -0.0435   0.0398  -0.0371   0.00    0.0
2026/01/15 04:17:30.000   46.877096480    7.465036788   956.3731   6  13   0.0491   0.0767   0.0585  -0.0434   0.0397  -0.0370   0.00    0.0
2026/01/15 04:18:00.000   46.877096479    7.465036789   956.3725   6  13   0.0490   0.0764   0.0583  -0.0433   0.0396  -0.0370   0.00    0.0
2026/01/15 04:18:30.000   46.877096479    7.465036785   956.3725   6   5   0.0488   0.0762   0.0582  -0.0432   0.0395  -0.0369   0.00    0.0
