% program   : RTKLIB ver.EX 2.5.0
% inp file  : C:\Users\tevin\Desktop\GNSS - MASTA\SPRING SEM\4.SAT NAV DATA PROCESSING\TEAM PROJECT\SNDP-PROJECT\Old_data\data\ZIM200CHE_R_20260150000_01D_30S_MO.rnx
% inp file  : C:\Users\tevin\Desktop\GNSS - MASTA\SPRING SEM\4.SAT NAV DATA PROCESSING\TEAM PROJECT\SNDP-PROJECT\Old_data\products\nav\BRDC00IGS_R_20260150000_01D_MN.rnx
% inp file  : C:\Users\tevin\Desktop\GNSS - MASTA\SPRING SEM\4.SAT NAV DATA PROCESSING\TEAM PROJECT\SNDP-PROJECT\Old_data\products\sp3\COD0MGXFIN_20260150000_01D_05M_ORB.SP3
% inp file  : C:\Users\tevin\Desktop\GNSS - MASTA\SPRING SEM\4.SAT NAV DATA PROCESSING\TEAM PROJECT\SNDP-PROJECT\Old_data\products\clk\COD0MGXFIN_20260150000_01D_30S_CLK.CLK
% obs start : 2026/01/15 00:00:00.0 GPST (week2401 345600.0s)
% obs end   : 2026/01/15 23:59:30.0 GPST (week2401 431970.0s)
% pos mode  : PPP Static
% freqs     : L1+L2/E5b
% solution  : Forward
% elev mask : 15.0 deg
% dynamics  : on
% tidecorr  :
% ionos opt : Iono-Free LC
% tropo opt : Saastamoinen
% ephemeris : Precise
% navi sys  : GPS GLONASS Galileo QZSS BDS
% antenna1  : TRM59800.00     NONE  ( 0.0000  0.0000  0.0000)
%
% (lat/lon/height=WGS84/ellipsoidal,Q=1:fix,2:float,3:sbas,4:dgps,5:single,6:ppp,ns=# of satellites)
%  GPST                  latitude(deg) longitude(deg)  height(m)   Q  ns   sdn(m)   sde(m)   sdu(m)  sdne(m)  sdeu(m)  sdun(m) age(s)  ratio
2026/01/15 00:00:00.000   46.877099514    7.465047045   957.0842   6  15   2.9692   2.6523   5.7887   0.4697   0.4081  -1.2974   0.00    0.0
2026/01/15 00:00:30.000   46.877099624    7.465045761   957.0488   6   8   2.0618   1.8256   3.9911   0.5377  -0.5820  -0.6631   0.00    0.0
2026/01/15 00:01:00.000   46.877098599    7.465044940   957.1858   6   8   1.6744   1.4798   3.2328   0.4697  -0.5480  -0.4763   0.00    0.0
2026/01/15 00:01:30.000   46.877098422    7.465044241   957.2771   6   8   1.4453   1.2770   2.7844   0.4166  -0.5016  -0.3874   0.00    0.0
2026/01/15 00:02:00.000   46.877098373    7.465044011   957.3255   6   8   1.2890   1.1396   2.4777   0.3762  -0.4623  -0.3366   0.00    0.0
2026/01/15 00:02:30.000   46.877098210    7.465043725   957.3571   6   8   1.1734   1.0387   2.2497   0.3445  -0.4300  -0.3047   0.00    0.0
2026/01/15 00:03:00.000   46.877097812    7.465043616   957.3876   6   8   1.0833   0.9604   2.0707   0.3189  -0.4032  -0.2836   0.00    0.0
2026/01/15 00:03:30.000   46.877097424    7.465043626   957.3920   6   8   1.0102   0.8974   1.9246   0.2976  -0.3805  -0.2691   0.00    0.0
2026/01/15 00:04:00.000   46.877097291    7.465043670   957.3868   6   8   0.9493   0.8453   1.8019   0.2795  -0.3611  -0.2590   0.00    0.0
2026/01/15 00:04:30.000   46.877097186    7.465043830   957.3495   6   9   0.8984   0.8022   1.7010   0.2606  -0.3513  -0.2410   0.00    0.0
2026/01/15 00:05:00.000   46.877097205    7.465043929   957.2983   6   8   0.8542   0.7650   1.6119   0.2446  -0.3412  -0.2285   0.00    0.0
2026/01/15 00:05:30.000   46.877097270    7.465044087   957.2663   6   8   0.8151   0.7325   1.5323   0.2308  -0.3313  -0.2200   0.00    0.0
2026/01/15 00:06:00.000   46.877097378    7.465044232   957.2544   6   8   0.7802   0.7037   1.4604   0.2187  -0.3216  -0.2144   0.00    0.0
2026/01/15 00:06:30.000   46.877097417    7.465044286   957.2424   6   8   0.7487   0.6780   1.3948   0.2080  -0.3122  -0.2107   0.00    0.0
2026/01/15 00:07:00.000   46.877097365    7.465044283   957.2408   6   8   0.7201   0.6548   1.3346   0.1984  -0.3032  -0.2085   0.00    0.0
2026/01/15 00:07:30.000   46.877097352    7.465044298   957.2614   6   8   0.6939   0.6338   1.2790   0.1898  -0.2946  -0.2071   0.00    0.0
2026/01/15 00:08:00.000   46.877097386    7.465044322   957.2622   6   8   0.6698   0.6146   1.2274   0.1820  -0.2863  -0.2064   0.00    0.0
2026/01/15 00:08:30.000   46.877097397    7.465044245   957.2451   6   8   0.6475   0.5970   1.1793   0.1749  -0.2785  -0.2060   0.00    0.0
2026/01/15 00:09:00.000   46.877097353    7.465044082   957.2407   6   8   0.6267   0.5808   1.1343   0.1684  -0.2709  -0.2058   0.00    0.0
2026/01/15 00:09:30.000   46.877097322    7.465043943   957.2288   6   8   0.6082   0.5663   1.0937   0.1649  -0.2666  -0.2103   0.00    0.0
2026/01/15 00:10:00.000   46.877097257    7.465043907   957.2088   6   8   0.5907   0.5529   1.0552   0.1615  -0.2620  -0.2137   0.00    0.0
2026/01/15 00:10:30.000   46.877097330    7.465043790   957.1825   6   8   0.5742   0.5402   1.0188   0.1581  -0.2573  -0.2161   0.00    0.0
2026/01/15 00:11:00.000   46.877097451    7.465043700   957.1606   6   8   0.5585   0.5284   0.9842   0.1548  -0.2526  -0.2177   0.00    0.0
2026/01/15 00:11:30.000   46.877097524    7.465043524   957.1254   6   8   0.5436   0.5172   0.9514   0.1516  -0.2478  -0.2186   0.00    0.0
2026/01/15 00:12:00.000   46.877097527    7.465043362   957.0920   6   8   0.5294   0.5066   0.9202   0.1484  -0.2430  -0.2190   0.00    0.0
2026/01/15 00:12:30.000   46.877097547    7.465043269   957.0591   6   8   0.5159   0.4966   0.8904   0.1452  -0.2382  -0.2190   0.00    0.0
2026/01/15 00:13:00.000   46.877097497    7.465043273   957.0327   6   8   0.5030   0.4872   0.8620   0.1422  -0.2335  -0.2185   0.00    0.0
2026/01/15 00:13:30.000   46.877097456    7.465043287   957.0027   6   8   0.4906   0.4782   0.8350   0.1392  -0.2289  -0.2177   0.00    0.0
2026/01/15 00:14:00.000   46.877097404    7.465043307   956.9747   6   8   0.4787   0.4696   0.8091   0.1362  -0.2244  -0.2166   0.00    0.0
2026/01/15 00:14:30.000   46.877097351    7.465043370   956.9551   6   8   0.4673   0.4614   0.7845   0.1334  -0.2200  -0.2152   0.00    0.0
2026/01/15 00:15:00.000   46.877097294    7.465043418   956.9363   6   8   0.4564   0.4536   0.7609   0.1306  -0.2156  -0.2136   0.00    0.0
2026/01/15 00:15:30.000   46.877097311    7.465043510   956.9290   6   7   0.4464   0.4464   0.7420   0.1282  -0.2106  -0.2081   0.00    0.0
2026/01/15 00:16:00.000   46.877097299    7.465043604   956.9231   6   7   0.4367   0.4394   0.7236   0.1259  -0.2057  -0.2029   0.00    0.0
2026/01/15 00:16:30.000   46.877097309    7.465043601   956.9184   6   7   0.4274   0.4328   0.7058   0.1237  -0.2009  -0.1979   0.00    0.0
2026/01/15 00:17:00.000   46.877097304    7.465043571   956.9114   6   7   0.4183   0.4264   0.6885   0.1216  -0.1961  -0.1932   0.00    0.0
2026/01/15 00:17:30.000   46.877097304    7.465043566   956.9021   6   7   0.4095   0.4202   0.6717   0.1195  -0.1915  -0.1887   0.00    0.0
2026/01/15 00:18:00.000   46.877097312    7.465043597   956.8913   6   8   0.4011   0.4143   0.6553   0.1175  -0.1870  -0.1845   0.00    0.0
2026/01/15 00:18:30.000   46.877097338    7.465043596   956.8800   6   7   0.3928   0.4086   0.6395   0.1155  -0.1825  -0.1804   0.00    0.0
2026/01/15 00:19:00.000   46.877097346    7.465043586   956.8700   6   7   0.3849   0.4031   0.6242   0.1136  -0.1782  -0.1765   0.00    0.0
2026/01/15 00:19:30.000   46.877097344    7.465043579   956.8599   6   7   0.3771   0.3978   0.6093   0.1118  -0.1740  -0.1727   0.00    0.0
2026/01/15 00:20:00.000   46.877097381    7.465043506   956.8481   6   7   0.3696   0.3926   0.5949   0.1100  -0.1699  -0.1691   0.00    0.0
2026/01/15 00:20:30.000   46.877097395    7.465043504   956.8393   6   7   0.3623   0.3876   0.5809   0.1082  -0.1658  -0.1657   0.00    0.0
2026/01/15 00:21:00.000   46.877097430    7.465043528   956.8304   6   7   0.3552   0.3828   0.5673   0.1065  -0.1619  -0.1624   0.00    0.0
2026/01/15 00:21:30.000   46.877097443    7.465043569   956.8210   6   7   0.3483   0.3782   0.5541   0.1048  -0.1581  -0.1591   0.00    0.0
2026/01/15 00:22:00.000   46.877097440    7.465043610   956.8161   6   7   0.3417   0.3736   0.5414   0.1032  -0.1544  -0.1561   0.00    0.0
2026/01/15 00:22:30.000   46.877097413    7.465043657   956.8132   6   7   0.3351   0.3692   0.5290   0.1016  -0.1509  -0.1531   0.00    0.0
2026/01/15 00:23:00.000   46.877097438    7.465043652   956.8104   6   7   0.3288   0.3650   0.5170   0.1000  -0.1474  -0.1502   0.00    0.0
2026/01/15 00:23:30.000   46.877097451    7.465043694   956.8088   6   7   0.3227   0.3609   0.5054   0.0985  -0.1440  -0.1474   0.00    0.0
2026/01/15 00:24:00.000   46.877097471    7.465043741   956.8065   6   7   0.3167   0.3568   0.4942   0.0970  -0.1407  -0.1447   0.00    0.0
2026/01/15 00:24:30.000   46.877097472    7.465043760   956.8054   6   7   0.3109   0.3529   0.4833   0.0956  -0.1374  -0.1420   0.00    0.0
2026/01/15 00:25:00.000   46.877097472    7.465043817   956.8039   6   7   0.3052   0.3491   0.4727   0.0942  -0.1343  -0.1395   0.00    0.0
2026/01/15 00:25:30.000   46.877097493    7.465043849   956.8009   6   7   0.2997   0.3454   0.4624   0.0928  -0.1313  -0.1370   0.00    0.0
2026/01/15 00:26:00.000   46.877097514    7.465043863   956.7959   6   7   0.2943   0.3418   0.4525   0.0914  -0.1284  -0.1346   0.00    0.0
2026/01/15 00:26:30.000   46.877097527    7.465043884   956.7906   6   7   0.2891   0.3383   0.4428   0.0901  -0.1255  -0.1322   0.00    0.0
2026/01/15 00:27:00.000   46.877097546    7.465043901   956.7829   6   7   0.2840   0.3349   0.4335   0.0888  -0.1227  -0.1299   0.00    0.0
2026/01/15 00:27:30.000   46.877097561    7.465043922   956.7774   6   7   0.2790   0.3316   0.4244   0.0875  -0.1200  -0.1277   0.00    0.0
2026/01/15 00:28:00.000   46.877097556    7.465043964   956.7750   6   7   0.2741   0.3283   0.4156   0.0862  -0.1174  -0.1255   0.00    0.0
2026/01/15 00:28:30.000   46.877097567    7.465043951   956.7720   6   7   0.2694   0.3252   0.4071   0.0850  -0.1149  -0.1234   0.00    0.0
2026/01/15 00:29:00.000   46.877097569    7.465043974   956.7669   6   7   0.2648   0.3221   0.3988   0.0838  -0.1124  -0.1214   0.00    0.0
2026/01/15 00:29:30.000   46.877097573    7.465044025   956.7621   6   7   0.2603   0.3190   0.3908   0.0826  -0.1100  -0.1194   0.00    0.0
2026/01/15 00:30:00.000   46.877097586    7.465044010   956.7593   6   7   0.2559   0.3161   0.3830   0.0814  -0.1077  -0.1174   0.00    0.0
2026/01/15 00:30:30.000   46.877097576    7.465044014   956.7565   6   7   0.2517   0.3132   0.3754   0.0803  -0.1054  -0.1155   0.00    0.0
2026/01/15 00:31:00.000   46.877097564    7.465044006   956.7525   6   7   0.2475   0.3104   0.3681   0.0792  -0.1032  -0.1136   0.00    0.0
2026/01/15 00:31:30.000   46.877097557    7.465044004   956.7476   6   7   0.2435   0.3076   0.3609   0.0780  -0.1011  -0.1118   0.00    0.0
2026/01/15 00:32:00.000   46.877097550    7.465044044   956.7427   6   7   0.2395   0.3049   0.3540   0.0769  -0.0990  -0.1100   0.00    0.0
2026/01/15 00:32:30.000   46.877097534    7.465044067   956.7357   6   7   0.2356   0.3022   0.3472   0.0759  -0.0970  -0.1083   0.00    0.0
2026/01/15 00:33:00.000   46.877097524    7.465044073   956.7307   6   7   0.2318   0.2996   0.3407   0.0748  -0.0950  -0.1066   0.00    0.0
2026/01/15 00:33:30.000   46.877097505    7.465044126   956.7253   6   7   0.2282   0.2971   0.3343   0.0738  -0.0931  -0.1049   0.00    0.0
2026/01/15 00:34:00.000   46.877097492    7.465044134   956.7189   6   7   0.2246   0.2946   0.3282   0.0727  -0.0912  -0.1033   0.00    0.0
2026/01/15 00:34:30.000   46.877097479    7.465044155   956.7134   6   8   0.2210   0.2922   0.3221   0.0717  -0.0894  -0.1017   0.00    0.0
2026/01/15 00:35:00.000   46.877097468    7.465044188   956.7092   6   7   0.2176   0.2898   0.3163   0.0707  -0.0877  -0.1002   0.00    0.0
2026/01/15 00:35:30.000   46.877097468    7.465044186   956.7044   6   7   0.2143   0.2874   0.3106   0.0698  -0.0860  -0.0987   0.00    0.0
2026/01/15 00:36:00.000   46.877097466    7.465044194   956.6989   6   7   0.2110   0.2851   0.3051   0.0688  -0.0843  -0.0972   0.00    0.0
2026/01/15 00:36:30.000   46.877097461    7.465044182   956.6949   6   7   0.2078   0.2829   0.2997   0.0678  -0.0827  -0.0957   0.00    0.0
2026/01/15 00:37:00.000   46.877097454    7.465044151   956.6913   6   7   0.2047   0.2807   0.2945   0.0669  -0.0812  -0.0943   0.00    0.0
2026/01/15 00:37:30.000   46.877097447    7.465044164   956.6876   6   7   0.2016   0.2785   0.2894   0.0660  -0.0796  -0.0929   0.00    0.0
2026/01/15 00:38:00.000   46.877097451    7.465044192   956.6827   6   7   0.1986   0.2763   0.2844   0.0650  -0.0781  -0.0916   0.00    0.0
2026/01/15 00:38:30.000   46.877097461    7.465044252   956.6770   6   7   0.1957   0.2742   0.2796   0.0641  -0.0767  -0.0903   0.00    0.0
2026/01/15 00:39:00.000   46.877097471    7.465044320   956.6725   6   8   0.1928   0.2722   0.2749   0.0632  -0.0753  -0.0890   0.00    0.0
2026/01/15 00:39:30.000   46.877097470    7.465044350   956.6700   6   7   0.1901   0.2702   0.2703   0.0623  -0.0739  -0.0877   0.00    0.0
2026/01/15 00:40:00.000   46.877097456    7.465044377   956.6682   6   7   0.1873   0.2682   0.2658   0.0615  -0.0726  -0.0864   0.00    0.0
2026/01/15 00:40:30.000   46.877097439    7.465044371   956.6671   6   7   0.1847   0.2662   0.2615   0.0606  -0.0713  -0.0852   0.00    0.0
2026/01/15 00:41:00.000   46.877097427    7.465044332   956.6652   6   7   0.1820   0.2643   0.2572   0.0598  -0.0700  -0.0840   0.00    0.0
2026/01/15 00:41:30.000   46.877097409    7.465044291   956.6629   6   7   0.1795   0.2624   0.2531   0.0589  -0.0688  -0.0829   0.00    0.0
2026/01/15 00:42:00.000   46.877097397    7.465044230   956.6608   6   7   0.1770   0.2605   0.2491   0.0580  -0.0675  -0.0817   0.00    0.0
2026/01/15 00:42:30.000   46.877097385    7.465044187   956.6587   6   7   0.1745   0.2586   0.2451   0.0571  -0.0663  -0.0806   0.00    0.0
2026/01/15 00:43:00.000   46.877097376    7.465044161   956.6559   6   7   0.1721   0.2568   0.2413   0.0563  -0.0650  -0.0794   0.00    0.0
2026/01/15 00:43:30.000   46.877097369    7.465044174   956.6530   6   7   0.1698   0.2549   0.2375   0.0554  -0.0638  -0.0783   0.00    0.0
2026/01/15 00:44:00.000   46.877097361    7.465044208   956.6500   6   7   0.1675   0.2532   0.2339   0.0545  -0.0627  -0.0773   0.00    0.0
2026/01/15 00:44:30.000   46.877097354    7.465044213   956.6477   6   7   0.1652   0.2514   0.2303   0.0537  -0.0616  -0.0762   0.00    0.0
2026/01/15 00:45:00.000   46.877097348    7.465044207   956.6445   6   8   0.1630   0.2497   0.2268   0.0528  -0.0605  -0.0752   0.00    0.0
2026/01/15 00:45:30.000   46.877097345    7.465044209   956.6427   6   7   0.1609   0.2480   0.2234   0.0520  -0.0595  -0.0742   0.00    0.0
2026/01/15 00:46:00.000   46.877097337    7.465044205   956.6407   6   7   0.1588   0.2463   0.2201   0.0511  -0.0584  -0.0732   0.00    0.0
2026/01/15 00:46:30.000   46.877097328    7.465044185   956.6387   6   7   0.1567   0.2447   0.2169   0.0503  -0.0574  -0.0722   0.00    0.0
2026/01/15 00:47:00.000   46.877097318    7.465044144   956.6373   6   7   0.1547   0.2430   0.2137   0.0495  -0.0565  -0.0712   0.00    0.0
2026/01/15 00:47:30.000   46.877097309    7.465044118   956.6362   6   7   0.1527   0.2414   0.2106   0.0487  -0.0555  -0.0703   0.00    0.0
2026/01/15 00:48:00.000   46.877097304    7.465044106   956.6350   6   7   0.1508   0.2399   0.2076   0.0479  -0.0546  -0.0694   0.00    0.0
2026/01/15 00:48:30.000   46.877097296    7.465044086   956.6331   6   7   0.1489   0.2383   0.2047   0.0471  -0.0537  -0.0685   0.00    0.0
2026/01/15 00:49:00.000   46.877097296    7.465044072   956.6315   6   7   0.1470   0.2368   0.2018   0.0463  -0.0528  -0.0676   0.00    0.0
2026/01/15 00:49:30.000   46.877097296    7.465044053   956.6306   6   8   0.1452   0.2353   0.1990   0.0456  -0.0520  -0.0668   0.00    0.0
2026/01/15 00:50:00.000   46.877097293    7.465044051   956.6300   6   7   0.1434   0.2338   0.1962   0.0448  -0.0511  -0.0659   0.00    0.0
2026/01/15 00:50:30.000   46.877097288    7.465044042   956.6293   6   7   0.1416   0.2323   0.1935   0.0440  -0.0503  -0.0651   0.00    0.0
2026/01/15 00:51:00.000   46.877097284    7.465044034   956.6284   6   7   0.1399   0.2309   0.1909   0.0433  -0.0495  -0.0643   0.00    0.0
2026/01/15 00:51:30.000   46.877097281    7.465044046   956.6268   6   7   0.1382   0.2294   0.1883   0.0425  -0.0487  -0.0635   0.00    0.0
2026/01/15 00:59:00.000   46.877097415    7.465044296   956.6354   6   7   0.1334   0.2158   0.1831   0.0330  -0.0441  -0.0611   0.00    0.0
2026/01/15 00:59:30.000   46.877097397    7.465044303   956.6313   6   7   0.1311   0.2144   0.1794   0.0321  -0.0432  -0.0600   0.00    0.0
2026/01/15 01:00:00.000   46.877097382    7.465044301   956.6280   6   8   0.1289   0.2130   0.1759   0.0311  -0.0424  -0.0590   0.00    0.0
2026/01/15 01:00:30.000   46.877097367    7.465044275   956.6248   6   7   0.1267   0.2117   0.1726   0.0302  -0.0415  -0.0580   0.00    0.0
2026/01/15 01:01:00.000   46.877097353    7.465044232   956.6215   6   7   0.1247   0.2103   0.1694   0.0292  -0.0407  -0.0571   0.00    0.0
2026/01/15 01:01:30.000   46.877097339    7.465044182   956.6183   6   7   0.1227   0.2090   0.1663   0.0283  -0.0400  -0.0562   0.00    0.0
2026/01/15 01:02:00.000   46.877097325    7.465044133   956.6157   6   7   0.1209   0.2077   0.1634   0.0274  -0.0392  -0.0553   0.00    0.0
2026/01/15 01:02:30.000   46.877097314    7.465044089   956.6130   6   7   0.1190   0.2065   0.1606   0.0265  -0.0385  -0.0545   0.00    0.0
2026/01/15 01:03:00.000   46.877097298    7.465044042   956.6102   6   7   0.1173   0.2052   0.1579   0.0256  -0.0379  -0.0537   0.00    0.0
2026/01/15 01:03:30.000   46.877097283    7.465043993   956.6078   6   7   0.1156   0.2040   0.1554   0.0247  -0.0372  -0.0529   0.00    0.0
2026/01/15 01:04:00.000   46.877097266    7.465043952   956.6055   6   7   0.1140   0.2028   0.1529   0.0238  -0.0366  -0.0521   0.00    0.0
2026/01/15 01:04:30.000   46.877097250    7.465043921   956.6035   6   7   0.1124   0.2016   0.1505   0.0229  -0.0360  -0.0514   0.00    0.0
2026/01/15 01:05:00.000   46.877097234    7.465043906   956.6017   6   7   0.1108   0.2004   0.1482   0.0220  -0.0354  -0.0507   0.00    0.0
2026/01/15 01:05:30.000   46.877097222    7.465043906   956.5997   6   7   0.1093   0.1992   0.1459   0.0210  -0.0349  -0.0500   0.00    0.0
2026/01/15 01:06:00.000   46.877097205    7.465043894   956.5974   6   7   0.1079   0.1981   0.1438   0.0201  -0.0343  -0.0494   0.00    0.0
2026/01/15 01:06:30.000   46.877097191    7.465043879   956.5955   6   7   0.1065   0.1969   0.1417   0.0192  -0.0338  -0.0487   0.00    0.0
2026/01/15 01:07:00.000   46.877097177    7.465043857   956.5938   6   7   0.1051   0.1958   0.1397   0.0182  -0.0333  -0.0481   0.00    0.0
2026/01/15 01:07:30.000   46.877097164    7.465043839   956.5920   6   7   0.1038   0.1947   0.1377   0.0172  -0.0328  -0.0475   0.00    0.0
2026/01/15 01:08:00.000   46.877097151    7.465043819   956.5901   6   7   0.1025   0.1936   0.1359   0.0162  -0.0324  -0.0469   0.00    0.0
2026/01/15 01:08:30.000   46.877097140    7.465043799   956.5881   6   7   0.1013   0.1925   0.1340   0.0151  -0.0319  -0.0463   0.00    0.0
2026/01/15 01:09:00.000   46.877097129    7.465043773   956.5867   6   7   0.1001   0.1915   0.1323   0.0140  -0.0315  -0.0458   0.00    0.0
2026/01/15 01:09:30.000   46.877097120    7.465043741   956.5850   6   7   0.0989   0.1904   0.1305   0.0129  -0.0310  -0.0452   0.00    0.0
2026/01/15 01:10:00.000   46.877097109    7.465043707   956.5833   6   7   0.0977   0.1894   0.1289   0.0117  -0.0306  -0.0447   0.00    0.0
2026/01/15 01:10:30.000   46.877097099    7.465043667   956.5815   6   7   0.0966   0.1884   0.1272   0.0103  -0.0302  -0.0442   0.00    0.0
2026/01/15 01:11:00.000   46.877097090    7.465043634   956.5802   6   7   0.0955   0.1873   0.1256   0.0087  -0.0299  -0.0437   0.00    0.0
2026/01/15 01:11:30.000   46.877097079    7.465043599   956.5787   6   7   0.0945   0.1864   0.1241   0.0068  -0.0295  -0.0432   0.00    0.0
2026/01/15 01:12:00.000   46.877097068    7.465043573   956.5768   6   7   0.0934   0.1854   0.1226   0.0044  -0.0292  -0.0427   0.00    0.0
2026/01/15 01:12:30.000   46.877097057    7.465043547   956.5751   6   7   0.0924   0.1844   0.1211  -0.0026  -0.0289  -0.0422   0.00    0.0
2026/01/15 01:13:00.000   46.877097047    7.465043505   956.5735   6   7   0.0914   0.1834   0.1197  -0.0057  -0.0285  -0.0418   0.00    0.0
2026/01/15 01:13:30.000   46.877097034    7.465043449   956.5721   6   7   0.0904   0.1825   0.1183  -0.0075  -0.0283  -0.0413   0.00    0.0
2026/01/15 01:14:00.000   46.877097023    7.465043399   956.5705   6   7   0.0895   0.1815   0.1170  -0.0090  -0.0280  -0.0409   0.00    0.0
2026/01/15 01:14:30.000   46.877097011    7.465043366   956.5692   6   7   0.0886   0.1806   0.1156  -0.0102  -0.0277  -0.0404   0.00    0.0
2026/01/15 01:15:00.000   46.877097002    7.465043341   956.5676   6   7   0.0876   0.1796   0.1143  -0.0113  -0.0274  -0.0400   0.00    0.0
2026/01/15 01:15:30.000   46.877096991    7.465043305   956.5662   6   7   0.0868   0.1787   0.1131  -0.0122  -0.0271  -0.0396   0.00    0.0
2026/01/15 01:16:00.000   46.877096981    7.465043263   956.5646   6   7   0.0859   0.1778   0.1119  -0.0131  -0.0268  -0.0392   0.00    0.0
2026/01/15 01:16:30.000   46.877096970    7.465043211   956.5629   6   7   0.0850   0.1769   0.1106  -0.0138  -0.0266  -0.0388   0.00    0.0
2026/01/15 01:17:00.000   46.877096961    7.465043161   956.5611   6   8   0.0842   0.1760   0.1095  -0.0146  -0.0263  -0.0384   0.00    0.0
2026/01/15 01:17:30.000   46.877096954    7.465043119   956.5594   6   7   0.0834   0.1751   0.1083  -0.0152  -0.0260  -0.0380   0.00    0.0
2026/01/15 01:18:00.000   46.877096947    7.465043084   956.5577   6   7   0.0826   0.1742   0.1072  -0.0158  -0.0257  -0.0376   0.00    0.0
2026/01/15 01:18:30.000   46.877096941    7.465043055   956.5567   6   8   0.0818   0.1733   0.1061  -0.0164  -0.0255  -0.0373   0.00    0.0
2026/01/15 01:19:00.000   46.877096934    7.465043011   956.5556   6   7   0.0810   0.1725   0.1050  -0.0169  -0.0252  -0.0369   0.00    0.0
2026/01/15 01:19:30.000   46.877096927    7.465042962   956.5543   6   7   0.0803   0.1716   0.1040  -0.0174  -0.0250  -0.0366   0.00    0.0
2026/01/15 01:20:00.000   46.877096919    7.465042916   956.5533   6   7   0.0795   0.1708   0.1029  -0.0179  -0.0247  -0.0362   0.00    0.0
2026/01/15 01:20:30.000   46.877096910    7.465042863   956.5519   6   7   0.0788   0.1699   0.1019  -0.0184  -0.0245  -0.0359   0.00    0.0
2026/01/15 01:21:00.000   46.877096901    7.465042805   956.5500   6   8   0.0781   0.1691   0.1009  -0.0188  -0.0243  -0.0356   0.00    0.0
2026/01/15 01:21:30.000   46.877096893    7.465042749   956.5483   6   7   0.0774   0.1683   0.0999  -0.0192  -0.0240  -0.0353   0.00    0.0
2026/01/15 01:22:00.000   46.877096884    7.465042707   956.5465   6   7   0.0767   0.1674   0.0990  -0.0197  -0.0238  -0.0349   0.00    0.0
2026/01/15 01:22:30.000   46.877096876    7.465042678   956.5447   6   7   0.0761   0.1666   0.0980  -0.0200  -0.0236  -0.0346   0.00    0.0
2026/01/15 01:23:00.000   46.877096868    7.465042657   956.5431   6   7   0.0754   0.1658   0.0971  -0.0204  -0.0234  -0.0343   0.00    0.0
2026/01/15 01:23:30.000   46.877096861    7.465042627   956.5415   6   7   0.0747   0.1650   0.0962  -0.0208  -0.0232  -0.0340   0.00    0.0
2026/01/15 01:24:00.000   46.877096854    7.465042592   956.5400   6   7   0.0741   0.1642   0.0953  -0.0211  -0.0230  -0.0337   0.00    0.0
2026/01/15 01:24:30.000   46.877096847    7.465042552   956.5385   6   7   0.0735   0.1635   0.0945  -0.0215  -0.0228  -0.0335   0.00    0.0
2026/01/15 01:25:00.000   46.877096841    7.465042513   956.5371   6   7   0.0729   0.1627   0.0936  -0.0218  -0.0226  -0.0332   0.00    0.0
2026/01/15 01:25:30.000   46.877096834    7.465042462   956.5356   6   7   0.0723   0.1619   0.0928  -0.0221  -0.0224  -0.0329   0.00    0.0
2026/01/15 01:26:00.000   46.877096827    7.465042416   956.5339   6   7   0.0717   0.1612   0.0920  -0.0224  -0.0223  -0.0326   0.00    0.0
2026/01/15 01:26:30.000   46.877096820    7.465042364   956.5321   6   7   0.0711   0.1604   0.0912  -0.0227  -0.0221  -0.0324   0.00    0.0
2026/01/15 01:27:00.000   46.877096814    7.465042322   956.5307   6   7   0.0705   0.1597   0.0904  -0.0229  -0.0219  -0.0321   0.00    0.0
2026/01/15 01:27:30.000   46.877096807    7.465042271   956.5291   6   7   0.0700   0.1590   0.0896  -0.0232  -0.0218  -0.0318   0.00    0.0
2026/01/15 01:28:00.000   46.877096801    7.465042221   956.5272   6   7   0.0694   0.1582   0.0888  -0.0235  -0.0216  -0.0316   0.00    0.0
2026/01/15 01:28:30.000   46.877096794    7.465042176   956.5254   6   7   0.0689   0.1575   0.0881  -0.0237  -0.0215  -0.0313   0.00    0.0
2026/01/15 01:29:00.000   46.877096788    7.465042135   956.5233   6   7   0.0683   0.1568   0.0874  -0.0240  -0.0213  -0.0311   0.00    0.0
2026/01/15 01:29:30.000   46.877096782    7.465042101   956.5213   6   7   0.0678   0.1561   0.0866  -0.0242  -0.0212  -0.0309   0.00    0.0
2026/01/15 01:30:00.000   46.877096775    7.465042073   956.5194   6   7   0.0673   0.1554   0.0859  -0.0244  -0.0210  -0.0306   0.00    0.0
2026/01/15 01:30:30.000   46.877096768    7.465042047   956.5174   6   7   0.0668   0.1547   0.0852  -0.0247  -0.0209  -0.0304   0.00    0.0
2026/01/15 01:31:00.000   46.877096762    7.465042020   956.5153   6   7   0.0663   0.1540   0.0845  -0.0249  -0.0208  -0.0302   0.00    0.0
2026/01/15 01:31:30.000   46.877096756    7.465042000   956.5132   6   8   0.0658   0.1533   0.0838  -0.0251  -0.0206  -0.0299   0.00    0.0
2026/01/15 01:32:00.000   46.877096749    7.465041960   956.5111   6   7   0.0653   0.1526   0.0832  -0.0253  -0.0205  -0.0297   0.00    0.0
2026/01/15 01:32:30.000   46.877096742    7.465041903   956.5089   6   7   0.0648   0.1519   0.0825  -0.0255  -0.0204  -0.0295   0.00    0.0
2026/01/15 01:33:00.000   46.877096744    7.465041891   956.5086   6   6   0.0644   0.1515   0.0820  -0.0254  -0.0193  -0.0291   0.00    0.0
2026/01/15 01:33:30.000   46.877096746    7.465041881   956.5084   6   6   0.0639   0.1511   0.0814  -0.0252  -0.0183  -0.0288   0.00    0.0
2026/01/15 01:34:00.000   46.877096748    7.465041873   956.5081   6   7   0.0635   0.1506   0.0809  -0.0251  -0.0172  -0.0284   0.00    0.0
2026/01/15 01:34:30.000   46.877096749    7.465041870   956.5078   6   6   0.0631   0.1502   0.0804  -0.0250  -0.0161  -0.0281   0.00    0.0
2026/01/15 01:35:00.000   46.877096750    7.465041860   956.5075   6   6   0.0627   0.1498   0.0799  -0.0248  -0.0149  -0.0277   0.00    0.0
2026/01/15 01:35:30.000   46.877096751    7.465041848   956.5073   6   6   0.0623   0.1494   0.0794  -0.0247  -0.0136  -0.0274   0.00    0.0
2026/01/15 01:36:00.000   46.877096751    7.465041839   956.5070   6   6   0.0619   0.1490   0.0789  -0.0246  -0.0123  -0.0271   0.00    0.0
2026/01/15 02:00:00.000   46.877096760    7.465041902   956.5097   6   5   0.0613   0.1395   0.0786  -0.0243  -0.0067  -0.0269   0.00    0.0
2026/01/15 02:00:30.000   46.877096760    7.465041894   956.5096   6   5   0.0613   0.1394   0.0786  -0.0243  -0.0066  -0.0269   0.00    0.0
2026/01/15 02:01:00.000   46.877096761    7.465041883   956.5095   6   6   0.0613   0.1392   0.0786  -0.0242  -0.0065  -0.0268   0.00    0.0
2026/01/15 02:01:30.000   46.877096762    7.465041870   956.5093   6   6   0.0613   0.1390   0.0786  -0.0242  -0.0064  -0.0268   0.00    0.0
2026/01/15 02:02:00.000   46.877096763    7.465041860   956.5091   6   6   0.0613   0.1388   0.0786  -0.0242  -0.0062  -0.0268   0.00    0.0
2026/01/15 02:02:30.000   46.877096763    7.465041854   956.5089   6   6   0.0613   0.1386   0.0786  -0.0242  -0.0061  -0.0268   0.00    0.0
2026/01/15 02:03:00.000   46.877096763    7.465041850   956.5088   6   6   0.0613   0.1384   0.0786  -0.0242  -0.0060  -0.0268   0.00    0.0
2026/01/15 02:03:30.000   46.877096763    7.465041850   956.5087   6   6   0.0613   0.1382   0.0786  -0.0242  -0.0059  -0.0268   0.00    0.0
2026/01/15 02:04:00.000   46.877096763    7.465041854   956.5087   6   6   0.0612   0.1380   0.0786  -0.0241  -0.0057  -0.0268   0.00    0.0
2026/01/15 02:04:30.000   46.877096763    7.465041847   956.5087   6   6   0.0612   0.1378   0.0786  -0.0241  -0.0056  -0.0268   0.00    0.0
2026/01/15 02:05:00.000   46.877096763    7.465041838   956.5087   6   6   0.0612   0.1376   0.0786  -0.0241  -0.0055  -0.0268   0.00    0.0
2026/01/15 02:05:30.000   46.877096762    7.465041838   956.5088   6   6   0.0612   0.1374   0.0785  -0.0241  -0.0053  -0.0268   0.00    0.0
2026/01/15 02:06:00.000   46.877096761    7.465041830   956.5090   6   7   0.0612   0.1372   0.0785  -0.0241  -0.0052  -0.0268   0.00    0.0
2026/01/15 02:06:30.000   46.877096761    7.465041819   956.5090   6   7   0.0612   0.1370   0.0785  -0.0241  -0.0051  -0.0267   0.00    0.0
2026/01/15 02:07:00.000   46.877096761    7.465041814   956.5091   6   7   0.0612   0.1368   0.0785  -0.0241  -0.0050  -0.0267   0.00    0.0
2026/01/15 02:07:30.000   46.877096761    7.465041807   956.5091   6   7   0.0611   0.1367   0.0785  -0.0241  -0.0048  -0.0267   0.00    0.0
2026/01/15 02:08:00.000   46.877096761    7.465041799   956.5092   6   7   0.0611   0.1365   0.0785  -0.0241  -0.0047  -0.0267   0.00    0.0
2026/01/15 02:08:30.000   46.877096759    7.465041790   956.5093   6   7   0.0611   0.1363   0.0785  -0.0241  -0.0045  -0.0267   0.00    0.0
2026/01/15 02:09:00.000   46.877096758    7.465041773   956.5093   6   7   0.0611   0.1361   0.0785  -0.0240  -0.0044  -0.0267   0.00    0.0
2026/01/15 02:09:30.000   46.877096758    7.465041767   956.5094   6   7   0.0611   0.1359   0.0785  -0.0240  -0.0042  -0.0267   0.00    0.0
2026/01/15 02:10:00.000   46.877096757    7.465041753   956.5093   6   7   0.0611   0.1357   0.0784  -0.0240  -0.0040  -0.0267   0.00    0.0
2026/01/15 02:10:30.000   46.877096757    7.465041740   956.5091   6   7   0.0611   0.1355   0.0784  -0.0240  -0.0038  -0.0267   0.00    0.0
2026/01/15 02:11:00.000   46.877096758    7.465041726   956.5089   6   8   0.0610   0.1353   0.0784  -0.0240  -0.0036  -0.0267   0.00    0.0
2026/01/15 02:11:30.000   46.877096758    7.465041719   956.5089   6   7   0.0610   0.1351   0.0784  -0.0240  -0.0033  -0.0266   0.00    0.0
2026/01/15 02:12:00.000   46.877096759    7.465041710   956.5088   6   7   0.0610   0.1349   0.0784  -0.0240  -0.0031  -0.0266   0.00    0.0
2026/01/15 02:12:30.000   46.877096758    7.465041707   956.5087   6   8   0.0610   0.1347   0.0784  -0.0241  -0.0028  -0.0266   0.00    0.0
2026/01/15 02:13:00.000   46.877096758    7.465041702   956.5087   6   7   0.0610   0.1345   0.0783  -0.0241  -0.0024  -0.0266   0.00    0.0
2026/01/15 02:13:30.000   46.877096757    7.465041700   956.5086   6   7   0.0609   0.1343   0.0783  -0.0241  -0.0020  -0.0266   0.00    0.0
2026/01/15 02:14:00.000   46.877096756    7.465041693   956.5086   6   7   0.0609   0.1341   0.0783  -0.0241  -0.0013  -0.0266   0.00    0.0
2026/01/15 02:14:30.000   46.877096754    7.465041681   956.5087   6   7   0.0609   0.1339   0.0783  -0.0241   0.0005  -0.0266   0.00    0.0
2026/01/15 02:15:00.000   46.877096753    7.465041670   956.5087   6   7   0.0609   0.1337   0.0783  -0.0241   0.0016  -0.0266   0.00    0.0
2026/01/15 02:15:30.000   46.877096751    7.465041666   956.5086   6   7   0.0609   0.1335   0.0782  -0.0241   0.0022  -0.0266   0.00    0.0
2026/01/15 02:16:00.000   46.877096751    7.465041667   956.5087   6   7   0.0608   0.1333   0.0782  -0.0241   0.0026  -0.0265   0.00    0.0
2026/01/15 02:16:30.000   46.877096749    7.465041663   956.5087   6   7   0.0608   0.1331   0.0782  -0.0241   0.0031  -0.0265   0.00    0.0
2026/01/15 02:17:00.000   46.877096748    7.465041649   956.5087   6   7   0.0608   0.1329   0.0782  -0.0242   0.0034  -0.0265   0.00    0.0
2026/01/15 02:17:30.000   46.877096747    7.465041638   956.5087   6   7   0.0608   0.1327   0.0781  -0.0242   0.0038  -0.0265   0.00    0.0
2026/01/15 02:18:00.000   46.877096746    7.465041627   956.5085   6   7   0.0607   0.1325   0.0781  -0.0242   0.0041  -0.0265   0.00    0.0
2026/01/15 02:18:30.000   46.877096744    7.465041620   956.5084   6   7   0.0607   0.1323   0.0781  -0.0242   0.0045  -0.0265   0.00    0.0
2026/01/15 02:19:00.000   46.877096743    7.465041605   956.5083   6   7   0.0607   0.1321   0.0780  -0.0243   0.0048  -0.0265   0.00    0.0
2026/01/15 02:19:30.000   46.877096741    7.465041593   956.5081   6   9   0.0607   0.1319   0.0780  -0.0243   0.0051  -0.0265   0.00    0.0
2026/01/15 02:20:00.000   46.877096740    7.465041580   956.5080   6   7   0.0606   0.1317   0.0780  -0.0243   0.0054  -0.0264   0.00    0.0
2026/01/15 02:20:30.000   46.877096738    7.465041572   956.5077   6   7   0.0606   0.1315   0.0779  -0.0243   0.0056  -0.0264   0.00    0.0
2026/01/15 02:21:00.000   46.877096736    7.465041566   956.5076   6   7   0.0606   0.1313   0.0779  -0.0244   0.0059  -0.0264   0.00    0.0
2026/01/15 02:21:30.000   46.877096735    7.465041557   956.5075   6   8   0.0606   0.1311   0.0779  -0.0244   0.0062  -0.0264   0.00    0.0
2026/01/15 02:22:00.000   46.877096734    7.465041546   956.5073   6   7   0.0605   0.1309   0.0778  -0.0244   0.0065  -0.0264   0.00    0.0
2026/01/15 02:22:30.000   46.877096732    7.465041536   956.5071   6   7   0.0605   0.1307   0.0778  -0.0245   0.0067  -0.0264   0.00    0.0
2026/01/15 02:23:00.000   46.877096730    7.465041530   956.5070   6   8   0.0605   0.1304   0.0778  -0.0245   0.0070  -0.0264   0.00    0.0
2026/01/15 02:23:30.000   46.877096728    7.465041520   956.5068   6   8   0.0604   0.1302   0.0777  -0.0246   0.0073  -0.0264   0.00    0.0
2026/01/15 02:24:00.000   46.877096726    7.465041511   956.5066   6   7   0.0604   0.1300   0.0777  -0.0246   0.0075  -0.0263   0.00    0.0
2026/01/15 02:24:30.000   46.877096725    7.465041501   956.5064   6   7   0.0604   0.1298   0.0776  -0.0246   0.0078  -0.0263   0.00    0.0
2026/01/15 02:25:00.000   46.877096723    7.465041504   956.5061   6   7   0.0603   0.1296   0.0776  -0.0247   0.0081  -0.0263   0.00    0.0
2026/01/15 02:25:30.000   46.877096722    7.465041496   956.5058   6   7   0.0603   0.1294   0.0775  -0.0247   0.0083  -0.0263   0.00    0.0
2026/01/15 02:26:00.000   46.877096719    7.465041491   956.5056   6   7   0.0603   0.1292   0.0775  -0.0248   0.0085  -0.0263   0.00    0.0
2026/01/15 02:26:30.000   46.877096718    7.465041477   956.5053   6   7   0.0602   0.1290   0.0774  -0.0248   0.0088  -0.0263   0.00    0.0
2026/01/15 02:27:00.000   46.877096717    7.465041462   956.5051   6   7   0.0602   0.1288   0.0774  -0.0249   0.0090  -0.0263   0.00    0.0
2026/01/15 02:27:30.000   46.877096714    7.465041452   956.5050   6   7   0.0602   0.1286   0.0773  -0.0249   0.0093  -0.0263   0.00    0.0
2026/01/15 02:28:00.000   46.877096713    7.465041442   956.5048   6   7   0.0601   0.1284   0.0772  -0.0250   0.0095  -0.0263   0.00    0.0
2026/01/15 02:28:30.000   46.877096712    7.465041427   956.5046   6   7   0.0601   0.1282   0.0772  -0.0251   0.0097  -0.0262   0.00    0.0
2026/01/15 02:29:00.000   46.877096712    7.465041422   956.5043   6   7   0.0600   0.1279   0.0771  -0.0251   0.0100  -0.0262   0.00    0.0
2026/01/15 02:29:30.000   46.877096711    7.465041418   956.5041   6   7   0.0600   0.1277   0.0771  -0.0252   0.0102  -0.0262   0.00    0.0
2026/01/15 02:30:00.000   46.877096710    7.465041416   956.5039   6   7   0.0600   0.1275   0.0770  -0.0253   0.0104  -0.0262   0.00    0.0
2026/01/15 02:30:30.000   46.877096709    7.465041411   956.5036   6   7   0.0599   0.1273   0.0769  -0.0253   0.0107  -0.0262   0.00    0.0
2026/01/15 02:31:00.000   46.877096707    7.465041404   956.5033   6   7   0.0599   0.1271   0.0769  -0.0254   0.0109  -0.0262   0.00    0.0
2026/01/15 02:31:30.000   46.877096706    7.465041391   956.5030   6   8   0.0598   0.1269   0.0768  -0.0255   0.0111  -0.0262   0.00    0.0
2026/01/15 02:32:00.000   46.877096704    7.465041381   956.5026   6   8   0.0598   0.1267   0.0767  -0.0255   0.0114  -0.0262   0.00    0.0
2026/01/15 02:32:30.000   46.877096702    7.465041366   956.5022   6   7   0.0597   0.1264   0.0766  -0.0256   0.0116  -0.0262   0.00    0.0
2026/01/15 02:33:00.000   46.877096699    7.465041352   956.5019   6   8   0.0597   0.1262   0.0766  -0.0257   0.0118  -0.0261   0.00    0.0
2026/01/15 02:33:30.000   46.877096696    7.465041338   956.5016   6   9   0.0597   0.1260   0.0765  -0.0258   0.0121  -0.0261   0.00    0.0
2026/01/15 02:34:00.000   46.877096694    7.465041324   956.5013   6  11   0.0596   0.1258   0.0764  -0.0258   0.0123  -0.0261   0.00    0.0
2026/01/15 02:34:30.000   46.877096693    7.465041309   956.5010   6  11   0.0596   0.1256   0.0763  -0.0259   0.0125  -0.0261   0.00    0.0
2026/01/15 02:35:00.000   46.877096691    7.465041299   956.5006   6  11   0.0595   0.1253   0.0763  -0.0260   0.0128  -0.0261   0.00    0.0
2026/01/15 02:35:30.000   46.877096689    7.465041291   956.5001   6  11   0.0595   0.1251   0.0762  -0.0261   0.0130  -0.0261   0.00    0.0
2026/01/15 02:36:00.000   46.877096688    7.465041285   956.4996   6  11   0.0594   0.1249   0.0761  -0.0262   0.0132  -0.0261   0.00    0.0
2026/01/15 02:36:30.000   46.877096686    7.465041272   956.4992   6  11   0.0594   0.1247   0.0760  -0.0263   0.0135  -0.0261   0.00    0.0
2026/01/15 02:37:00.000   46.877096684    7.465041261   956.4987   6  11   0.0593   0.1244   0.0759  -0.0263   0.0137  -0.0261   0.00    0.0
2026/01/15 02:37:30.000   46.877096682    7.465041250   956.4981   6  11   0.0592   0.1242   0.0758  -0.0264   0.0139  -0.0261   0.00    0.0
2026/01/15 02:38:00.000   46.877096681    7.465041240   956.4977   6  11   0.0592   0.1240   0.0757  -0.0265   0.0142  -0.0261   0.00    0.0
2026/01/15 02:38:30.000   46.877096679    7.465041226   956.4972   6  11   0.0591   0.1237   0.0756  -0.0266   0.0144  -0.0261   0.00    0.0
2026/01/15 02:39:00.000   46.877096678    7.465041209   956.4968   6  12   0.0591   0.1235   0.0755  -0.0267   0.0146  -0.0261   0.00    0.0
2026/01/15 02:39:30.000   46.877096677    7.465041195   956.4963   6  12   0.0590   0.1232   0.0754  -0.0268   0.0148  -0.0261   0.00    0.0
2026/01/15 02:40:00.000   46.877096675    7.465041180   956.4959   6  12   0.0590   0.1230   0.0753  -0.0269   0.0151  -0.0261   0.00    0.0
2026/01/15 02:40:30.000   46.877096673    7.465041173   956.4953   6  12   0.0589   0.1227   0.0752  -0.0270   0.0153  -0.0261   0.00    0.0
2026/01/15 02:41:00.000   46.877096671    7.465041163   956.4949   6  12   0.0588   0.1225   0.0751  -0.0270   0.0155  -0.0261   0.00    0.0
2026/01/15 02:41:30.000   46.877096669    7.465041148   956.4945   6  12   0.0588   0.1223   0.0750  -0.0271   0.0157  -0.0261   0.00    0.0
2026/01/15 02:42:00.000   46.877096667    7.465041130   956.4940   6  13   0.0587   0.1220   0.0749  -0.0272   0.0159  -0.0261   0.00    0.0
2026/01/15 02:42:30.000   46.877096665    7.465041114   956.4935   6  12   0.0586   0.1217   0.0748  -0.0273   0.0161  -0.0261   0.00    0.0
2026/01/15 02:43:00.000   46.877096663    7.465041100   956.4930   6  12   0.0586   0.1215   0.0746  -0.0274   0.0163  -0.0261   0.00    0.0
2026/01/15 02:43:30.000   46.877096662    7.465041080   956.4925   6  13   0.0585   0.1212   0.0745  -0.0275   0.0165  -0.0261   0.00    0.0
2026/01/15 02:44:00.000   46.877096660    7.465041064   956.4918   6  18   0.0584   0.1210   0.0744  -0.0276   0.0167  -0.0261   0.00    0.0
2026/01/15 02:44:30.000   46.877096658    7.465041047   956.4913   6  19   0.0584   0.1207   0.0743  -0.0277   0.0169  -0.0261   0.00    0.0
2026/01/15 02:45:00.000   46.877096656    7.465041024   956.4906   6  20   0.0583   0.1204   0.0742  -0.0278   0.0171  -0.0261   0.00    0.0
2026/01/15 02:45:30.000   46.877096655    7.465041002   956.4900   6  20   0.0582   0.1202   0.0740  -0.0279   0.0173  -0.0261   0.00    0.0
2026/01/15 02:46:00.000   46.877096654    7.465040984   956.4893   6  20   0.0582   0.1199   0.0739  -0.0280   0.0175  -0.0261   0.00    0.0
2026/01/15 02:46:30.000   46.877096653    7.465040966   956.4886   6  20   0.0581   0.1196   0.0738  -0.0280   0.0177  -0.0261   0.00    0.0
2026/01/15 02:47:00.000   46.877096652    7.465040948   956.4879   6  20   0.0580   0.1193   0.0736  -0.0281   0.0179  -0.0261   0.00    0.0
2026/01/15 02:47:30.000   46.877096649    7.465040938   956.4872   6  20   0.0579   0.1190   0.0735  -0.0282   0.0181  -0.0261   0.00    0.0
2026/01/15 02:48:00.000   46.877096646    7.465040931   956.4865   6  20   0.0578   0.1187   0.0733  -0.0283   0.0183  -0.0261   0.00    0.0
2026/01/15 02:48:30.000   46.877096644    7.465040919   956.4859   6  20   0.0578   0.1184   0.0732  -0.0284   0.0184  -0.0261   0.00    0.0
2026/01/15 02:49:00.000   46.877096642    7.465040903   956.4852   6  20   0.0577   0.1181   0.0731  -0.0285   0.0186  -0.0261   0.00    0.0
2026/01/15 02:49:30.000   46.877096640    7.465040881   956.4844   6  20   0.0576   0.1178   0.0729  -0.0286   0.0188  -0.0262   0.00    0.0
2026/01/15 02:50:00.000   46.877096638    7.465040858   956.4837   6  20   0.0575   0.1175   0.0728  -0.0287   0.0190  -0.0262   0.00    0.0
2026/01/15 02:50:30.000   46.877096636    7.465040839   956.4829   6  20   0.0574   0.1172   0.0726  -0.0288   0.0191  -0.0262   0.00    0.0
2026/01/15 02:51:00.000   46.877096634    7.465040819   956.4821   6  20   0.0573   0.1169   0.0724  -0.0289   0.0193  -0.0262   0.00    0.0
2026/01/15 02:51:30.000   46.877096632    7.465040799   956.4812   6  20   0.0572   0.1166   0.0723  -0.0289   0.0194  -0.0262   0.00    0.0
2026/01/15 02:52:00.000   46.877096630    7.465040781   956.4804   6  20   0.0571   0.1162   0.0721  -0.0290   0.0196  -0.0262   0.00    0.0
2026/01/15 02:52:30.000   46.877096628    7.465040769   956.4796   6  21   0.0571   0.1159   0.0720  -0.0291   0.0197  -0.0262   0.00    0.0
2026/01/15 02:53:00.000   46.877096626    7.465040755   956.4788   6  21   0.0570   0.1156   0.0718  -0.0292   0.0199  -0.0263   0.00    0.0
2026/01/15 02:53:30.000   46.877096624    7.465040739   956.4780   6  21   0.0569   0.1152   0.0716  -0.0293   0.0200  -0.0263   0.00    0.0
2026/01/15 02:54:00.000   46.877096623    7.465040721   956.4771   6  21   0.0568   0.1149   0.0715  -0.0294   0.0202  -0.0263   0.00    0.0
2026/01/15 02:54:30.000   46.877096622    7.465040700   956.4762   6  21   0.0567   0.1145   0.0713  -0.0294   0.0203  -0.0263   0.00    0.0
2026/01/15 02:55:00.000   46.877096621    7.465040675   956.4753   6  21   0.0566   0.1142   0.0711  -0.0295   0.0204  -0.0263   0.00    0.0
2026/01/15 02:55:30.000   46.877096620    7.465040651   956.4743   6  21   0.0565   0.1138   0.0709  -0.0296   0.0205  -0.0263   0.00    0.0
2026/01/15 02:56:00.000   46.877096618    7.465040626   956.4732   6  21   0.0564   0.1134   0.0707  -0.0297   0.0207  -0.0264   0.00    0.0
2026/01/15 02:56:30.000   46.877096616    7.465040597   956.4726   6  20   0.0562   0.1131   0.0706  -0.0297   0.0207  -0.0264   0.00    0.0
2026/01/15 02:57:00.000   46.877096615    7.465040565   956.4720   6  20   0.0561   0.1127   0.0704  -0.0298   0.0207  -0.0264   0.00    0.0
2026/01/15 02:57:30.000   46.877096613    7.465040534   956.4713   6  20   0.0560   0.1123   0.0702  -0.0299   0.0208  -0.0264   0.00    0.0
2026/01/15 02:58:00.000   46.877096611    7.465040503   956.4707   6  20   0.0559   0.1119   0.0701  -0.0299   0.0208  -0.0264   0.00    0.0
2026/01/15 02:58:30.000   46.877096609    7.465040470   956.4701   6  20   0.0558   0.1115   0.0699  -0.0300   0.0209  -0.0265   0.00    0.0
2026/01/15 02:59:00.000   46.877096606    7.465040437   956.4695   6  20   0.0557   0.1111   0.0697  -0.0301   0.0209  -0.0265   0.00    0.0
2026/01/15 02:59:30.000   46.877096604    7.465040401   956.4688   6  20   0.0556   0.1107   0.0695  -0.0301   0.0209  -0.0265   0.00    0.0
2026/01/15 03:00:00.000   46.877096601    7.465040363   956.4681   6  20   0.0554   0.1103   0.0694  -0.0302   0.0209  -0.0265   0.00    0.0
2026/01/15 03:00:30.000   46.877096599    7.465040327   956.4673   6  20   0.0553   0.1099   0.0692  -0.0303   0.0210  -0.0265   0.00    0.0
2026/01/15 03:01:00.000   46.877096598    7.465040286   956.4666   6  19   0.0552   0.1095   0.0690  -0.0303   0.0210  -0.0265   0.00    0.0
2026/01/15 03:01:30.000   46.877096597    7.465040244   956.4660   6  19   0.0551   0.1091   0.0688  -0.0304   0.0210  -0.0266   0.00    0.0
2026/01/15 03:02:00.000   46.877096596    7.465040199   956.4653   6  19   0.0550   0.1087   0.0686  -0.0305   0.0209  -0.0266   0.00    0.0
2026/01/15 03:02:30.000   46.877096595    7.465040151   956.4646   6  19   0.0548   0.1083   0.0684  -0.0305   0.0209  -0.0266   0.00    0.0
2026/01/15 03:03:00.000   46.877096594    7.465040105   956.4639   6  19   0.0547   0.1079   0.0682  -0.0306   0.0209  -0.0266   0.00    0.0
2026/01/15 03:03:30.000   46.877096593    7.465040062   956.4630   6  19   0.0546   0.1074   0.0680  -0.0307   0.0209  -0.0266   0.00    0.0
2026/01/15 03:04:00.000   46.877096593    7.465040021   956.4622   6  19   0.0545   0.1070   0.0678  -0.0307   0.0209  -0.0266   0.00    0.0
2026/01/15 03:04:30.000   46.877096592    7.465039980   956.4615   6  19   0.0543   0.1066   0.0676  -0.0308   0.0209  -0.0266   0.00    0.0
2026/01/15 03:05:00.000   46.877096591    7.465039940   956.4606   6  20   0.0542   0.1061   0.0674  -0.0308   0.0208  -0.0266   0.00    0.0
2026/01/15 03:05:30.000   46.877096590    7.465039903   956.4599   6  20   0.0541   0.1056   0.0672  -0.0309   0.0208  -0.0266   0.00    0.0
2026/01/15 03:06:00.000   46.877096588    7.465039862   956.4591   6  20   0.0539   0.1052   0.0670  -0.0309   0.0208  -0.0266   0.00    0.0
2026/01/15 03:06:30.000   46.877096587    7.465039823   956.4583   6  21   0.0538   0.1047   0.0668  -0.0310   0.0208  -0.0266   0.00    0.0
2026/01/15 03:07:00.000   46.877096585    7.465039779   956.4575   6  21   0.0537   0.1042   0.0666  -0.0310   0.0207  -0.0266   0.00    0.0
2026/01/15 03:07:30.000   46.877096584    7.465039737   956.4568   6  21   0.0535   0.1038   0.0664  -0.0311   0.0207  -0.0266   0.00    0.0
2026/01/15 03:08:00.000   46.877096583    7.465039695   956.4560   6  21   0.0534   0.1033   0.0662  -0.0311   0.0207  -0.0266   0.00    0.0
2026/01/15 03:08:30.000   46.877096583    7.465039656   956.4551   6  21   0.0532   0.1028   0.0659  -0.0311   0.0206  -0.0266   0.00    0.0
2026/01/15 03:09:00.000   46.877096582    7.465039616   956.4543   6  21   0.0531   0.1023   0.0657  -0.0312   0.0206  -0.0266   0.00    0.0
2026/01/15 03:09:30.000   46.877096581    7.465039576   956.4535   6  21   0.0530   0.1018   0.0655  -0.0312   0.0206  -0.0266   0.00    0.0
2026/01/15 03:10:00.000   46.877096580    7.465039541   956.4527   6  21   0.0528   0.1013   0.0653  -0.0312   0.0205  -0.0266   0.00    0.0
2026/01/15 03:10:30.000   46.877096578    7.465039509   956.4517   6  21   0.0527   0.1008   0.0650  -0.0312   0.0205  -0.0266   0.00    0.0
2026/01/15 03:11:00.000   46.877096578    7.465039480   956.4508   6  21   0.0525   0.1003   0.0648  -0.0312   0.0204  -0.0266   0.00    0.0
2026/01/15 03:11:30.000   46.877096577    7.465039448   956.4499   6  21   0.0524   0.0998   0.0645  -0.0313   0.0204  -0.0266   0.00    0.0
2026/01/15 03:12:00.000   46.877096575    7.465039415   956.4489   6  21   0.0522   0.0993   0.0643  -0.0313   0.0203  -0.0266   0.00    0.0
2026/01/15 03:12:30.000   46.877096574    7.465039378   956.4479   6  21   0.0521   0.0988   0.0641  -0.0313   0.0202  -0.0266   0.00    0.0
2026/01/15 03:13:00.000   46.877096573    7.465039336   956.4469   6  21   0.0519   0.0982   0.0638  -0.0313   0.0202  -0.0266   0.00    0.0
2026/01/15 03:13:30.000   46.877096573    7.465039291   956.4460   6  21   0.0518   0.0977   0.0636  -0.0313   0.0201  -0.0266   0.00    0.0
2026/01/15 03:14:00.000   46.877096573    7.465039252   956.4450   6  21   0.0516   0.0972   0.0633  -0.0313   0.0201  -0.0266   0.00    0.0
2026/01/15 03:14:30.000   46.877096573    7.465039215   956.4441   6  21   0.0514   0.0967   0.0631  -0.0313   0.0200  -0.0266   0.00    0.0
2026/01/15 03:15:00.000   46.877096573    7.465039185   956.4430   6  21   0.0513   0.0961   0.0628  -0.0313   0.0199  -0.0266   0.00    0.0
2026/01/15 03:15:30.000   46.877096572    7.465039152   956.4420   6  22   0.0511   0.0956   0.0626  -0.0312   0.0198  -0.0266   0.00    0.0
2026/01/15 03:16:00.000   46.877096571    7.465039115   956.4410   6  22   0.0510   0.0951   0.0623  -0.0312   0.0198  -0.0265   0.00    0.0
2026/01/15 03:16:30.000   46.877096571    7.465039071   956.4398   6  22   0.0508   0.0945   0.0621  -0.0312   0.0197  -0.0265   0.00    0.0
2026/01/15 03:17:00.000   46.877096571    7.465039029   956.4387   6  22   0.0506   0.0940   0.0618  -0.0312   0.0196  -0.0265   0.00    0.0
2026/01/15 03:17:30.000   46.877096571    7.465038987   956.4375   6  15   0.0505   0.0935   0.0616  -0.0311   0.0195  -0.0265   0.00    0.0
2026/01/15 03:18:00.000   46.877096571    7.465038946   956.4361   6  20   0.0503   0.0930   0.0613  -0.0311   0.0194  -0.0264   0.00    0.0
2026/01/15 03:18:30.000   46.877096571    7.465038905   956.4352   6  21   0.0502   0.0924   0.0611  -0.0311   0.0193  -0.0264   0.00    0.0
2026/01/15 03:19:00.000   46.877096572    7.465038865   956.4342   6  21   0.0500   0.0919   0.0609  -0.0310   0.0192  -0.0264   0.00    0.0
2026/01/15 03:19:30.000   46.877096572    7.465038823   956.4332   6  21   0.0498   0.0913   0.0606  -0.0310   0.0191  -0.0263   0.00    0.0
2026/01/15 03:20:00.000   46.877096572    7.465038780   956.4321   6  21   0.0497   0.0908   0.0604  -0.0309   0.0190  -0.0263   0.00    0.0
2026/01/15 03:20:30.000   46.877096573    7.465038737   956.4312   6  21   0.0495   0.0902   0.0601  -0.0309   0.0189  -0.0263   0.00    0.0
2026/01/15 03:21:00.000   46.877096574    7.465038696   956.4301   6  21   0.0493   0.0896   0.0599  -0.0308   0.0188  -0.0262   0.00    0.0
2026/01/15 03:21:30.000   46.877096576    7.465038653   956.4289   6  21   0.0492   0.0891   0.0597  -0.0308   0.0187  -0.0262   0.00    0.0
2026/01/15 03:22:00.000   46.877096578    7.465038610   956.4278   6  21   0.0490   0.0885   0.0594  -0.0307   0.0186  -0.0261   0.00    0.0
2026/01/15 03:22:30.000   46.877096580    7.465038569   956.4267   6  21   0.0488   0.0880   0.0592  -0.0306   0.0185  -0.0261   0.00    0.0
2026/01/15 03:23:00.000   46.877096581    7.465038532   956.4257   6  21   0.0486   0.0874   0.0589  -0.0306   0.0184  -0.0261   0.00    0.0
2026/01/15 03:23:30.000   46.877096582    7.465038490   956.4245   6  21   0.0485   0.0869   0.0587  -0.0305   0.0183  -0.0260   0.00    0.0
2026/01/15 03:24:00.000   46.877096584    7.465038447   956.4234   6  21   0.0483   0.0863   0.0584  -0.0304   0.0182  -0.0260   0.00    0.0
2026/01/15 03:24:30.000   46.877096586    7.465038404   956.4221   6  21   0.0481   0.0858   0.0582  -0.0304   0.0181  -0.0259   0.00    0.0
2026/01/15 03:25:00.000   46.877096589    7.465038360   956.4209   6  21   0.0479   0.0852   0.0579  -0.0303   0.0180  -0.0259   0.00    0.0
2026/01/15 03:25:30.000   46.877096591    7.465038316   956.4196   6  21   0.0477   0.0847   0.0576  -0.0302   0.0179  -0.0258   0.00    0.0
2026/01/15 03:26:00.000   46.877096594    7.465038271   956.4183   6  21   0.0476   0.0841   0.0574  -0.0301   0.0178  -0.0258   0.00    0.0
2026/01/15 03:26:30.000   46.877096596    7.465038230   956.4169   6  21   0.0474   0.0836   0.0571  -0.0300   0.0177  -0.0257   0.00    0.0
2026/01/15 03:27:00.000   46.877096599    7.465038190   956.4155   6  21   0.0472   0.0830   0.0569  -0.0299   0.0176  -0.0257   0.00    0.0
2026/01/15 03:27:30.000   46.877096601    7.465038148   956.4141   6  21   0.0470   0.0825   0.0566  -0.0299   0.0174  -0.0256   0.00    0.0
2026/01/15 03:28:00.000   46.877096604    7.465038106   956.4128   6  13   0.0469   0.0820   0.0564  -0.0298   0.0173  -0.0256   0.00    0.0
2026/01/15 03:28:30.000   46.877096606    7.465038066   956.4115   6  13   0.0467   0.0815   0.0562  -0.0297   0.0171  -0.0255   0.00    0.0
2026/01/15 03:29:00.000   46.877096609    7.465038029   956.4110   6  19   0.0466   0.0810   0.0561  -0.0296   0.0171  -0.0254   0.00    0.0
2026/01/15 03:29:30.000   46.877096613    7.465037993   956.4104   6  19   0.0464   0.0805   0.0559  -0.0295   0.0171  -0.0254   0.00    0.0
2026/01/15 03:30:00.000   46.877096616    7.465037959   956.4098   6  19   0.0462   0.0799   0.0557  -0.0294   0.0171  -0.0253   0.00    0.0
2026/01/15 03:30:30.000   46.877096620    7.465037925   956.4091   6  19   0.0460   0.0794   0.0555  -0.0293   0.0171  -0.0253   0.00    0.0
2026/01/15 03:31:00.000   46.877096624    7.465037889   956.4084   6  19   0.0458   0.0789   0.0553  -0.0292   0.0170  -0.0252   0.00    0.0
2026/01/15 03:31:30.000   46.877096627    7.465037854   956.4077   6  19   0.0456   0.0784   0.0551  -0.0291   0.0170  -0.0252   0.00    0.0
2026/01/15 03:32:00.000   46.877096632    7.465037817   956.4069   6  19   0.0454   0.0779   0.0549  -0.0290   0.0169  -0.0251   0.00    0.0
2026/01/15 03:32:30.000   46.877096636    7.465037779   956.4060   6  19   0.0453   0.0774   0.0547  -0.0289   0.0169  -0.0250   0.00    0.0
2026/01/15 03:33:00.000   46.877096642    7.465037741   956.4052   6  19   0.0451   0.0769   0.0545  -0.0288   0.0169  -0.0250   0.00    0.0
2026/01/15 03:33:30.000   46.877096647    7.465037705   956.4043   6  19   0.0449   0.0763   0.0543  -0.0287   0.0168  -0.0249   0.00    0.0
2026/01/15 03:34:00.000   46.877096652    7.465037669   956.4035   6  19   0.0447   0.0758   0.0541  -0.0286   0.0168  -0.0249   0.00    0.0
2026/01/15 03:34:30.000   46.877096658    7.465037636   956.4026   6  19   0.0445   0.0753   0.0539  -0.0284   0.0167  -0.0248   0.00    0.0
2026/01/15 03:35:00.000   46.877096663    7.465037601   956.4016   6  19   0.0443   0.0748   0.0537  -0.0283   0.0166  -0.0247   0.00    0.0
2026/01/15 03:35:30.000   46.877096668    7.465037567   956.4006   6  19   0.0441   0.0743   0.0535  -0.0282   0.0166  -0.0247   0.00    0.0
2026/01/15 03:36:00.000   46.877096672    7.465037535   956.3997   6  19   0.0439   0.0738   0.0533  -0.0281   0.0165  -0.0246   0.00    0.0
2026/01/15 03:36:30.000   46.877096677    7.465037503   956.3987   6  19   0.0437   0.0733   0.0531  -0.0280   0.0165  -0.0246   0.00    0.0
2026/01/15 03:37:00.000   46.877096681    7.465037469   956.3977   6  19   0.0436   0.0728   0.0529  -0.0278   0.0164  -0.0245   0.00    0.0
2026/01/15 03:37:30.000   46.877096685    7.465037434   956.3966   6  19   0.0434   0.0724   0.0527  -0.0277   0.0163  -0.0244   0.00    0.0
2026/01/15 03:38:00.000   46.877096688    7.465037404   956.3957   6  19   0.0432   0.0719   0.0525  -0.0276   0.0163  -0.0244   0.00    0.0
2026/01/15 03:38:30.000   46.877096693    7.465037373   956.3947   6  19   0.0430   0.0714   0.0522  -0.0275   0.0162  -0.0243   0.00    0.0
2026/01/15 03:39:00.000   46.877096698    7.465037344   956.3936   6  19   0.0428   0.0709   0.0520  -0.0273   0.0161  -0.0243   0.00    0.0
2026/01/15 03:39:30.000   46.877096704    7.465037314   956.3925   6  19   0.0426   0.0704   0.0518  -0.0272   0.0160  -0.0242   0.00    0.0
2026/01/15 03:40:00.000   46.877096702    7.465037304   956.3924   6  11   0.0425   0.0701   0.0517  -0.0273   0.0162  -0.0242   0.00    0.0
2026/01/15 03:40:30.000   46.877096701    7.465037295   956.3923   6  11   0.0424   0.0698   0.0516  -0.0273   0.0163  -0.0242   0.00    0.0
2026/01/15 03:41:00.000   46.877096699    7.465037282   956.3920   6  12   0.0424   0.0695   0.0515  -0.0274   0.0165  -0.0243   0.00    0.0
2026/01/15 03:41:30.000   46.877096697    7.465037268   956.3918   6  12   0.0423   0.0692   0.0514  -0.0274   0.0167  -0.0243   0.00    0.0
2026/01/15 03:42:00.000   46.877096695    7.465037254   956.3916   6  15   0.0422   0.0688   0.0513  -0.0275   0.0168  -0.0243   0.00    0.0
2026/01/15 03:42:30.000   46.877096694    7.465037239   956.3913   6  12   0.0421   0.0685   0.0512  -0.0275   0.0169  -0.0243   0.00    0.0
2026/01/15 03:43:00.000   46.877096692    7.465037226   956.3910   6  12   0.0420   0.0682   0.0511  -0.0275   0.0171  -0.0244   0.00    0.0
2026/01/15 03:43:30.000   46.877096690    7.465037214   956.3908   6  12   0.0419   0.0679   0.0509  -0.0276   0.0172  -0.0244   0.00    0.0
2026/01/15 03:44:00.000   46.877096689    7.465037202   956.3905   6  12   0.0418   0.0676   0.0508  -0.0276   0.0173  -0.0244   0.00    0.0
2026/01/15 03:44:30.000   46.877096688    7.465037190   956.3902   6  12   0.0417   0.0672   0.0507  -0.0277   0.0175  -0.0244   0.00    0.0
2026/01/15 03:45:00.000   46.877096686    7.465037179   956.3899   6  12   0.0416   0.0669   0.0506  -0.0277   0.0176  -0.0244   0.00    0.0
2026/01/15 03:45:30.000   46.877096684    7.465037165   956.3894   6  18   0.0415   0.0666   0.0504  -0.0277   0.0177  -0.0245   0.00    0.0
2026/01/15 03:46:00.000   46.877096683    7.465037152   956.3890   6  18   0.0413   0.0662   0.0502  -0.0276   0.0178  -0.0245   0.00    0.0
2026/01/15 03:46:30.000   46.877096683    7.465037143   956.3887   6  12   0.0413   0.0659   0.0501  -0.0277   0.0179  -0.0245   0.00    0.0
2026/01/15 03:47:00.000   46.877096682    7.465037133   956.3885   6  12   0.0412   0.0656   0.0500  -0.0277   0.0180  -0.0245   0.00    0.0
2026/01/15 03:47:30.000   46.877096680    7.465037123   956.3883   6  12   0.0411   0.0653   0.0499  -0.0277   0.0181  -0.0246   0.00    0.0
2026/01/15 03:48:00.000   46.877096679    7.465037110   956.3879   6  18   0.0409   0.0649   0.0497  -0.0277   0.0181  -0.0246   0.00    0.0
2026/01/15 03:48:30.000   46.877096679    7.465037101   956.3877   6  12   0.0408   0.0646   0.0496  -0.0277   0.0182  -0.0246   0.00    0.0
2026/01/15 03:49:00.000   46.877096679    7.465037090   956.3874   6  12   0.0408   0.0643   0.0495  -0.0277   0.0183  -0.0246   0.00    0.0
2026/01/15 03:49:30.000   46.877096678    7.465037078   956.3873   6  12   0.0407   0.0640   0.0494  -0.0277   0.0184  -0.0246   0.00    0.0
2026/01/15 03:50:00.000   46.877096677    7.465037067   956.3870   6  12   0.0406   0.0637   0.0493  -0.0277   0.0185  -0.0247   0.00    0.0
2026/01/15 03:50:30.000   46.877096677    7.465037054   956.3867   6  12   0.0405   0.0634   0.0492  -0.0277   0.0186  -0.0247   0.00    0.0
2026/01/15 03:51:00.000   46.877096676    7.465037044   956.3864   6  12   0.0404   0.0631   0.0490  -0.0277   0.0187  -0.0247   0.00    0.0
2026/01/15 03:51:30.000   46.877096675    7.465037032   956.3862   6  12   0.0403   0.0628   0.0489  -0.0277   0.0187  -0.0247   0.00    0.0
2026/01/15 03:52:00.000   46.877096674    7.465037019   956.3859   6  12   0.0403   0.0625   0.0488  -0.0277   0.0188  -0.0247   0.00    0.0
2026/01/15 03:52:30.000   46.877096674    7.465037007   956.3857   6  12   0.0402   0.0622   0.0487  -0.0277   0.0189  -0.0248   0.00    0.0
2026/01/15 03:53:00.000   46.877096674    7.465036992   956.3854   6  12   0.0401   0.0619   0.0486  -0.0277   0.0189  -0.0248   0.00    0.0
2026/01/15 03:53:30.000   46.877096674    7.465036979   956.3850   6  12   0.0400   0.0616   0.0485  -0.0277   0.0190  -0.0248   0.00    0.0
2026/01/15 03:54:00.000   46.877096674    7.465036967   956.3847   6  11   0.0399   0.0613   0.0484  -0.0277   0.0191  -0.0248   0.00    0.0
2026/01/15 03:54:30.000   46.877096674    7.465036963   956.3845   6   6   0.0399   0.0612   0.0483  -0.0277   0.0191  -0.0248   0.00    0.0
2026/01/15 03:55:00.000   46.877096674    7.465036958   956.3844   6   6   0.0398   0.0611   0.0482  -0.0277   0.0192  -0.0248   0.00    0.0
2026/01/15 03:55:30.000   46.877096673    7.465036947   956.3841   6  11   0.0397   0.0608   0.0481  -0.0277   0.0193  -0.0248   0.00    0.0
2026/01/15 03:56:00.000   46.877096673    7.465036943   956.3839   6   8   0.0396   0.0606   0.0480  -0.0277   0.0194  -0.0248   0.00    0.0
2026/01/15 03:56:30.000   46.877096672    7.465036940   956.3837   6   6   0.0396   0.0605   0.0479  -0.0278   0.0195  -0.0248   0.00    0.0
2026/01/15 03:57:00.000   46.877096673    7.465036936   956.3835   6   6   0.0395   0.0604   0.0478  -0.0278   0.0195  -0.0248   0.00    0.0
2026/01/15 03:57:30.000   46.877096672    7.465036922   956.3832   6  12   0.0394   0.0601   0.0477  -0.0277   0.0196  -0.0248   0.00    0.0
