% program   : RTKPOST-EX 2.5.0
% inp file  : C:\Users\tevin\Desktop\GNSS - MASTA\SPRING SEM\4.SAT NAV DATA PROCESSING\TEAM PROJECT\SNDP-PROJECT\Old_data\data\ZIM200CHE_R_20260150000_01D_30S_MO.rnx
% inp file  : C:\Users\tevin\Desktop\GNSS - MASTA\SPRING SEM\4.SAT NAV DATA PROCESSING\TEAM PROJECT\SNDP-PROJECT\New_Data\nav\BRDC00IGS_R_20260150000_01D_MN.nav
% inp file  : C:\Users\tevin\Desktop\GNSS - MASTA\SPRING SEM\4.SAT NAV DATA PROCESSING\TEAM PROJECT\SNDP-PROJECT\New_Data\DATA_FINAL_ANT_EXTRA\COD0MGXFIN_20260150000_01D_30S_CLK.CLK
% obs start : 2026/01/15 00:00:00.0 GPST (week2401 345600.0s)
% obs end   : 2026/01/15 23:59:30.0 GPST (week2401 431970.0s)
% pos mode  : PPP Static
% freqs     : L1+L2/E5b
% solution  : Forward
% elev mask : 15.0 deg
% dynamics  : on
% tidecorr  :
% ionos opt : Broadcast
% tropo opt : Saastamoinen
% ephemeris : Broadcast
% navi sys  : GPS
% antenna1  :                       ( 0.0000  0.0000  0.0000)
%
% (lat/lon/height=WGS84/ellipsoidal,Q=1:fix,2:float,3:sbas,4:dgps,5:single,6:ppp,ns=# of satellites)
%  GPST                  latitude(deg) longitude(deg)  height(m)   Q  ns   sdn(m)   sde(m)   sdu(m)  sdne(m)  sdeu(m)  sdun(m) age(s)  ratio
2026/01/15 03:27:30.000   46.877111765    7.465031718   949.7589   6   4   0.1038   0.0811   0.2114  -0.0230  -0.0316  -0.0388   0.00    0.0
2026/01/15 09:39:00.000   46.877102941    7.465031067   953.6847   6   4   0.0613   0.0466   0.1227  -0.0071  -0.0150  -0.0218   0.00    0.0
2026/01/15 09:39:30.000   46.877102943    7.465031099   953.6887   6   4   0.0613   0.0465   0.1226  -0.0071  -0.0150  -0.0218   0.00    0.0
2026/01/15 09:40:00.000   46.877102945    7.465031132   953.6926   6   4   0.0613   0.0465   0.1226  -0.0072  -0.0150  -0.0218   0.00    0.0
2026/01/15 09:40:30.000   46.877102947    7.465031164   953.6966   6   4   0.0612   0.0465   0.1225  -0.0072  -0.0150  -0.0217   0.00    0.0
2026/01/15 09:41:00.000   46.877102949    7.465031196   953.7006   6   4   0.0612   0.0465   0.1225  -0.0073  -0.0150  -0.0217   0.00    0.0
2026/01/15 09:41:30.000   46.877102950    7.465031229   953.7046   6   4   0.0612   0.0465   0.1224  -0.0073  -0.0150  -0.0217   0.00    0.0
2026/01/15 09:42:00.000   46.877102952    7.465031260   953.7084   6   4   0.0612   0.0465   0.1224  -0.0074  -0.0150  -0.0217   0.00    0.0
2026/01/15 09:42:30.000   46.877102954    7.465031292   953.7124   6   4   0.0612   0.0465   0.1223  -0.0074  -0.0150  -0.0217   0.00    0.0
2026/01/15 09:43:00.000   46.877102956    7.465031325   953.7164   6   4   0.0612   0.0465   0.1223  -0.0074  -0.0151  -0.0216   0.00    0.0
2026/01/15 09:43:30.000   46.877102958    7.465031357   953.7203   6   4   0.0611   0.0464   0.1222  -0.0075  -0.0151  -0.0216   0.00    0.0
2026/01/15 09:44:00.000   46.877102961    7.465031388   953.7243   6   4   0.0611   0.0464   0.1221  -0.0075  -0.0151  -0.0216   0.00    0.0
2026/01/15 09:44:30.000   46.877102956    7.465031424   953.7301   6   4   0.0611   0.0464   0.1221  -0.0076  -0.0151  -0.0215   0.00    0.0
2026/01/15 09:45:00.000   46.877102950    7.465031460   953.7358   6   4   0.0611   0.0464   0.1220  -0.0076  -0.0151  -0.0215   0.00    0.0
2026/01/15 09:45:30.000   46.877102945    7.465031495   953.7414   6   4   0.0610   0.0464   0.1219  -0.0076  -0.0152  -0.0214   0.00    0.0
2026/01/15 09:46:00.000   46.877102940    7.465031529   953.7469   6   4   0.0610   0.0464   0.1219  -0.0076  -0.0152  -0.0214   0.00    0.0
2026/01/15 09:46:30.000   46.877102936    7.465031564   953.7524   6   4   0.0610   0.0464   0.1218  -0.0076  -0.0152  -0.0213   0.00    0.0
2026/01/15 09:47:00.000   46.877102931    7.465031598   953.7578   6   4   0.0610   0.0463   0.1217  -0.0077  -0.0153  -0.0213   0.00    0.0
2026/01/15 09:47:30.000   46.877102927    7.465031632   953.7631   6   4   0.0609   0.0463   0.1217  -0.0077  -0.0153  -0.0212   0.00    0.0
2026/01/15 09:48:00.000   46.877102923    7.465031666   953.7685   6   4   0.0609   0.0463   0.1216  -0.0077  -0.0153  -0.0212   0.00    0.0
2026/01/15 09:48:30.000   46.877102920    7.465031700   953.7738   6   4   0.0609   0.0463   0.1216  -0.0077  -0.0154  -0.0211   0.00    0.0
2026/01/15 09:49:00.000   46.877102916    7.465031734   953.7791   6   4   0.0609   0.0463   0.1215  -0.0078  -0.0154  -0.0211   0.00    0.0
2026/01/15 09:49:30.000   46.877102912    7.465031768   953.7843   6   4   0.0608   0.0463   0.1214  -0.0078  -0.0154  -0.0210   0.00    0.0
2026/01/15 09:50:00.000   46.877102908    7.465031802   953.7897   6   4   0.0608   0.0463   0.1214  -0.0078  -0.0154  -0.0210   0.00    0.0
2026/01/15 09:50:30.000   46.877102905    7.465031837   953.7951   6   4   0.0608   0.0462   0.1213  -0.0078  -0.0155  -0.0209   0.00    0.0
2026/01/15 09:51:00.000   46.877102902    7.465031871   953.8003   6   4   0.0608   0.0462   0.1212  -0.0079  -0.0155  -0.0209   0.00    0.0
2026/01/15 09:51:30.000   46.877102900    7.465031905   953.8056   6   4   0.0608   0.0462   0.1212  -0.0079  -0.0155  -0.0208   0.00    0.0
2026/01/15 09:52:00.000   46.877102897    7.465031939   953.8108   6   4   0.0607   0.0462   0.1211  -0.0079  -0.0155  -0.0208   0.00    0.0
2026/01/15 09:52:30.000   46.877102894    7.465031973   953.8160   6   4   0.0607   0.0462   0.1210  -0.0079  -0.0156  -0.0207   0.00    0.0
2026/01/15 09:53:00.000   46.877102892    7.465032006   953.8211   6   4   0.0607   0.0462   0.1210  -0.0079  -0.0156  -0.0207   0.00    0.0
2026/01/15 09:53:30.000   46.877102890    7.465032039   953.8261   6   4   0.0607   0.0462   0.1209  -0.0080  -0.0156  -0.0206   0.00    0.0
2026/01/15 09:54:00.000   46.877102888    7.465032073   953.8311   6   4   0.0606   0.0461   0.1208  -0.0080  -0.0157  -0.0206   0.00    0.0
2026/01/15 09:54:30.000   46.877102886    7.465032106   953.8362   6   4   0.0606   0.0461   0.1208  -0.0080  -0.0157  -0.0205   0.00    0.0
2026/01/15 09:55:00.000   46.877102885    7.465032139   953.8413   6   4   0.0606   0.0461   0.1207  -0.0080  -0.0157  -0.0204   0.00    0.0
2026/01/15 09:55:30.000   46.877102883    7.465032172   953.8464   6   4   0.0606   0.0461   0.1206  -0.0080  -0.0157  -0.0204   0.00    0.0
2026/01/15 09:56:00.000   46.877102882    7.465032205   953.8514   6   4   0.0605   0.0461   0.1206  -0.0081  -0.0158  -0.0203   0.00    0.0
2026/01/15 09:56:30.000   46.877102880    7.465032238   953.8564   6   4   0.0605   0.0461   0.1205  -0.0081  -0.0158  -0.0203   0.00    0.0
2026/01/15 09:57:00.000   46.877102879    7.465032270   953.8615   6   4   0.0605   0.0461   0.1204  -0.0081  -0.0158  -0.0202   0.00    0.0
2026/01/15 09:57:30.000   46.877102879    7.465032302   953.8663   6   4   0.0605   0.0460   0.1204  -0.0081  -0.0158  -0.0202   0.00    0.0
2026/01/15 09:58:00.000   46.877102879    7.465032333   953.8711   6   4   0.0605   0.0460   0.1203  -0.0081  -0.0159  -0.0201   0.00    0.0
2026/01/15 09:58:30.000   46.877102880    7.465032365   953.8758   6   4   0.0604   0.0460   0.1203  -0.0082  -0.0159  -0.0201   0.00    0.0
2026/01/15 09:59:00.000   46.877102881    7.465032397   953.8805   6   4   0.0604   0.0460   0.1202  -0.0082  -0.0159  -0.0200   0.00    0.0
2026/01/15 09:59:30.000   46.877102883    7.465032429   953.8851   6   4   0.0604   0.0460   0.1201  -0.0082  -0.0159  -0.0200   0.00    0.0
2026/01/15 10:00:00.000   46.877102885    7.465032462   953.8898   6   4   0.0604   0.0460   0.1201  -0.0082  -0.0160  -0.0200   0.00    0.0
2026/01/15 10:00:30.000   46.877102886    7.465032494   953.8944   6   4   0.0603   0.0460   0.1200  -0.0082  -0.0160  -0.0199   0.00    0.0
2026/01/15 10:01:00.000   46.877102888    7.465032527   953.8989   6   4   0.0603   0.0459   0.1199  -0.0082  -0.0160  -0.0199   0.00    0.0
2026/01/15 10:01:30.000   46.877102891    7.465032559   953.9033   6   4   0.0603   0.0459   0.1199  -0.0083  -0.0160  -0.0198   0.00    0.0
2026/01/15 10:02:00.000   46.877102893    7.465032590   953.9079   6   4   0.0603   0.0459   0.1198  -0.0083  -0.0160  -0.0198   0.00    0.0
2026/01/15 10:02:30.000   46.877102895    7.465032622   953.9125   6   4   0.0603   0.0459   0.1197  -0.0083  -0.0161  -0.0197   0.00    0.0
2026/01/15 10:03:00.000   46.877102897    7.465032653   953.9171   6   4   0.0602   0.0459   0.1197  -0.0083  -0.0161  -0.0197   0.00    0.0
2026/01/15 10:03:30.000   46.877102900    7.465032684   953.9217   6   4   0.0602   0.0459   0.1196  -0.0083  -0.0161  -0.0196   0.00    0.0
2026/01/15 10:04:00.000   46.877102901    7.465032714   953.9262   6   4   0.0602   0.0459   0.1196  -0.0084  -0.0161  -0.0196   0.00    0.0
2026/01/15 10:04:30.000   46.877102903    7.465032744   953.9305   6   4   0.0602   0.0459   0.1195  -0.0084  -0.0161  -0.0195   0.00    0.0
2026/01/15 10:05:00.000   46.877102907    7.465032775   953.9349   6   4   0.0602   0.0458   0.1194  -0.0084  -0.0162  -0.0195   0.00    0.0
2026/01/15 10:05:30.000   46.877102913    7.465032798   953.9374   6   4   0.0601   0.0458   0.1194  -0.0084  -0.0162  -0.0194   0.00    0.0
2026/01/15 10:06:00.000   46.877102918    7.465032821   953.9400   6   4   0.0601   0.0458   0.1193  -0.0084  -0.0162  -0.0194   0.00    0.0
2026/01/15 19:26:00.000   46.877105381    7.465035418   953.7036   6   4   0.0470   0.0361   0.0905  -0.0075   0.0098  -0.0143   0.00    0.0
2026/01/15 19:26:30.000   46.877105385    7.465035400   953.7004   6   4   0.0470   0.0361   0.0905  -0.0075   0.0098  -0.0144   0.00    0.0
2026/01/15 19:27:00.000   46.877105390    7.465035382   953.6974   6   4   0.0470   0.0361   0.0905  -0.0074   0.0098  -0.0144   0.00    0.0
2026/01/15 19:27:30.000   46.877105394    7.465035363   953.6942   6   4   0.0470   0.0361   0.0904  -0.0074   0.0098  -0.0144   0.00    0.0
2026/01/15 19:28:00.000   46.877105398    7.465035344   953.6911   6   4   0.0470   0.0361   0.0904  -0.0074   0.0098  -0.0144   0.00    0.0
2026/01/15 19:28:30.000   46.877105403    7.465035326   953.6880   6   4   0.0470   0.0361   0.0904  -0.0074   0.0098  -0.0144   0.00    0.0
2026/01/15 19:29:00.000   46.877105408    7.465035307   953.6848   6   4   0.0469   0.0361   0.0903  -0.0074   0.0098  -0.0144   0.00    0.0
2026/01/15 19:29:30.000   46.877105413    7.465035289   953.6818   6   4   0.0469   0.0361   0.0903  -0.0074   0.0098  -0.0144   0.00    0.0
2026/01/15 19:30:00.000   46.877105418    7.465035270   953.6788   6   4   0.0469   0.0361   0.0903  -0.0074   0.0098  -0.0144   0.00    0.0
2026/01/15 19:30:30.000   46.877105424    7.465035251   953.6757   6   4   0.0469   0.0360   0.0902  -0.0074   0.0098  -0.0144   0.00    0.0
2026/01/15 19:31:00.000   46.877105429    7.465035233   953.6727   6   4   0.0469   0.0360   0.0902  -0.0074   0.0098  -0.0144   0.00    0.0
2026/01/15 19:31:30.000   46.877105435    7.465035214   953.6698   6   4   0.0469   0.0360   0.0902  -0.0074   0.0098  -0.0144   0.00    0.0
2026/01/15 19:32:00.000   46.877105443    7.465035196   953.6674   6   4   0.0469   0.0360   0.0901  -0.0074   0.0099  -0.0144   0.00    0.0
2026/01/15 19:32:30.000   46.877105450    7.465035177   953.6650   6   4   0.0469   0.0360   0.0901  -0.0074   0.0099  -0.0144   0.00    0.0
2026/01/15 19:33:00.000   46.877105458    7.465035158   953.6627   6   4   0.0469   0.0360   0.0901  -0.0074   0.0099  -0.0144   0.00    0.0
2026/01/15 19:33:30.000   46.877105466    7.465035140   953.6604   6   4   0.0468   0.0360   0.0900  -0.0074   0.0099  -0.0144   0.00    0.0
2026/01/15 19:34:00.000   46.877105473    7.465035121   953.6580   6   4   0.0468   0.0360   0.0900  -0.0074   0.0099  -0.0144   0.00    0.0
2026/01/15 19:34:30.000   46.877105481    7.465035102   953.6556   6   4   0.0468   0.0360   0.0900  -0.0074   0.0099  -0.0144   0.00    0.0
2026/01/15 19:35:00.000   46.877105489    7.465035083   953.6533   6   4   0.0468   0.0360   0.0900  -0.0074   0.0099  -0.0143   0.00    0.0
2026/01/15 19:35:30.000   46.877105497    7.465035064   953.6512   6   4   0.0468   0.0360   0.0899  -0.0074   0.0099  -0.0143   0.00    0.0
2026/01/15 19:36:00.000   46.877105505    7.465035044   953.6490   6   4   0.0468   0.0359   0.0899  -0.0073   0.0099  -0.0143   0.00    0.0
2026/01/15 19:36:30.000   46.877105513    7.465035024   953.6467   6   4   0.0468   0.0359   0.0899  -0.0073   0.0099  -0.0143   0.00    0.0
2026/01/15 19:37:00.000   46.877105521    7.465035005   953.6445   6   4   0.0468   0.0359   0.0899  -0.0073   0.0099  -0.0143   0.00    0.0
2026/01/15 19:37:30.000   46.877105529    7.465034986   953.6424   6   4   0.0468   0.0359   0.0898  -0.0073   0.0099  -0.0143   0.00    0.0
2026/01/15 19:38:00.000   46.877105537    7.465034966   953.6403   6   4   0.0468   0.0359   0.0898  -0.0073   0.0099  -0.0143   0.00    0.0
2026/01/15 19:38:30.000   46.877105545    7.465034946   953.6383   6   4   0.0467   0.0359   0.0898  -0.0073   0.0099  -0.0142   0.00    0.0
2026/01/15 19:39:00.000   46.877105553    7.465034926   953.6363   6   4   0.0467   0.0359   0.0897  -0.0073   0.0100  -0.0142   0.00    0.0
2026/01/15 19:39:30.000   46.877105561    7.465034906   953.6343   6   4   0.0467   0.0359   0.0897  -0.0073   0.0100  -0.0142   0.00    0.0
2026/01/15 19:40:00.000   46.877105569    7.465034886   953.6324   6   4   0.0467   0.0359   0.0897  -0.0073   0.0100  -0.0142   0.00    0.0
2026/01/15 19:40:30.000   46.877105578    7.465034867   953.6304   6   4   0.0467   0.0359   0.0897  -0.0073   0.0100  -0.0142   0.00    0.0
2026/01/15 19:41:00.000   46.877105586    7.465034847   953.6285   6   4   0.0467   0.0359   0.0896  -0.0073   0.0100  -0.0142   0.00    0.0
2026/01/15 19:41:30.000   46.877105594    7.465034826   953.6265   6   4   0.0467   0.0358   0.0896  -0.0072   0.0100  -0.0142   0.00    0.0
2026/01/15 19:42:00.000   46.877105602    7.465034806   953.6246   6   4   0.0467   0.0358   0.0896  -0.0072   0.0100  -0.0141   0.00    0.0
2026/01/15 19:42:30.000   46.877105607    7.465034783   953.6237   6   4   0.0467   0.0358   0.0896  -0.0072   0.0100  -0.0141   0.00    0.0
2026/01/15 19:43:00.000   46.877105611    7.465034760   953.6229   6   4   0.0467   0.0358   0.0896  -0.0072   0.0100  -0.0141   0.00    0.0
2026/01/15 19:43:30.000   46.877105616    7.465034738   953.6221   6   4   0.0466   0.0358   0.0895  -0.0072   0.0100  -0.0142   0.00    0.0
2026/01/15 19:44:00.000   46.877105620    7.465034715   953.6213   6   4   0.0466   0.0358   0.0895  -0.0072   0.0100  -0.0142   0.00    0.0
2026/01/15 19:44:30.000   46.877105625    7.465034692   953.6206   6   4   0.0466   0.0358   0.0895  -0.0072   0.0100  -0.0142   0.00    0.0
2026/01/15 19:45:00.000   46.877105630    7.465034670   953.6200   6   4   0.0466   0.0358   0.0895  -0.0071   0.0100  -0.0142   0.00    0.0
2026/01/15 19:45:30.000   46.877105634    7.465034648   953.6193   6   4   0.0466   0.0358   0.0895  -0.0071   0.0100  -0.0142   0.00    0.0
2026/01/15 19:46:00.000   46.877105639    7.465034626   953.6186   6   4   0.0466   0.0358   0.0894  -0.0071   0.0100  -0.0142   0.00    0.0
2026/01/15 19:46:30.000   46.877105644    7.465034604   953.6180   6   4   0.0466   0.0358   0.0894  -0.0071   0.0100  -0.0142   0.00    0.0
2026/01/15 19:47:00.000   46.877105649    7.465034582   953.6174   6   4   0.0466   0.0357   0.0894  -0.0071   0.0100  -0.0142   0.00    0.0
2026/01/15 19:47:30.000   46.877105654    7.465034560   953.6168   6   4   0.0466   0.0357   0.0894  -0.0071   0.0100  -0.0142   0.00    0.0
2026/01/15 19:48:00.000   46.877105659    7.465034538   953.6162   6   4   0.0466   0.0357   0.0894  -0.0071   0.0100  -0.0142   0.00    0.0
2026/01/15 19:48:30.000   46.877105663    7.465034517   953.6157   6   4   0.0466   0.0357   0.0893  -0.0070   0.0100  -0.0142   0.00    0.0
2026/01/15 19:49:00.000   46.877105668    7.465034495   953.6152   6   4   0.0465   0.0357   0.0893  -0.0070   0.0100  -0.0142   0.00    0.0
2026/01/15 19:49:30.000   46.877105674    7.465034473   953.6148   6   4   0.0465   0.0357   0.0893  -0.0070   0.0100  -0.0142   0.00    0.0
2026/01/15 19:50:00.000   46.877105679    7.465034452   953.6144   6   4   0.0465   0.0357   0.0893  -0.0070   0.0100  -0.0142   0.00    0.0
2026/01/15 19:50:30.000   46.877105684    7.465034430   953.6139   6   4   0.0465   0.0357   0.0893  -0.0070   0.0100  -0.0142   0.00    0.0
2026/01/15 19:51:00.000   46.877105690    7.465034408   953.6135   6   4   0.0465   0.0357   0.0893  -0.0070   0.0100  -0.0142   0.00    0.0
2026/01/15 19:51:30.000   46.877105695    7.465034386   953.6132   6   4   0.0465   0.0357   0.0892  -0.0069   0.0101  -0.0142   0.00    0.0
2026/01/15 19:52:00.000   46.877105700    7.465034364   953.6130   6   4   0.0465   0.0357   0.0892  -0.0069   0.0101  -0.0142   0.00    0.0
2026/01/15 19:52:30.000   46.877105706    7.465034341   953.6127   6   4   0.0465   0.0357   0.0892  -0.0069   0.0101  -0.0142   0.00    0.0
2026/01/15 19:53:00.000   46.877105711    7.465034319   953.6125   6   4   0.0465   0.0356   0.0892  -0.0069   0.0101  -0.0142   0.00    0.0
2026/01/15 19:53:30.000   46.877105717    7.465034296   953.6124   6   4   0.0465   0.0356   0.0892  -0.0069   0.0101  -0.0142   0.00    0.0
2026/01/15 19:54:00.000   46.877105722    7.465034274   953.6123   6   4   0.0465   0.0356   0.0892  -0.0069   0.0101  -0.0142   0.00    0.0
2026/01/15 19:54:30.000   46.877105728    7.465034251   953.6122   6   4   0.0464   0.0356   0.0891  -0.0068   0.0101  -0.0142   0.00    0.0
2026/01/15 19:55:00.000   46.877105733    7.465034228   953.6122   6   4   0.0464   0.0356   0.0891  -0.0068   0.0101  -0.0142   0.00    0.0
2026/01/15 19:55:30.000   46.877105739    7.465034205   953.6122   6   4   0.0464   0.0356   0.0891  -0.0068   0.0101  -0.0142   0.00    0.0
2026/01/15 19:56:00.000   46.877105744    7.465034183   953.6122   6   4   0.0464   0.0356   0.0891  -0.0068   0.0101  -0.0142   0.00    0.0
2026/01/15 19:56:30.000   46.877105750    7.465034161   953.6123   6   4   0.0464   0.0356   0.0891  -0.0068   0.0101  -0.0142   0.00    0.0
2026/01/15 19:57:00.000   46.877105756    7.465034139   953.6124   6   4   0.0464   0.0356   0.0890  -0.0068   0.0101  -0.0142   0.00    0.0
2026/01/15 19:57:30.000   46.877105762    7.465034117   953.6126   6   4   0.0464   0.0356   0.0890  -0.0067   0.0101  -0.0142   0.00    0.0
2026/01/15 19:58:00.000   46.877105768    7.465034095   953.6127   6   4   0.0464   0.0356   0.0890  -0.0067   0.0101  -0.0142   0.00    0.0
2026/01/15 19:58:30.000   46.877105774    7.465034073   953.6129   6   4   0.0464   0.0356   0.0890  -0.0067   0.0101  -0.0142   0.00    0.0
2026/01/15 19:59:00.000   46.877105779    7.465034051   953.6131   6   4   0.0463   0.0355   0.0890  -0.0067   0.0102  -0.0142   0.00    0.0
2026/01/15 19:59:30.000   46.877105785    7.465034030   953.6133   6   4   0.0463   0.0355   0.0890  -0.0067   0.0102  -0.0142   0.00    0.0
2026/01/15 20:00:00.000   46.877105791    7.465034008   953.6137   6   5   0.0463   0.0355   0.0889  -0.0067   0.0102  -0.0142   0.00    0.0
2026/01/15 20:00:30.000   46.877105797    7.465033986   953.6141   6   5   0.0463   0.0355   0.0889  -0.0067   0.0102  -0.0141   0.00    0.0
2026/01/15 20:01:00.000   46.877105802    7.465033965   953.6145   6   5   0.0463   0.0355   0.0889  -0.0066   0.0102  -0.0141   0.00    0.0
2026/01/15 20:01:30.000   46.877105808    7.465033943   953.6150   6   5   0.0463   0.0355   0.0889  -0.0066   0.0102  -0.0141   0.00    0.0
2026/01/15 20:02:00.000   46.877105814    7.465033922   953.6156   6   5   0.0463   0.0355   0.0889  -0.0066   0.0102  -0.0141   0.00    0.0
2026/01/15 20:02:30.000   46.877105819    7.465033900   953.6162   6   5   0.0463   0.0355   0.0888  -0.0066   0.0102  -0.0141   0.00    0.0
2026/01/15 20:03:00.000   46.877105825    7.465033879   953.6168   6   5   0.0463   0.0355   0.0888  -0.0066   0.0102  -0.0141   0.00    0.0
2026/01/15 20:03:30.000   46.877105831    7.465033858   953.6174   6   5   0.0462   0.0355   0.0888  -0.0066   0.0102  -0.0141   0.00    0.0
2026/01/15 20:04:00.000   46.877105837    7.465033838   953.6182   6   5   0.0462   0.0355   0.0888  -0.0065   0.0102  -0.0141   0.00    0.0
2026/01/15 20:04:30.000   46.877105843    7.465033816   953.6189   6   5   0.0462   0.0355   0.0888  -0.0065   0.0103  -0.0141   0.00    0.0
2026/01/15 20:05:00.000   46.877105849    7.465033795   953.6196   6   5   0.0462   0.0354   0.0888  -0.0065   0.0103  -0.0141   0.00    0.0
2026/01/15 20:05:30.000   46.877105856    7.465033774   953.6204   6   5   0.0462   0.0354   0.0887  -0.0065   0.0103  -0.0141   0.00    0.0
2026/01/15 20:06:00.000   46.877105862    7.465033754   953.6212   6   5   0.0462   0.0354   0.0887  -0.0065   0.0103  -0.0141   0.00    0.0
2026/01/15 20:06:30.000   46.877105868    7.465033733   953.6220   6   5   0.0462   0.0354   0.0887  -0.0065   0.0103  -0.0141   0.00    0.0
2026/01/15 20:07:00.000   46.877105875    7.465033713   953.6228   6   5   0.0462   0.0354   0.0887  -0.0065   0.0103  -0.0141   0.00    0.0
2026/01/15 20:07:30.000   46.877105881    7.465033692   953.6237   6   5   0.0462   0.0354   0.0887  -0.0064   0.0103  -0.0141   0.00    0.0
2026/01/15 20:08:00.000   46.877105888    7.465033671   953.6246   6   5   0.0461   0.0354   0.0887  -0.0064   0.0103  -0.0141   0.00    0.0
2026/01/15 20:08:30.000   46.877105895    7.465033651   953.6257   6   5   0.0461   0.0354   0.0886  -0.0064   0.0104  -0.0141   0.00    0.0
2026/01/15 20:09:00.000   46.877105901    7.465033630   953.6268   6   5   0.0461   0.0354   0.0886  -0.0064   0.0104  -0.0141   0.00    0.0
2026/01/15 20:09:30.000   46.877105908    7.465033610   953.6279   6   5   0.0461   0.0354   0.0886  -0.0064   0.0104  -0.0141   0.00    0.0
2026/01/15 20:10:00.000   46.877105914    7.465033589   953.6289   6   5   0.0461   0.0354   0.0886  -0.0064   0.0104  -0.0141   0.00    0.0
2026/01/15 20:10:30.000   46.877105923    7.465033566   953.6295   6   5   0.0461   0.0354   0.0886  -0.0063   0.0104  -0.0141   0.00    0.0
2026/01/15 20:11:00.000   46.877105933    7.465033543   953.6301   6   5   0.0461   0.0353   0.0885  -0.0063   0.0104  -0.0140   0.00    0.0
2026/01/15 20:11:30.000   46.877105942    7.465033520   953.6309   6   5   0.0460   0.0353   0.0885  -0.0063   0.0104  -0.0140   0.00    0.0
2026/01/15 20:12:00.000   46.877105952    7.465033497   953.6316   6   5   0.0460   0.0353   0.0885  -0.0063   0.0104  -0.0140   0.00    0.0
2026/01/15 20:12:30.000   46.877105962    7.465033473   953.6324   6   5   0.0460   0.0353   0.0885  -0.0062   0.0104  -0.0140   0.00    0.0
2026/01/15 20:13:00.000   46.877105971    7.465033450   953.6332   6   5   0.0460   0.0353   0.0884  -0.0062   0.0104  -0.0140   0.00    0.0
2026/01/15 20:13:30.000   46.877105981    7.465033427   953.6340   6   5   0.0460   0.0353   0.0884  -0.0062   0.0104  -0.0139   0.00    0.0
2026/01/15 20:14:00.000   46.877105991    7.465033404   953.6349   6   5   0.0460   0.0353   0.0884  -0.0061   0.0104  -0.0139   0.00    0.0
2026/01/15 20:14:30.000   46.877106000    7.465033382   953.6358   6   5   0.0459   0.0353   0.0884  -0.0061   0.0104  -0.0139   0.00    0.0
2026/01/15 20:15:00.000   46.877106010    7.465033359   953.6368   6   5   0.0459   0.0353   0.0883  -0.0061   0.0104  -0.0139   0.00    0.0
2026/01/15 20:15:30.000   46.877106020    7.465033337   953.6378   6   5   0.0459   0.0353   0.0883  -0.0061   0.0104  -0.0138   0.00    0.0
2026/01/15 20:16:00.000   46.877106030    7.465033315   953.6390   6   5   0.0459   0.0353   0.0883  -0.0060   0.0104  -0.0138   0.00    0.0
2026/01/15 20:16:30.000   46.877106039    7.465033294   953.6402   6   5   0.0459   0.0352   0.0882  -0.0060   0.0104  -0.0138   0.00    0.0
2026/01/15 20:17:00.000   46.877106049    7.465033272   953.6413   6   5   0.0459   0.0352   0.0882  -0.0060   0.0104  -0.0138   0.00    0.0
2026/01/15 20:17:30.000   46.877106060    7.465033250   953.6424   6   5   0.0458   0.0352   0.0882  -0.0059   0.0104  -0.0138   0.00    0.0
2026/01/15 20:18:00.000   46.877106070    7.465033227   953.6435   6   5   0.0458   0.0352   0.0882  -0.0059   0.0104  -0.0137   0.00    0.0
2026/01/15 20:18:30.000   46.877106081    7.465033205   953.6447   6   5   0.0458   0.0352   0.0881  -0.0059   0.0104  -0.0137   0.00    0.0
2026/01/15 20:19:00.000   46.877106091    7.465033183   953.6460   6   5   0.0458   0.0352   0.0881  -0.0059   0.0104  -0.0137   0.00    0.0
2026/01/15 20:19:30.000   46.877106101    7.465033161   953.6473   6   5   0.0458   0.0352   0.0881  -0.0058   0.0104  -0.0137   0.00    0.0
2026/01/15 20:20:00.000   46.877106111    7.465033140   953.6486   6   5   0.0458   0.0352   0.0881  -0.0058   0.0104  -0.0137   0.00    0.0
2026/01/15 20:20:30.000   46.877106121    7.465033118   953.6500   6   5   0.0457   0.0352   0.0880  -0.0058   0.0104  -0.0136   0.00    0.0
2026/01/15 20:21:00.000   46.877106131    7.465033096   953.6514   6   5   0.0457   0.0352   0.0880  -0.0058   0.0104  -0.0136   0.00    0.0
2026/01/15 20:21:30.000   46.877106142    7.465033075   953.6529   6   5   0.0457   0.0352   0.0880  -0.0057   0.0104  -0.0136   0.00    0.0
2026/01/15 20:22:00.000   46.877106152    7.465033053   953.6545   6   5   0.0457   0.0352   0.0880  -0.0057   0.0104  -0.0136   0.00    0.0
2026/01/15 20:22:30.000   46.877106162    7.465033031   953.6561   6   5   0.0457   0.0351   0.0879  -0.0057   0.0104  -0.0136   0.00    0.0
2026/01/15 20:23:00.000   46.877106173    7.465033010   953.6579   6   5   0.0457   0.0351   0.0879  -0.0056   0.0104  -0.0135   0.00    0.0
2026/01/15 20:23:30.000   46.877106183    7.465032989   953.6597   6   5   0.0456   0.0351   0.0879  -0.0056   0.0104  -0.0135   0.00    0.0
2026/01/15 20:24:00.000   46.877106193    7.465032968   953.6616   6   5   0.0456   0.0351   0.0879  -0.0056   0.0104  -0.0135   0.00    0.0
2026/01/15 20:24:30.000   46.877106203    7.465032947   953.6636   6   5   0.0456   0.0351   0.0878  -0.0056   0.0104  -0.0135   0.00    0.0
2026/01/15 20:25:00.000   46.877106213    7.465032927   953.6656   6   5   0.0456   0.0351   0.0878  -0.0055   0.0104  -0.0135   0.00    0.0
2026/01/15 20:25:30.000   46.877106223    7.465032906   953.6676   6   5   0.0456   0.0351   0.0878  -0.0055   0.0104  -0.0135   0.00    0.0
2026/01/15 20:26:00.000   46.877106233    7.465032885   953.6696   6   5   0.0456   0.0351   0.0877  -0.0055   0.0104  -0.0134   0.00    0.0
2026/01/15 20:26:30.000   46.877106243    7.465032864   953.6717   6   5   0.0455   0.0351   0.0877  -0.0054   0.0104  -0.0134   0.00    0.0
2026/01/15 20:27:00.000   46.877106255    7.465032846   953.6743   6   5   0.0455   0.0351   0.0877  -0.0054   0.0104  -0.0134   0.00    0.0
2026/01/15 20:27:30.000   46.877106268    7.465032828   953.6770   6   5   0.0455   0.0351   0.0876  -0.0054   0.0104  -0.0134   0.00    0.0
2026/01/15 20:28:00.000   46.877106279    7.465032809   953.6797   6   5   0.0455   0.0350   0.0876  -0.0054   0.0104  -0.0134   0.00    0.0
2026/01/15 20:28:30.000   46.877106291    7.465032792   953.6825   6   5   0.0455   0.0350   0.0876  -0.0054   0.0104  -0.0134   0.00    0.0
2026/01/15 20:29:00.000   46.877106302    7.465032774   953.6854   6   5   0.0454   0.0350   0.0876  -0.0053   0.0104  -0.0134   0.00    0.0
2026/01/15 20:29:30.000   46.877106313    7.465032756   953.6883   6   5   0.0454   0.0350   0.0875  -0.0053   0.0104  -0.0134   0.00    0.0
2026/01/15 20:30:00.000   46.877106324    7.465032739   953.6913   6   5   0.0454   0.0350   0.0875  -0.0053   0.0104  -0.0134   0.00    0.0
2026/01/15 20:30:30.000   46.877106336    7.465032722   953.6943   6   5   0.0454   0.0350   0.0875  -0.0053   0.0104  -0.0134   0.00    0.0
2026/01/15 20:31:00.000   46.877106348    7.465032704   953.6973   6   5   0.0454   0.0350   0.0874  -0.0053   0.0104  -0.0134   0.00    0.0
2026/01/15 20:31:30.000   46.877106361    7.465032687   953.7003   6   5   0.0453   0.0350   0.0874  -0.0053   0.0104  -0.0134   0.00    0.0
2026/01/15 20:32:00.000   46.877106373    7.465032670   953.7034   6   5   0.0453   0.0350   0.0874  -0.0052   0.0104  -0.0134   0.00    0.0
2026/01/15 20:32:30.000   46.877106386    7.465032653   953.7066   6   5   0.0453   0.0350   0.0873  -0.0052   0.0104  -0.0134   0.00    0.0
2026/01/15 20:33:00.000   46.877106398    7.465032636   953.7099   6   5   0.0453   0.0350   0.0873  -0.0052   0.0104  -0.0134   0.00    0.0
2026/01/15 20:33:30.000   46.877106410    7.465032619   953.7132   6   5   0.0453   0.0349   0.0872  -0.0052   0.0104  -0.0134   0.00    0.0
2026/01/15 20:34:00.000   46.877106422    7.465032602   953.7165   6   5   0.0452   0.0349   0.0872  -0.0052   0.0104  -0.0134   0.00    0.0
2026/01/15 20:34:30.000   46.877106433    7.465032585   953.7199   6   5   0.0452   0.0349   0.0872  -0.0052   0.0103  -0.0134   0.00    0.0
2026/01/15 20:35:00.000   46.877106446    7.465032568   953.7233   6   5   0.0452   0.0349   0.0871  -0.0051   0.0103  -0.0134   0.00    0.0
2026/01/15 20:35:30.000   46.877106459    7.465032552   953.7268   6   5   0.0452   0.0349   0.0871  -0.0051   0.0103  -0.0134   0.00    0.0
2026/01/15 20:36:00.000   46.877106472    7.465032535   953.7303   6   5   0.0452   0.0349   0.0871  -0.0051   0.0103  -0.0134   0.00    0.0
2026/01/15 20:36:30.000   46.877106484    7.465032518   953.7339   6   5   0.0451   0.0349   0.0870  -0.0051   0.0103  -0.0134   0.00    0.0
2026/01/15 20:37:00.000   46.877106496    7.465032502   953.7376   6   5   0.0451   0.0349   0.0870  -0.0051   0.0103  -0.0134   0.00    0.0
2026/01/15 20:37:30.000   46.877106508    7.465032486   953.7413   6   5   0.0451   0.0349   0.0870  -0.0051   0.0103  -0.0134   0.00    0.0
2026/01/15 20:38:00.000   46.877106521    7.465032470   953.7451   6   5   0.0451   0.0349   0.0869  -0.0051   0.0103  -0.0134   0.00    0.0
2026/01/15 20:38:30.000   46.877106533    7.465032454   953.7490   6   5   0.0451   0.0348   0.0869  -0.0050   0.0103  -0.0134   0.00    0.0
2026/01/15 20:39:00.000   46.877106545    7.465032439   953.7529   6   5   0.0450   0.0348   0.0869  -0.0050   0.0103  -0.0134   0.00    0.0
2026/01/15 20:39:30.000   46.877106557    7.465032423   953.7568   6   5   0.0450   0.0348   0.0868  -0.0050   0.0103  -0.0134   0.00    0.0
2026/01/15 20:40:00.000   46.877106570    7.465032407   953.7607   6   5   0.0450   0.0348   0.0868  -0.0050   0.0103  -0.0134   0.00    0.0
2026/01/15 20:40:30.000   46.877106583    7.465032392   953.7649   6   5   0.0450   0.0348   0.0868  -0.0050   0.0103  -0.0134   0.00    0.0
2026/01/15 20:41:00.000   46.877106595    7.465032378   953.7691   6   5   0.0450   0.0348   0.0867  -0.0050   0.0103  -0.0134   0.00    0.0
2026/01/15 20:41:30.000   46.877106608    7.465032362   953.7731   6   5   0.0449   0.0348   0.0867  -0.0050   0.0103  -0.0134   0.00    0.0
2026/01/15 20:42:00.000   46.877106620    7.465032347   953.7772   6   5   0.0449   0.0348   0.0867  -0.0050   0.0103  -0.0134   0.00    0.0
2026/01/15 20:42:30.000   46.877106633    7.465032333   953.7814   6   5   0.0449   0.0348   0.0866  -0.0049   0.0103  -0.0134   0.00    0.0
2026/01/15 20:43:00.000   46.877106645    7.465032318   953.7856   6   5   0.0449   0.0348   0.0866  -0.0049   0.0103  -0.0134   0.00    0.0
2026/01/15 20:43:30.000   46.877106658    7.465032303   953.7899   6   5   0.0449   0.0348   0.0865  -0.0049   0.0103  -0.0134   0.00    0.0
2026/01/15 20:44:00.000   46.877106671    7.465032289   953.7942   6   5   0.0448   0.0347   0.0865  -0.0049   0.0103  -0.0134   0.00    0.0
2026/01/15 20:44:30.000   46.877106684    7.465032274   953.7986   6   5   0.0448   0.0347   0.0865  -0.0049   0.0103  -0.0134   0.00    0.0
2026/01/15 20:45:00.000   46.877106696    7.465032259   953.8030   6   5   0.0448   0.0347   0.0864  -0.0049   0.0103  -0.0135   0.00    0.0
2026/01/15 20:45:30.000   46.877106709    7.465032245   953.8074   6   5   0.0448   0.0347   0.0864  -0.0049   0.0103  -0.0135   0.00    0.0
2026/01/15 20:46:00.000   46.877106722    7.465032231   953.8120   6   5   0.0448   0.0347   0.0864  -0.0049   0.0103  -0.0135   0.00    0.0
2026/01/15 20:46:30.000   46.877106735    7.465032218   953.8166   6   5   0.0447   0.0347   0.0863  -0.0049   0.0103  -0.0135   0.00    0.0
2026/01/15 20:47:00.000   46.877106747    7.465032204   953.8214   6   5   0.0447   0.0347   0.0863  -0.0048   0.0103  -0.0135   0.00    0.0
2026/01/15 20:47:30.000   46.877106760    7.465032190   953.8261   6   5   0.0447   0.0347   0.0862  -0.0048   0.0103  -0.0135   0.00    0.0
2026/01/15 20:48:00.000   46.877106772    7.465032177   953.8309   6   5   0.0447   0.0347   0.0862  -0.0048   0.0103  -0.0135   0.00    0.0
2026/01/15 20:48:30.000   46.877106788    7.465032160   953.8351   6   5   0.0447   0.0347   0.0862  -0.0048   0.0103  -0.0135   0.00    0.0
2026/01/15 20:49:00.000   46.877106804    7.465032144   953.8392   6   5   0.0446   0.0346   0.0861  -0.0048   0.0103  -0.0135   0.00    0.0
2026/01/15 20:49:30.000   46.877106820    7.465032129   953.8435   6   5   0.0446   0.0346   0.0861  -0.0048   0.0102  -0.0135   0.00    0.0
2026/01/15 20:50:00.000   46.877106836    7.465032113   953.8478   6   5   0.0446   0.0346   0.0860  -0.0047   0.0102  -0.0135   0.00    0.0
2026/01/15 20:50:30.000   46.877106852    7.465032097   953.8520   6   5   0.0446   0.0346   0.0860  -0.0047   0.0102  -0.0135   0.00    0.0
2026/01/15 20:51:00.000   46.877106869    7.465032081   953.8563   6   5   0.0446   0.0346   0.0860  -0.0047   0.0102  -0.0135   0.00    0.0
2026/01/15 20:51:30.000   46.877106885    7.465032066   953.8606   6   5   0.0445   0.0346   0.0859  -0.0047   0.0102  -0.0135   0.00    0.0
2026/01/15 20:52:00.000   46.877106901    7.465032051   953.8650   6   5   0.0445   0.0346   0.0859  -0.0047   0.0102  -0.0135   0.00    0.0
2026/01/15 20:52:30.000   46.877106917    7.465032036   953.8695   6   5   0.0445   0.0346   0.0858  -0.0046   0.0102  -0.0135   0.00    0.0
2026/01/15 20:53:00.000   46.877106933    7.465032021   953.8739   6   5   0.0445   0.0346   0.0858  -0.0046   0.0102  -0.0135   0.00    0.0
2026/01/15 20:53:30.000   46.877106948    7.465032006   953.8784   6   5   0.0444   0.0346   0.0857  -0.0046   0.0102  -0.0135   0.00    0.0
2026/01/15 20:54:00.000   46.877106964    7.465031991   953.8830   6   5   0.0444   0.0345   0.0857  -0.0046   0.0102  -0.0134   0.00    0.0
2026/01/15 20:54:30.000   46.877106980    7.465031976   953.8877   6   5   0.0444   0.0345   0.0857  -0.0046   0.0101  -0.0134   0.00    0.0
2026/01/15 20:55:00.000   46.877106997    7.465031962   953.8924   6   5   0.0444   0.0345   0.0856  -0.0045   0.0101  -0.0134   0.00    0.0
2026/01/15 20:55:30.000   46.877107013    7.465031948   953.8971   6   5   0.0443   0.0345   0.0856  -0.0045   0.0101  -0.0134   0.00    0.0
2026/01/15 20:56:00.000   46.877107029    7.465031934   953.9019   6   5   0.0443   0.0345   0.0855  -0.0045   0.0101  -0.0134   0.00    0.0
2026/01/15 20:56:30.000   46.877107045    7.465031920   953.9066   6   5   0.0443   0.0345   0.0855  -0.0045   0.0101  -0.0134   0.00    0.0
2026/01/15 20:57:00.000   46.877107061    7.465031906   953.9114   6   5   0.0443   0.0345   0.0854  -0.0045   0.0101  -0.0134   0.00    0.0
2026/01/15 20:57:30.000   46.877107078    7.465031892   953.9162   6   5   0.0443   0.0345   0.0854  -0.0044   0.0101  -0.0134   0.00    0.0
2026/01/15 20:58:00.000   46.877107094    7.465031877   953.9211   6   5   0.0442   0.0345   0.0853  -0.0044   0.0101  -0.0134   0.00    0.0
2026/01/15 20:58:30.000   46.877107110    7.465031862   953.9259   6   5   0.0442   0.0345   0.0853  -0.0044   0.0101  -0.0134   0.00    0.0
2026/01/15 20:59:00.000   46.877107126    7.465031848   953.9308   6   5   0.0442   0.0344   0.0853  -0.0044   0.0101  -0.0134   0.00    0.0
2026/01/15 20:59:30.000   46.877107142    7.465031835   953.9357   6   5   0.0442   0.0344   0.0852  -0.0044   0.0101  -0.0134   0.00    0.0
2026/01/15 21:00:00.000   46.877107159    7.465031820   953.9405   6   5   0.0441   0.0344   0.0852  -0.0043   0.0101  -0.0134   0.00    0.0
2026/01/15 21:00:30.000   46.877107175    7.465031805   953.9455   6   5   0.0441   0.0344   0.0851  -0.0043   0.0100  -0.0135   0.00    0.0
2026/01/15 21:01:00.000   46.877107192    7.465031791   953.9506   6   5   0.0441   0.0344   0.0851  -0.0043   0.0100  -0.0135   0.00    0.0
2026/01/15 21:01:30.000   46.877107208    7.465031777   953.9557   6   5   0.0441   0.0344   0.0850  -0.0043   0.0100  -0.0135   0.00    0.0
2026/01/15 21:02:00.000   46.877107224    7.465031763   953.9609   6   5   0.0441   0.0344   0.0850  -0.0043   0.0100  -0.0135   0.00    0.0
2026/01/15 21:02:30.000   46.877107240    7.465031749   953.9661   6   5   0.0440   0.0344   0.0849  -0.0043   0.0100  -0.0135   0.00    0.0
2026/01/15 21:03:00.000   46.877107256    7.465031735   953.9714   6   5   0.0440   0.0344   0.0849  -0.0042   0.0100  -0.0135   0.00    0.0
2026/01/15 21:03:30.000   46.877107271    7.465031721   953.9767   6   5   0.0440   0.0344   0.0848  -0.0042   0.0100  -0.0135   0.00    0.0
2026/01/15 21:04:00.000   46.877107287    7.465031708   953.9819   6   5   0.0440   0.0343   0.0848  -0.0042   0.0100  -0.0135   0.00    0.0
2026/01/15 21:04:30.000   46.877107303    7.465031694   953.9871   6   6   0.0440   0.0343   0.0847  -0.0042   0.0100  -0.0135   0.00    0.0
2026/01/15 21:05:00.000   46.877107319    7.465031680   953.9924   6   6   0.0439   0.0343   0.0847  -0.0042   0.0100  -0.0135   0.00    0.0
2026/01/15 21:05:30.000   46.877107334    7.465031666   953.9976   6   6   0.0439   0.0343   0.0847  -0.0042   0.0100  -0.0135   0.00    0.0
2026/01/15 21:06:00.000   46.877107350    7.465031652   954.0027   6   6   0.0439   0.0343   0.0846  -0.0041   0.0100  -0.0135   0.00    0.0
2026/01/15 21:06:30.000   46.877107366    7.465031639   954.0080   6   6   0.0439   0.0343   0.0846  -0.0041   0.0100  -0.0135   0.00    0.0
2026/01/15 21:07:00.000   46.877107381    7.465031626   954.0134   6   6   0.0438   0.0343   0.0845  -0.0041   0.0100  -0.0135   0.00    0.0
2026/01/15 21:07:30.000   46.877107397    7.465031613   954.0187   6   6   0.0438   0.0343   0.0845  -0.0041   0.0099  -0.0135   0.00    0.0
2026/01/15 21:08:00.000   46.877107412    7.465031600   954.0240   6   6   0.0438   0.0343   0.0844  -0.0041   0.0099  -0.0135   0.00    0.0
2026/01/15 21:08:30.000   46.877107428    7.465031587   954.0294   6   6   0.0438   0.0343   0.0844  -0.0041   0.0099  -0.0135   0.00    0.0
2026/01/15 21:09:00.000   46.877107443    7.465031574   954.0350   6   6   0.0438   0.0342   0.0843  -0.0040   0.0099  -0.0135   0.00    0.0
2026/01/15 21:09:30.000   46.877107458    7.465031562   954.0406   6   6   0.0437   0.0342   0.0843  -0.0040   0.0099  -0.0135   0.00    0.0
2026/01/15 21:10:00.000   46.877107474    7.465031550   954.0462   6   6   0.0437   0.0342   0.0842  -0.0040   0.0099  -0.0136   0.00    0.0
2026/01/15 21:10:30.000   46.877107489    7.465031538   954.0518   6   6   0.0437   0.0342   0.0842  -0.0040   0.0099  -0.0136   0.00    0.0
2026/01/15 21:11:00.000   46.877107504    7.465031526   954.0575   6   6   0.0437   0.0342   0.0841  -0.0040   0.0099  -0.0136   0.00    0.0
2026/01/15 21:11:30.000   46.877107519    7.465031514   954.0631   6   6   0.0437   0.0342   0.0841  -0.0040   0.0099  -0.0136   0.00    0.0
2026/01/15 21:12:00.000   46.877107534    7.465031502   954.0688   6   6   0.0436   0.0342   0.0840  -0.0040   0.0099  -0.0136   0.00    0.0
2026/01/15 21:12:30.000   46.877107549    7.465031490   954.0745   6   6   0.0436   0.0342   0.0840  -0.0039   0.0099  -0.0136   0.00    0.0
2026/01/15 21:13:00.000   46.877107565    7.465031478   954.0802   6   6   0.0436   0.0342   0.0839  -0.0039   0.0099  -0.0136   0.00    0.0
2026/01/15 21:13:30.000   46.877107580    7.465031467   954.0859   6   6   0.0436   0.0342   0.0839  -0.0039   0.0099  -0.0136   0.00    0.0
2026/01/15 21:14:00.000   46.877107590    7.465031457   954.0906   6   5   0.0436   0.0342   0.0838  -0.0039   0.0099  -0.0136   0.00    0.0
2026/01/15 21:14:30.000   46.877107600    7.465031447   954.0954   6   5   0.0436   0.0341   0.0838  -0.0039   0.0098  -0.0136   0.00    0.0
2026/01/15 21:15:00.000   46.877107611    7.465031438   954.1002   6   5   0.0435   0.0341   0.0838  -0.0039   0.0098  -0.0136   0.00    0.0
2026/01/15 21:15:30.000   46.877107621    7.465031429   954.1051   6   5   0.0435   0.0341   0.0837  -0.0039   0.0098  -0.0135   0.00    0.0
2026/01/15 21:16:00.000   46.877107632    7.465031420   954.1099   6   5   0.0435   0.0341   0.0837  -0.0039   0.0098  -0.0135   0.00    0.0
2026/01/15 21:16:30.000   46.877107647    7.465031415   954.1126   6   4   0.0435   0.0341   0.0837  -0.0039   0.0098  -0.0135   0.00    0.0
2026/01/15 21:17:00.000   46.877107663    7.465031410   954.1154   6   4   0.0435   0.0341   0.0837  -0.0039   0.0097  -0.0135   0.00    0.0
2026/01/15 21:17:30.000   46.877107678    7.465031405   954.1181   6   4   0.0435   0.0341   0.0836  -0.0039   0.0097  -0.0135   0.00    0.0
2026/01/15 21:18:00.000   46.877107693    7.465031401   954.1209   6   4   0.0434   0.0341   0.0836  -0.0038   0.0097  -0.0135   0.00    0.0
2026/01/15 21:18:30.000   46.877107708    7.465031396   954.1237   6   4   0.0434   0.0341   0.0836  -0.0038   0.0096  -0.0135   0.00    0.0
2026/01/15 21:19:00.000   46.877107722    7.465031392   954.1265   6   4   0.0434   0.0341   0.0836  -0.0038   0.0096  -0.0135   0.00    0.0
2026/01/15 21:19:30.000   46.877107737    7.465031387   954.1293   6   4   0.0434   0.0341   0.0835  -0.0038   0.0096  -0.0135   0.00    0.0
2026/01/15 21:20:00.000   46.877107752    7.465031382   954.1321   6   4   0.0434   0.0340   0.0835  -0.0038   0.0095  -0.0135   0.00    0.0
2026/01/15 21:20:30.000   46.877107766    7.465031378   954.1349   6   4   0.0434   0.0340   0.0835  -0.0038   0.0095  -0.0136   0.00    0.0
2026/01/15 21:21:00.000   46.877107781    7.465031373   954.1376   6   4   0.0434   0.0340   0.0834  -0.0037   0.0095  -0.0136   0.00    0.0
2026/01/15 21:21:30.000   46.877107796    7.465031368   954.1404   6   4   0.0434   0.0340   0.0834  -0.0037   0.0095  -0.0136   0.00    0.0
2026/01/15 21:22:00.000   46.877107810    7.465031363   954.1432   6   4   0.0433   0.0340   0.0834  -0.0037   0.0094  -0.0136   0.00    0.0
2026/01/15 21:22:30.000   46.877107824    7.465031359   954.1461   6   4   0.0433   0.0340   0.0834  -0.0037   0.0094  -0.0136   0.00    0.0
2026/01/15 21:23:00.000   46.877107840    7.465031353   954.1484   6   4   0.0433   0.0340   0.0833  -0.0037   0.0094  -0.0136   0.00    0.0
2026/01/15 21:23:30.000   46.877107856    7.465031347   954.1508   6   4   0.0433   0.0340   0.0833  -0.0036   0.0093  -0.0136   0.00    0.0
2026/01/15 21:24:00.000   46.877107872    7.465031341   954.1534   6   4   0.0433   0.0340   0.0833  -0.0036   0.0093  -0.0136   0.00    0.0
2026/01/15 21:24:30.000   46.877107887    7.465031336   954.1560   6   4   0.0433   0.0340   0.0832  -0.0036   0.0092  -0.0135   0.00    0.0
2026/01/15 21:25:00.000   46.877107902    7.465031331   954.1587   6   4   0.0433   0.0340   0.0832  -0.0036   0.0092  -0.0135   0.00    0.0
2026/01/15 21:25:30.000   46.877107917    7.465031326   954.1614   6   4   0.0432   0.0340   0.0832  -0.0035   0.0091  -0.0135   0.00    0.0
2026/01/15 21:26:00.000   46.877107933    7.465031320   954.1639   6   4   0.0432   0.0339   0.0832  -0.0035   0.0091  -0.0135   0.00    0.0
2026/01/15 21:26:30.000   46.877107948    7.465031315   954.1665   6   4   0.0432   0.0339   0.0831  -0.0035   0.0091  -0.0135   0.00    0.0
2026/01/15 21:27:00.000   46.877107964    7.465031310   954.1691   6   4   0.0432   0.0339   0.0831  -0.0035   0.0090  -0.0135   0.00    0.0
2026/01/15 21:27:30.000   46.877107979    7.465031305   954.1717   6   4   0.0432   0.0339   0.0831  -0.0034   0.0090  -0.0135   0.00    0.0
2026/01/15 21:28:00.000   46.877107994    7.465031300   954.1744   6   4   0.0432   0.0339   0.0830  -0.0034   0.0089  -0.0135   0.00    0.0
2026/01/15 21:28:30.000   46.877108009    7.465031295   954.1771   6   4   0.0431   0.0339   0.0830  -0.0034   0.0089  -0.0135   0.00    0.0
2026/01/15 21:29:00.000   46.877108024    7.465031289   954.1798   6   4   0.0431   0.0339   0.0830  -0.0033   0.0088  -0.0135   0.00    0.0
2026/01/15 21:29:30.000   46.877108039    7.465031284   954.1825   6   4   0.0431   0.0339   0.0829  -0.0033   0.0088  -0.0135   0.00    0.0
2026/01/15 21:30:00.000   46.877108053    7.465031279   954.1852   6   4   0.0431   0.0339   0.0829  -0.0033   0.0088  -0.0135   0.00    0.0
2026/01/15 21:30:30.000   46.877108068    7.465031275   954.1880   6   4   0.0431   0.0339   0.0829  -0.0033   0.0087  -0.0135   0.00    0.0
2026/01/15 21:31:00.000   46.877108081    7.465031270   954.1909   6   4   0.0431   0.0339   0.0828  -0.0032   0.0087  -0.0135   0.00    0.0
2026/01/15 21:31:30.000   46.877108095    7.465031265   954.1937   6   4   0.0431   0.0338   0.0828  -0.0032   0.0086  -0.0135   0.00    0.0
2026/01/15 21:32:00.000   46.877108108    7.465031260   954.1965   6   4   0.0430   0.0338   0.0828  -0.0032   0.0086  -0.0135   0.00    0.0
2026/01/15 21:32:30.000   46.877108122    7.465031256   954.1994   6   4   0.0430   0.0338   0.0827  -0.0031   0.0085  -0.0135   0.00    0.0
2026/01/15 21:33:00.000   46.877108135    7.465031252   954.2023   6   4   0.0430   0.0338   0.0827  -0.0031   0.0085  -0.0135   0.00    0.0
2026/01/15 21:33:30.000   46.877108148    7.465031248   954.2052   6   4   0.0430   0.0338   0.0827  -0.0031   0.0085  -0.0135   0.00    0.0
2026/01/15 21:34:00.000   46.877108161    7.465031244   954.2082   6   4   0.0430   0.0338   0.0826  -0.0031   0.0084  -0.0135   0.00    0.0
2026/01/15 21:34:30.000   46.877108174    7.465031241   954.2112   6   4   0.0430   0.0338   0.0826  -0.0030   0.0084  -0.0135   0.00    0.0
2026/01/15 21:35:00.000   46.877108187    7.465031237   954.2142   6   4   0.0430   0.0338   0.0826  -0.0030   0.0083  -0.0135   0.00    0.0
2026/01/15 21:35:30.000   46.877108199    7.465031233   954.2173   6   4   0.0429   0.0338   0.0825  -0.0030   0.0083  -0.0134   0.00    0.0
2026/01/15 21:36:00.000   46.877108211    7.465031229   954.2204   6   4   0.0429   0.0338   0.0825  -0.0029   0.0082  -0.0134   0.00    0.0
2026/01/15 21:36:30.000   46.877108223    7.465031226   954.2235   6   4   0.0429   0.0338   0.0825  -0.0029   0.0082  -0.0134   0.00    0.0
2026/01/15 21:37:00.000   46.877108235    7.465031222   954.2266   6   4   0.0429   0.0337   0.0824  -0.0029   0.0081  -0.0134   0.00    0.0
2026/01/15 21:37:30.000   46.877108246    7.465031219   954.2297   6   4   0.0429   0.0337   0.0824  -0.0028   0.0081  -0.0134   0.00    0.0
2026/01/15 21:38:00.000   46.877108258    7.465031216   954.2328   6   4   0.0429   0.0337   0.0824  -0.0028   0.0081  -0.0134   0.00    0.0
2026/01/15 21:38:30.000   46.877108270    7.465031213   954.2359   6   4   0.0429   0.0337   0.0823  -0.0028   0.0080  -0.0134   0.00    0.0
2026/01/15 21:39:00.000   46.877108281    7.465031210   954.2390   6   4   0.0428   0.0337   0.0823  -0.0028   0.0080  -0.0134   0.00    0.0
2026/01/15 21:39:30.000   46.877108292    7.465031207   954.2421   6   4   0.0428   0.0337   0.0823  -0.0027   0.0079  -0.0134   0.00    0.0
2026/01/15 21:40:00.000   46.877108303    7.465031204   954.2454   6   4   0.0428   0.0337   0.0822  -0.0027   0.0079  -0.0134   0.00    0.0
2026/01/15 21:40:30.000   46.877108314    7.465031202   954.2487   6   4   0.0428   0.0337   0.0822  -0.0027   0.0078  -0.0134   0.00    0.0
2026/01/15 21:41:00.000   46.877108325    7.465031200   954.2520   6   4   0.0428   0.0337   0.0822  -0.0026   0.0078  -0.0134   0.00    0.0
2026/01/15 21:41:30.000   46.877108335    7.465031197   954.2553   6   4   0.0428   0.0337   0.0821  -0.0026   0.0077  -0.0134   0.00    0.0
2026/01/15 21:42:00.000   46.877108345    7.465031195   954.2586   6   4   0.0427   0.0337   0.0821  -0.0026   0.0077  -0.0134   0.00    0.0
2026/01/15 21:42:30.000   46.877108355    7.465031193   954.2619   6   4   0.0427   0.0336   0.0821  -0.0025   0.0076  -0.0134   0.00    0.0
2026/01/15 21:43:00.000   46.877108365    7.465031190   954.2652   6   4   0.0427   0.0336   0.0820  -0.0025   0.0076  -0.0134   0.00    0.0
2026/01/15 21:43:30.000   46.877108375    7.465031189   954.2686   6   4   0.0427   0.0336   0.0820  -0.0025   0.0076  -0.0134   0.00    0.0
2026/01/15 21:44:00.000   46.877108385    7.465031187   954.2719   6   4   0.0427   0.0336   0.0819  -0.0024   0.0075  -0.0134   0.00    0.0
2026/01/15 21:44:30.000   46.877108395    7.465031185   954.2753   6   4   0.0427   0.0336   0.0819  -0.0024   0.0075  -0.0134   0.00    0.0
2026/01/15 21:45:00.000   46.877108405    7.465031183   954.2786   6   4   0.0427   0.0336   0.0819  -0.0024   0.0074  -0.0134   0.00    0.0
2026/01/15 21:45:30.000   46.877108414    7.465031181   954.2820   6   4   0.0426   0.0336   0.0818  -0.0023   0.0074  -0.0134   0.00    0.0
2026/01/15 21:46:00.000   46.877108423    7.465031180   954.2854   6   4   0.0426   0.0336   0.0818  -0.0023   0.0073  -0.0134   0.00    0.0
2026/01/15 21:46:30.000   46.877108432    7.465031178   954.2889   6   4   0.0426   0.0336   0.0818  -0.0023   0.0073  -0.0134   0.00    0.0
2026/01/15 21:47:00.000   46.877108441    7.465031176   954.2923   6   4   0.0426   0.0336   0.0817  -0.0022   0.0072  -0.0134   0.00    0.0
2026/01/15 21:47:30.000   46.877108449    7.465031174   954.2957   6   4   0.0426   0.0336   0.0817  -0.0022   0.0072  -0.0134   0.00    0.0
2026/01/15 21:48:00.000   46.877108457    7.465031172   954.2993   6   4   0.0426   0.0336   0.0817  -0.0021   0.0071  -0.0134   0.00    0.0
2026/01/15 21:48:30.000   46.877108465    7.465031170   954.3028   6   4   0.0426   0.0335   0.0816  -0.0021   0.0071  -0.0135   0.00    0.0
2026/01/15 21:49:00.000   46.877108474    7.465031169   954.3063   6   4   0.0425   0.0335   0.0816  -0.0021   0.0070  -0.0135   0.00    0.0
2026/01/15 21:49:30.000   46.877108482    7.465031167   954.3097   6   4   0.0425   0.0335   0.0815  -0.0020   0.0070  -0.0135   0.00    0.0
2026/01/15 21:50:00.000   46.877108490    7.465031166   954.3132   6   4   0.0425   0.0335   0.0815  -0.0020   0.0070  -0.0135   0.00    0.0
2026/01/15 21:50:30.000   46.877108498    7.465031165   954.3167   6   4   0.0425   0.0335   0.0815  -0.0020   0.0069  -0.0135   0.00    0.0
2026/01/15 21:51:00.000   46.877108505    7.465031164   954.3202   6   4   0.0425   0.0335   0.0814  -0.0019   0.0069  -0.0135   0.00    0.0
2026/01/15 21:51:30.000   46.877108513    7.465031163   954.3238   6   4   0.0425   0.0335   0.0814  -0.0019   0.0068  -0.0135   0.00    0.0
2026/01/15 21:52:00.000   46.877108520    7.465031162   954.3274   6   4   0.0425   0.0335   0.0814  -0.0018   0.0068  -0.0135   0.00    0.0
2026/01/15 21:52:30.000   46.877108527    7.465031161   954.3311   6   4   0.0425   0.0335   0.0813  -0.0018   0.0067  -0.0135   0.00    0.0
2026/01/15 21:53:00.000   46.877108533    7.465031161   954.3347   6   4   0.0424   0.0335   0.0813  -0.0017   0.0067  -0.0135   0.00    0.0
2026/01/15 21:53:30.000   46.877108539    7.465031161   954.3384   6   4   0.0424   0.0335   0.0812  -0.0017   0.0066  -0.0135   0.00    0.0
2026/01/15 21:54:00.000   46.877108545    7.465031161   954.3421   6   4   0.0424   0.0334   0.0812  -0.0016   0.0066  -0.0135   0.00    0.0
2026/01/15 21:54:30.000   46.877108551    7.465031163   954.3459   6   4   0.0424   0.0334   0.0812  -0.0016   0.0065  -0.0135   0.00    0.0
2026/01/15 21:55:00.000   46.877108557    7.465031164   954.3498   6   4   0.0424   0.0334   0.0811  -0.0016   0.0065  -0.0135   0.00    0.0
2026/01/15 21:55:30.000   46.877108563    7.465031166   954.3537   6   4   0.0424   0.0334   0.0811  -0.0015   0.0065  -0.0135   0.00    0.0
2026/01/15 21:56:00.000   46.877108569    7.465031168   954.3575   6   4   0.0424   0.0334   0.0811  -0.0015   0.0064  -0.0135   0.00    0.0
2026/01/15 21:56:30.000   46.877108575    7.465031170   954.3613   6   4   0.0423   0.0334   0.0810  -0.0014   0.0064  -0.0135   0.00    0.0
2026/01/15 21:57:00.000   46.877108581    7.465031171   954.3650   6   4   0.0423   0.0334   0.0810  -0.0014   0.0064  -0.0135   0.00    0.0
2026/01/15 21:57:30.000   46.877108587    7.465031173   954.3688   6   4   0.0423   0.0334   0.0810  -0.0013   0.0064  -0.0135   0.00    0.0
2026/01/15 21:58:00.000   46.877108592    7.465031174   954.3725   6   4   0.0423   0.0334   0.0809  -0.0013   0.0063  -0.0135   0.00    0.0
2026/01/15 21:58:30.000   46.877108597    7.465031175   954.3764   6   4   0.0423   0.0334   0.0809  -0.0012   0.0063  -0.0135   0.00    0.0
2026/01/15 21:59:00.000   46.877108602    7.465031176   954.3803   6   4   0.0423   0.0334   0.0808  -0.0012   0.0063  -0.0135   0.00    0.0
2026/01/15 21:59:30.000   46.877108607    7.465031177   954.3841   6   4   0.0423   0.0334   0.0808  -0.0011   0.0062  -0.0135   0.00    0.0
2026/01/15 22:00:00.000   46.877108613    7.465031179   954.3881   6   4   0.0423   0.0334   0.0808  -0.0010   0.0062  -0.0135   0.00    0.0
2026/01/15 22:00:30.000   46.877108617    7.465031181   954.3920   6   4   0.0422   0.0334   0.0807  -0.0010   0.0062  -0.0135   0.00    0.0
2026/01/15 22:01:00.000   46.877108622    7.465031183   954.3959   6   4   0.0422   0.0333   0.0807  -0.0009   0.0062  -0.0135   0.00    0.0
2026/01/15 22:01:30.000   46.877108626    7.465031186   954.3997   6   4   0.0422   0.0333   0.0807  -0.0008   0.0061  -0.0136   0.00    0.0
2026/01/15 22:02:00.000   46.877108630    7.465031189   954.4036   6   4   0.0422   0.0333   0.0806  -0.0007   0.0061  -0.0136   0.00    0.0
2026/01/15 22:02:30.000   46.877108634    7.465031191   954.4074   6   4   0.0422   0.0333   0.0806  -0.0006   0.0061  -0.0136   0.00    0.0
2026/01/15 22:03:00.000   46.877108638    7.465031194   954.4113   6   4   0.0422   0.0333   0.0806  -0.0004   0.0060  -0.0136   0.00    0.0
2026/01/15 22:03:30.000   46.877108642    7.465031196   954.4152   6   4   0.0422   0.0333   0.0805  -0.0002   0.0060  -0.0136   0.00    0.0
2026/01/15 22:04:00.000   46.877108645    7.465031199   954.4191   6   4   0.0422   0.0333   0.0805   0.0003   0.0060  -0.0136   0.00    0.0
2026/01/15 22:04:30.000   46.877108648    7.465031202   954.4231   6   4   0.0421   0.0333   0.0804   0.0005   0.0059  -0.0136   0.00    0.0
2026/01/15 22:05:00.000   46.877108650    7.465031204   954.4271   6   5   0.0421   0.0333   0.0804   0.0006   0.0059  -0.0136   0.00    0.0
2026/01/15 22:05:30.000   46.877108652    7.465031207   954.4311   6   5   0.0421   0.0333   0.0804   0.0007   0.0059  -0.0136   0.00    0.0
2026/01/15 22:06:00.000   46.877108655    7.465031210   954.4351   6   5   0.0421   0.0333   0.0803   0.0008   0.0058  -0.0136   0.00    0.0
2026/01/15 22:06:30.000   46.877108656    7.465031213   954.4391   6   5   0.0421   0.0333   0.0803   0.0009   0.0058  -0.0136   0.00    0.0
2026/01/15 22:07:00.000   46.877108658    7.465031216   954.4430   6   5   0.0421   0.0333   0.0802   0.0009   0.0058  -0.0137   0.00    0.0
2026/01/15 22:07:30.000   46.877108659    7.465031218   954.4469   6   5   0.0421   0.0333   0.0802   0.0010   0.0057  -0.0137   0.00    0.0
2026/01/15 22:08:00.000   46.877108661    7.465031221   954.4508   6   5   0.0420   0.0332   0.0802   0.0011   0.0057  -0.0137   0.00    0.0
2026/01/15 22:08:30.000   46.877108662    7.465031224   954.4548   6   5   0.0420   0.0332   0.0801   0.0011   0.0057  -0.0137   0.00    0.0
2026/01/15 22:09:00.000   46.877108663    7.465031227   954.4587   6   5   0.0420   0.0332   0.0801   0.0012   0.0056  -0.0137   0.00    0.0
2026/01/15 22:09:30.000   46.877108664    7.465031230   954.4627   6   5   0.0420   0.0332   0.0800   0.0012   0.0056  -0.0137   0.00    0.0
2026/01/15 22:10:00.000   46.877108666    7.465031233   954.4667   6   5   0.0420   0.0332   0.0800   0.0013   0.0056  -0.0138   0.00    0.0
2026/01/15 22:10:30.000   46.877108666    7.465031237   954.4706   6   5   0.0420   0.0332   0.0799   0.0013   0.0055  -0.0138   0.00    0.0
2026/01/15 22:11:00.000   46.877108667    7.465031241   954.4746   6   5   0.0420   0.0332   0.0799   0.0014   0.0055  -0.0138   0.00    0.0
2026/01/15 22:11:30.000   46.877108667    7.465031244   954.4785   6   5   0.0419   0.0332   0.0799   0.0014   0.0055  -0.0138   0.00    0.0
2026/01/15 22:12:00.000   46.877108668    7.465031248   954.4825   6   5   0.0419   0.0332   0.0798   0.0015   0.0054  -0.0138   0.00    0.0
2026/01/15 22:12:30.000   46.877108669    7.465031252   954.4864   6   5   0.0419   0.0332   0.0798   0.0015   0.0054  -0.0138   0.00    0.0
2026/01/15 22:13:00.000   46.877108669    7.465031256   954.4904   6   5   0.0419   0.0332   0.0797   0.0015   0.0054  -0.0139   0.00    0.0
2026/01/15 22:13:30.000   46.877108670    7.465031260   954.4944   6   5   0.0419   0.0332   0.0797   0.0016   0.0053  -0.0139   0.00    0.0
2026/01/15 22:14:00.000   46.877108669    7.465031264   954.4983   6   5   0.0419   0.0332   0.0797   0.0016   0.0053  -0.0139   0.00    0.0
2026/01/15 22:14:30.000   46.877108669    7.465031268   954.5023   6   5   0.0419   0.0332   0.0796   0.0017   0.0053  -0.0139   0.00    0.0
2026/01/15 22:15:00.000   46.877108663    7.465031273   954.5046   6   4   0.0418   0.0331   0.0796   0.0017   0.0052  -0.0139   0.00    0.0
2026/01/15 22:15:30.000   46.877108655    7.465031278   954.5067   6   4   0.0418   0.0331   0.0796   0.0017   0.0052  -0.0139   0.00    0.0
2026/01/15 22:16:00.000   46.877108648    7.465031286   954.5094   6   4   0.0418   0.0331   0.0795   0.0017   0.0051  -0.0138   0.00    0.0
2026/01/15 22:16:30.000   46.877108641    7.465031294   954.5121   6   4   0.0418   0.0331   0.0795   0.0017   0.0051  -0.0138   0.00    0.0
2026/01/15 22:17:00.000   46.877108632    7.465031302   954.5147   6   4   0.0418   0.0331   0.0795   0.0018   0.0051  -0.0138   0.00    0.0
2026/01/15 22:17:30.000   46.877108624    7.465031311   954.5174   6   4   0.0418   0.0331   0.0795   0.0018   0.0051  -0.0138   0.00    0.0
2026/01/15 22:18:00.000   46.877108616    7.465031318   954.5202   6   4   0.0418   0.0331   0.0794   0.0018   0.0051  -0.0138   0.00    0.0
2026/01/15 22:18:30.000   46.877108607    7.465031326   954.5229   6   4   0.0418   0.0331   0.0794   0.0018   0.0050  -0.0138   0.00    0.0
2026/01/15 22:19:00.000   46.877108599    7.465031334   954.5256   6   4   0.0418   0.0331   0.0794   0.0018   0.0050  -0.0137   0.00    0.0
2026/01/15 22:19:30.000   46.877108591    7.465031343   954.5282   6   4   0.0418   0.0331   0.0794   0.0018   0.0050  -0.0137   0.00    0.0
2026/01/15 22:20:00.000   46.877108582    7.465031351   954.5309   6   4   0.0418   0.0331   0.0794   0.0019   0.0050  -0.0137   0.00    0.0
2026/01/15 22:20:30.000   46.877108574    7.465031359   954.5335   6   4   0.0417   0.0331   0.0793   0.0019   0.0050  -0.0137   0.00    0.0
2026/01/15 22:21:00.000   46.877108566    7.465031368   954.5361   6   4   0.0417   0.0331   0.0793   0.0019   0.0049  -0.0137   0.00    0.0
2026/01/15 22:21:30.000   46.877108560    7.465031374   954.5381   6   4   0.0417   0.0331   0.0793   0.0019   0.0049  -0.0136   0.00    0.0
2026/01/15 22:22:00.000   46.877108554    7.465031380   954.5400   6   4   0.0417   0.0331   0.0793   0.0020   0.0049  -0.0136   0.00    0.0
2026/01/15 22:22:30.000   46.877108548    7.465031386   954.5420   6   4   0.0417   0.0331   0.0792   0.0020   0.0048  -0.0136   0.00    0.0
2026/01/15 22:23:00.000   46.877108541    7.465031392   954.5440   6   4   0.0417   0.0331   0.0792   0.0021   0.0048  -0.0136   0.00    0.0
2026/01/15 22:23:30.000   46.877108535    7.465031398   954.5460   6   4   0.0417   0.0330   0.0792   0.0021   0.0047  -0.0135   0.00    0.0
2026/01/15 22:24:00.000   46.877108529    7.465031403   954.5479   6   4   0.0417   0.0330   0.0792   0.0021   0.0047  -0.0135   0.00    0.0
2026/01/15 22:24:30.000   46.877108523    7.465031409   954.5499   6   4   0.0417   0.0330   0.0791   0.0022   0.0047  -0.0135   0.00    0.0
2026/01/15 22:25:00.000   46.877108517    7.465031414   954.5517   6   4   0.0416   0.0330   0.0791   0.0022   0.0046  -0.0134   0.00    0.0
2026/01/15 22:25:30.000   46.877108511    7.465031422   954.5533   6   4   0.0416   0.0330   0.0791   0.0022   0.0046  -0.0134   0.00    0.0
2026/01/15 22:26:00.000   46.877108505    7.465031429   954.5548   6   4   0.0416   0.0330   0.0790   0.0023   0.0046  -0.0134   0.00    0.0
