% program   : RTKLIB ver.EX 2.5.0
% inp file  : C:\Users\tevin\Desktop\GNSS - MASTA\SPRING SEM\4.SAT NAV DATA PROCESSING\TEAM PROJECT\SNDP-PROJECT\Old_data\data\ZIM200CHE_R_20260150000_01D_30S_MO.rnx
% inp file  : C:\Users\tevin\Desktop\GNSS - MASTA\SPRING SEM\4.SAT NAV DATA PROCESSING\TEAM PROJECT\SNDP-PROJECT\Old_data\products\nav\BRDC00IGS_R_20260150000_01D_MN.rnx
% inp file  : C:\Users\tevin\Desktop\GNSS - MASTA\SPRING SEM\4.SAT NAV DATA PROCESSING\TEAM PROJECT\SNDP-PROJECT\Old_data\products\sp3\COD0MGXFIN_20260150000_01D_05M_ORB.SP3
% inp file  : C:\Users\tevin\Desktop\GNSS - MASTA\SPRING SEM\4.SAT NAV DATA PROCESSING\TEAM PROJECT\SNDP-PROJECT\Old_data\products\clk\COD0MGXFIN_20260150000_01D_30S_CLK.CLK
% obs start : 2026/01/15 00:00:00.0 GPST (week2401 345600.0s)
% obs end   : 2026/01/15 02:00:00.0 GPST (week2401 352800.0s)
% pos mode  : PPP Static
% freqs     : L1+L2/E5b
% solution  : Forward
% elev mask : 15.0 deg
% dynamics  : on
% tidecorr  :
% ionos opt : Iono-Free LC
% tropo opt : Saastamoinen
% ephemeris : Precise
% navi sys  : GPS Galileo BDS
% antenna1  : TRM59800.00     NONE  ( 0.0000  0.0000  0.0000)
%
% (lat/lon/height=WGS84/ellipsoidal,Q=1:fix,2:float,3:sbas,4:dgps,5:single,6:ppp,ns=# of satellites)
%  GPST                  latitude(deg) longitude(deg)  height(m)   Q  ns   sdn(m)   sde(m)   sdu(m)  sdne(m)  sdeu(m)  sdun(m) age(s)  ratio
2026/01/15 00:00:00.000   46.877097440    7.465047610   957.1818   6  11   3.2200   2.7185   6.3287  -0.4834   0.7836  -1.3176   0.00    0.0
2026/01/15 00:00:30.000   46.877097933    7.465045962   957.1278   6   9   2.2229   1.8616   4.3380   0.3549  -0.5043  -0.5276   0.00    0.0
2026/01/15 00:01:00.000   46.877096911    7.465045104   957.3077   6   8   1.8028   1.5074   3.5085   0.3481  -0.5149  -0.3003   0.00    0.0
2026/01/15 00:01:30.000   46.877096810    7.465044390   957.4017   6   8   1.5550   1.3002   3.0189   0.3194  -0.4819  -0.1963   0.00    0.0
2026/01/15 00:02:00.000   46.877096807    7.465044180   957.4528   6   8   1.3862   1.1601   2.6841   0.2928  -0.4486  -0.1446   0.00    0.0
2026/01/15 00:02:30.000   46.877096648    7.465043908   957.4988   6   8   1.2614   1.0572   2.4349   0.2702  -0.4196  -0.1230   0.00    0.0
2026/01/15 00:03:00.000   46.877096169    7.465043853   957.5537   6   8   1.1639   0.9774   2.2390   0.2511  -0.3947  -0.1191   0.00    0.0
2026/01/15 00:03:30.000   46.877095773    7.465043921   957.5707   6   8   1.0850   0.9133   2.0788   0.2348  -0.3733  -0.1244   0.00    0.0
2026/01/15 00:04:00.000   46.877095616    7.465044028   957.5815   6   8   1.0191   0.8602   1.9440   0.2207  -0.3547  -0.1332   0.00    0.0
2026/01/15 00:07:30.000   46.877095368    7.465044663   957.5035   6   8   0.7570   0.6465   1.4430   0.1334  -0.3052   0.0711   0.00    0.0
2026/01/15 00:08:00.000   46.877095299    7.465044685   957.4348   6   8   0.7258   0.6267   1.3592   0.1285  -0.2935  -0.0824   0.00    0.0
2026/01/15 00:08:30.000   46.877095253    7.465044608   957.3721   6   8   0.6981   0.6086   1.2882   0.1238  -0.2832  -0.1218   0.00    0.0
2026/01/15 00:09:00.000   46.877095181    7.465044446   957.3397   6   8   0.6731   0.5919   1.2267   0.1193  -0.2739  -0.1431   0.00    0.0
2026/01/15 00:26:00.000   46.877094894    7.465043597   957.5493   6   4   0.4262   0.3607   0.8394  -0.0176  -0.2209   0.0355   0.00    0.0
2026/01/15 00:26:30.000   46.877094896    7.465043633   957.5466   6   5   0.4225   0.3574   0.8329  -0.0227  -0.2193   0.0374   0.00    0.0
2026/01/15 00:27:00.000   46.877094927    7.465043652   957.5421   6   6   0.4188   0.3541   0.8264  -0.0266  -0.2177   0.0385   0.00    0.0
2026/01/15 00:27:30.000   46.877094959    7.465043667   957.5462   6   6   0.4152   0.3510   0.8201  -0.0298  -0.2161   0.0398   0.00    0.0
2026/01/15 00:28:00.000   46.877094936    7.465043698   957.5585   6   6   0.4117   0.3480   0.8138  -0.0327  -0.2145   0.0409   0.00    0.0
2026/01/15 00:28:30.000   46.877094954    7.465043672   957.5641   6   6   0.4083   0.3450   0.8076  -0.0351  -0.2129   0.0420   0.00    0.0
2026/01/15 00:29:00.000   46.877094960    7.465043701   957.5634   6   6   0.4049   0.3421   0.8013  -0.0373  -0.2112   0.0429   0.00    0.0
2026/01/15 00:29:30.000   46.877094977    7.465043754   957.5626   6   7   0.4016   0.3392   0.7950  -0.0392  -0.2095   0.0438   0.00    0.0
2026/01/15 00:30:00.000   46.877095024    7.465043726   957.5615   6   7   0.3983   0.3365   0.7886  -0.0410  -0.2077   0.0446   0.00    0.0
2026/01/15 00:30:30.000   46.877095015    7.465043721   957.5716   6   7   0.3950   0.3337   0.7821  -0.0425  -0.2059   0.0452   0.00    0.0
2026/01/15 00:31:00.000   46.877095010    7.465043711   957.5783   6   7   0.3917   0.3311   0.7756  -0.0440  -0.2040   0.0458   0.00    0.0
2026/01/15 00:31:30.000   46.877095026    7.465043714   957.5759   6   7   0.3885   0.3285   0.7689  -0.0452  -0.2021   0.0461   0.00    0.0
2026/01/15 00:32:00.000   46.877095024    7.465043755   957.5723   6   7   0.3853   0.3259   0.7620  -0.0464  -0.2001   0.0463   0.00    0.0
2026/01/15 00:32:30.000   46.877095008    7.465043782   957.5634   6   7   0.3821   0.3234   0.7550  -0.0474  -0.1981   0.0463   0.00    0.0
2026/01/15 00:33:00.000   46.877095014    7.465043795   957.5549   6   7   0.3789   0.3210   0.7478  -0.0484  -0.1959   0.0460   0.00    0.0
2026/01/15 00:33:30.000   46.877094978    7.465043865   957.5492   6   7   0.3756   0.3186   0.7405  -0.0492  -0.1938   0.0456   0.00    0.0
2026/01/15 00:34:00.000   46.877094978    7.465043890   957.5372   6   7   0.3724   0.3162   0.7329  -0.0499  -0.1915   0.0449   0.00    0.0
2026/01/15 00:34:30.000   46.877094966    7.465043942   957.5262   6   8   0.3692   0.3139   0.7252  -0.0506  -0.1892   0.0439   0.00    0.0
2026/01/15 00:35:00.000   46.877094948    7.465044000   957.5153   6   7   0.3660   0.3116   0.7173  -0.0512  -0.1868   0.0428   0.00    0.0
2026/01/15 00:35:30.000   46.877094971    7.465044017   957.5006   6   7   0.3628   0.3094   0.7092  -0.0517  -0.1844   0.0413   0.00    0.0
2026/01/15 00:36:00.000   46.877094987    7.465044039   957.4868   6   7   0.3595   0.3072   0.7009  -0.0521  -0.1819   0.0396   0.00    0.0
2026/01/15 00:36:30.000   46.877095005    7.465044038   957.4758   6   7   0.3563   0.3051   0.6924  -0.0525  -0.1794   0.0375   0.00    0.0
2026/01/15 00:37:00.000   46.877095034    7.465044023   957.4671   6   7   0.3530   0.3029   0.6838  -0.0528  -0.1768   0.0351   0.00    0.0
2026/01/15 00:37:30.000   46.877095053    7.465044053   957.4595   6   7   0.3497   0.3009   0.6751  -0.0530  -0.1742   0.0323   0.00    0.0
2026/01/15 00:38:00.000   46.877095107    7.465044104   957.4441   6   7   0.3464   0.2988   0.6662  -0.0532  -0.1715   0.0290   0.00    0.0
2026/01/15 00:38:30.000   46.877095169    7.465044198   957.4205   6   7   0.3431   0.2968   0.6571  -0.0534  -0.1688   0.0250   0.00    0.0
2026/01/15 00:39:00.000   46.877095216    7.465044295   957.3997   6   7   0.3398   0.2948   0.6480  -0.0535  -0.1660   0.0200   0.00    0.0
2026/01/15 00:39:30.000   46.877095255    7.465044343   957.3872   6   7   0.3365   0.2929   0.6387  -0.0536  -0.1632   0.0129   0.00    0.0
2026/01/15 00:40:00.000   46.877095251    7.465044384   957.3817   6   7   0.3331   0.2910   0.6294  -0.0536  -0.1604  -0.0084   0.00    0.0
2026/01/15 00:40:30.000   46.877095244    7.465044388   957.3765   6   7   0.3298   0.2891   0.6200  -0.0536  -0.1576  -0.0177   0.00    0.0
2026/01/15 00:41:00.000   46.877095258    7.465044358   957.3674   6   7   0.3264   0.2872   0.6106  -0.0536  -0.1548  -0.0237   0.00    0.0
2026/01/15 00:41:30.000   46.877095259    7.465044329   957.3558   6   7   0.3230   0.2854   0.6011  -0.0535  -0.1519  -0.0284   0.00    0.0
2026/01/15 00:42:00.000   46.877095274    7.465044283   957.3448   6   7   0.3197   0.2836   0.5916  -0.0534  -0.1491  -0.0324   0.00    0.0
2026/01/15 00:42:30.000   46.877095294    7.465044258   957.3339   6   7   0.3163   0.2819   0.5821  -0.0533  -0.1463  -0.0360   0.00    0.0
2026/01/15 00:43:00.000   46.877095325    7.465044262   957.3198   6   7   0.3129   0.2801   0.5726  -0.0532  -0.1434  -0.0392   0.00    0.0
2026/01/15 00:43:30.000   46.877095358    7.465044304   957.3033   6   7   0.3095   0.2784   0.5632  -0.0530  -0.1406  -0.0420   0.00    0.0
2026/01/15 00:44:00.000   46.877095379    7.465044368   957.2859   6   7   0.3061   0.2767   0.5537  -0.0529  -0.1378  -0.0447   0.00    0.0
2026/01/15 00:44:30.000   46.877095404    7.465044397   957.2698   6   7   0.3027   0.2751   0.5444  -0.0527  -0.1350  -0.0471   0.00    0.0
2026/01/15 00:45:00.000   46.877095430    7.465044412   957.2526   6   7   0.2993   0.2735   0.5351  -0.0525  -0.1323  -0.0493   0.00    0.0
2026/01/15 00:45:30.000   46.877095464    7.465044430   957.2394   6   7   0.2960   0.2719   0.5259  -0.0524  -0.1295  -0.0513   0.00    0.0
2026/01/15 00:46:00.000   46.877095490    7.465044448   957.2248   6   7   0.2926   0.2703   0.5167  -0.0522  -0.1268  -0.0532   0.00    0.0
2026/01/15 00:46:30.000   46.877095510    7.465044447   957.2100   6   7   0.2892   0.2687   0.5077  -0.0520  -0.1242  -0.0549   0.00    0.0
2026/01/15 00:47:00.000   46.877095531    7.465044419   957.1980   6   7   0.2859   0.2672   0.4987  -0.0518  -0.1215  -0.0564   0.00    0.0
2026/01/15 00:47:30.000   46.877095555    7.465044409   957.1867   6   7   0.2826   0.2657   0.4899  -0.0516  -0.1189  -0.0579   0.00    0.0
2026/01/15 00:48:00.000   46.877095586    7.465044415   957.1749   6   7   0.2792   0.2642   0.4812  -0.0513  -0.1164  -0.0592   0.00    0.0
2026/01/15 00:48:30.000   46.877095613    7.465044416   957.1603   6   7   0.2759   0.2627   0.4726  -0.0511  -0.1138  -0.0604   0.00    0.0
2026/01/15 00:49:00.000   46.877095654    7.465044416   957.1474   6   7   0.2726   0.2613   0.4642  -0.0509  -0.1114  -0.0614   0.00    0.0
2026/01/15 00:49:30.000   46.877095697    7.465044409   957.1365   6   7   0.2694   0.2599   0.4559  -0.0507  -0.1089  -0.0624   0.00    0.0
2026/01/15 00:50:00.000   46.877095730    7.465044421   957.1271   6   7   0.2661   0.2585   0.4477  -0.0505  -0.1066  -0.0633   0.00    0.0
2026/01/15 00:50:30.000   46.877095757    7.465044425   957.1173   6   7   0.2629   0.2571   0.4396  -0.0503  -0.1042  -0.0640   0.00    0.0
2026/01/15 00:51:00.000   46.877095782    7.465044431   957.1063   6   7   0.2597   0.2557   0.4318  -0.0501  -0.1019  -0.0647   0.00    0.0
2026/01/15 00:51:30.000   46.877095809    7.465044463   957.0935   6   7   0.2566   0.2544   0.4240  -0.0499  -0.0997  -0.0653   0.00    0.0
2026/01/15 01:06:30.000   46.877096324    7.465044793   957.1718   6   4   0.2372   0.2264   0.3976  -0.0602  -0.0820  -0.0635   0.00    0.0
2026/01/15 01:07:00.000   46.877096328    7.465044810   957.1732   6   4   0.2367   0.2257   0.3968  -0.0604  -0.0814  -0.0634   0.00    0.0
2026/01/15 01:07:30.000   46.877096327    7.465044826   957.1767   6   6   0.2361   0.2250   0.3959  -0.0607  -0.0808  -0.0633   0.00    0.0
2026/01/15 01:08:00.000   46.877096323    7.465044843   957.1808   6   5   0.2356   0.2242   0.3951  -0.0609  -0.0801  -0.0633   0.00    0.0
2026/01/15 01:08:30.000   46.877096317    7.465044859   957.1829   6   5   0.2351   0.2235   0.3942  -0.0611  -0.0795  -0.0632   0.00    0.0
2026/01/15 01:09:00.000   46.877096315    7.465044870   957.1832   6   6   0.2346   0.2228   0.3934  -0.0613  -0.0788  -0.0631   0.00    0.0
2026/01/15 01:09:30.000   46.877096319    7.465044871   957.1845   6   6   0.2340   0.2221   0.3925  -0.0615  -0.0782  -0.0630   0.00    0.0
2026/01/15 01:10:00.000   46.877096323    7.465044867   957.1876   6   7   0.2335   0.2214   0.3916  -0.0617  -0.0775  -0.0629   0.00    0.0
2026/01/15 01:12:30.000   46.877096374    7.465044864   957.1987   6   7   0.2312   0.2181   0.3876  -0.0631  -0.0749  -0.0613   0.00    0.0
2026/01/15 01:13:00.000   46.877096379    7.465044853   957.2000   6   7   0.2306   0.2175   0.3863  -0.0633  -0.0744  -0.0608   0.00    0.0
2026/01/15 01:13:30.000   46.877096375    7.465044827   957.2008   6   7   0.2300   0.2168   0.3850  -0.0634  -0.0738  -0.0602   0.00    0.0
2026/01/15 01:14:00.000   46.877096365    7.465044804   957.1996   6   7   0.2294   0.2162   0.3837  -0.0636  -0.0733  -0.0596   0.00    0.0
2026/01/15 01:14:30.000   46.877096367    7.465044804   957.1985   6   7   0.2288   0.2155   0.3823  -0.0637  -0.0727  -0.0591   0.00    0.0
2026/01/15 01:15:00.000   46.877096372    7.465044811   957.1958   6   7   0.2282   0.2149   0.3810  -0.0638  -0.0721  -0.0585   0.00    0.0
2026/01/15 01:15:30.000   46.877096371    7.465044813   957.1928   6   7   0.2276   0.2143   0.3796  -0.0640  -0.0715  -0.0580   0.00    0.0
2026/01/15 01:16:00.000   46.877096368    7.465044804   957.1897   6   7   0.2270   0.2137   0.3781  -0.0641  -0.0709  -0.0575   0.00    0.0
2026/01/15 01:16:30.000   46.877096364    7.465044789   957.1873   6   7   0.2263   0.2131   0.3766  -0.0641  -0.0703  -0.0572   0.00    0.0
2026/01/15 01:17:00.000   46.877096373    7.465044773   957.1860   6   7   0.2257   0.2124   0.3751  -0.0642  -0.0696  -0.0570   0.00    0.0
2026/01/15 01:17:30.000   46.877096387    7.465044762   957.1839   6   7   0.2250   0.2119   0.3735  -0.0642  -0.0688  -0.0567   0.00    0.0
2026/01/15 01:18:00.000   46.877096403    7.465044763   957.1800   6   7   0.2243   0.2113   0.3719  -0.0642  -0.0680  -0.0563   0.00    0.0
2026/01/15 01:18:30.000   46.877096417    7.465044771   957.1768   6   7   0.2236   0.2107   0.3703  -0.0642  -0.0672  -0.0560   0.00    0.0
2026/01/15 01:19:00.000   46.877096428    7.465044758   957.1731   6   7   0.2229   0.2101   0.3686  -0.0642  -0.0664  -0.0557   0.00    0.0
2026/01/15 01:19:30.000   46.877096440    7.465044733   957.1703   6   7   0.2222   0.2095   0.3669  -0.0642  -0.0655  -0.0554   0.00    0.0
2026/01/15 01:20:00.000   46.877096449    7.465044712   957.1670   6   7   0.2214   0.2089   0.3651  -0.0642  -0.0647  -0.0552   0.00    0.0
2026/01/15 01:20:30.000   46.877096460    7.465044689   957.1639   6   7   0.2207   0.2084   0.3633  -0.0641  -0.0639  -0.0550   0.00    0.0
2026/01/15 01:21:00.000   46.877096471    7.465044656   957.1599   6   7   0.2199   0.2078   0.3614  -0.0641  -0.0630  -0.0548   0.00    0.0
2026/01/15 01:21:30.000   46.877096481    7.465044616   957.1560   6   7   0.2191   0.2073   0.3594  -0.0641  -0.0622  -0.0546   0.00    0.0
2026/01/15 01:22:00.000   46.877096478    7.465044598   957.1506   6   7   0.2183   0.2067   0.3575  -0.0641  -0.0613  -0.0545   0.00    0.0
2026/01/15 01:22:30.000   46.877096470    7.465044596   957.1429   6   7   0.2175   0.2061   0.3554  -0.0641  -0.0604  -0.0543   0.00    0.0
2026/01/15 01:23:00.000   46.877096471    7.465044610   957.1344   6   7   0.2167   0.2056   0.3534  -0.0640  -0.0596  -0.0542   0.00    0.0
2026/01/15 01:23:30.000   46.877096472    7.465044617   957.1259   6   7   0.2158   0.2050   0.3513  -0.0640  -0.0587  -0.0542   0.00    0.0
2026/01/15 01:24:00.000   46.877096474    7.465044619   957.1188   6   7   0.2149   0.2045   0.3491  -0.0640  -0.0578  -0.0541   0.00    0.0
2026/01/15 01:24:30.000   46.877096476    7.465044614   957.1123   6   8   0.2141   0.2040   0.3469  -0.0639  -0.0570  -0.0543   0.00    0.0
2026/01/15 01:25:00.000   46.877096489    7.465044619   957.1079   6   7   0.2132   0.2035   0.3447  -0.0638  -0.0563  -0.0544   0.00    0.0
2026/01/15 01:25:30.000   46.877096503    7.465044602   957.1013   6   7   0.2123   0.2029   0.3425  -0.0637  -0.0555  -0.0546   0.00    0.0
2026/01/15 01:26:00.000   46.877096518    7.465044584   957.0937   6   7   0.2113   0.2024   0.3402  -0.0637  -0.0547  -0.0547   0.00    0.0
2026/01/15 01:26:30.000   46.877096529    7.465044561   957.0855   6   7   0.2104   0.2019   0.3379  -0.0636  -0.0539  -0.0549   0.00    0.0
2026/01/15 01:27:00.000   46.877096532    7.465044546   957.0793   6   7   0.2094   0.2014   0.3355  -0.0635  -0.0531  -0.0551   0.00    0.0
2026/01/15 01:27:30.000   46.877096533    7.465044517   957.0718   6   7   0.2084   0.2009   0.3331  -0.0635  -0.0523  -0.0553   0.00    0.0
2026/01/15 01:28:00.000   46.877096534    7.465044494   957.0630   6   7   0.2074   0.2004   0.3306  -0.0634  -0.0515  -0.0555   0.00    0.0
2026/01/15 01:28:30.000   46.877096536    7.465044480   957.0535   6   7   0.2064   0.1998   0.3282  -0.0633  -0.0507  -0.0557   0.00    0.0
2026/01/15 01:29:00.000   46.877096538    7.465044465   957.0424   6   7   0.2054   0.1993   0.3257  -0.0633  -0.0499  -0.0559   0.00    0.0
2026/01/15 01:29:30.000   46.877096541    7.465044459   957.0326   6   7   0.2044   0.1988   0.3231  -0.0632  -0.0491  -0.0561   0.00    0.0
2026/01/15 01:30:00.000   46.877096543    7.465044468   957.0222   6   7   0.2033   0.1983   0.3205  -0.0632  -0.0483  -0.0563   0.00    0.0
2026/01/15 01:30:30.000   46.877096540    7.465044482   957.0105   6   7   0.2022   0.1978   0.3179  -0.0631  -0.0475  -0.0565   0.00    0.0
2026/01/15 01:31:00.000   46.877096536    7.465044495   956.9983   6   7   0.2011   0.1973   0.3153  -0.0631  -0.0467  -0.0567   0.00    0.0
2026/01/15 01:31:30.000   46.877096527    7.465044513   956.9873   6   7   0.2000   0.1968   0.3127  -0.0630  -0.0459  -0.0569   0.00    0.0
2026/01/15 01:32:00.000   46.877096517    7.465044508   956.9758   6   7   0.1989   0.1963   0.3100  -0.0630  -0.0451  -0.0571   0.00    0.0
2026/01/15 01:32:30.000   46.877096511    7.465044488   956.9633   6   7   0.1977   0.1958   0.3074  -0.0630  -0.0443  -0.0572   0.00    0.0
2026/01/15 01:33:00.000   46.877096518    7.465044473   956.9562   6   6   0.1966   0.1954   0.3050  -0.0629  -0.0430  -0.0569   0.00    0.0
