% program   : RTKLIB ver.EX 2.5.0
% inp file  : C:\Users\tevin\Desktop\GNSS - MASTA\SPRING SEM\4.SAT NAV DATA PROCESSING\TEAM PROJECT\SNDP-PROJECT\Old_data\data\ZIM200CHE_R_20260150000_01D_30S_MO.rnx
% inp file  : C:\Users\tevin\Desktop\GNSS - MASTA\SPRING SEM\4.SAT NAV DATA PROCESSING\TEAM PROJECT\SNDP-PROJECT\Old_data\products\nav\BRDC00IGS_R_20260150000_01D_MN.rnx
% inp file  : C:\Users\tevin\Desktop\GNSS - MASTA\SPRING SEM\4.SAT NAV DATA PROCESSING\TEAM PROJECT\SNDP-PROJECT\Old_data\products\sp3\COD0MGXFIN_20260150000_01D_05M_ORB.SP3
% inp file  : C:\Users\tevin\Desktop\GNSS - MASTA\SPRING SEM\4.SAT NAV DATA PROCESSING\TEAM PROJECT\SNDP-PROJECT\Old_data\products\clk\COD0MGXFIN_20260150000_01D_30S_CLK.CLK
% obs start : 2026/01/15 00:00:00.0 GPST (week2401 345600.0s)
% obs end   : 2026/01/15 23:59:30.0 GPST (week2401 431970.0s)
% pos mode  : PPP Static
% freqs     : L1+L2/E5b
% solution  : Forward
% elev mask : 15.0 deg
% dynamics  : on
% tidecorr  :
% ionos opt : Iono-Free LC
% tropo opt : Saastamoinen
% ephemeris : Precise
% navi sys  : GPS
% antenna1  : TRM59800.00     NONE  ( 0.0000  0.0000  0.0000)
%
% (lat/lon/height=WGS84/ellipsoidal,Q=1:fix,2:float,3:sbas,4:dgps,5:single,6:ppp,ns=# of satellites)
%  GPST                  latitude(deg) longitude(deg)  height(m)   Q  ns   sdn(m)   sde(m)   sdu(m)  sdne(m)  sdeu(m)  sdun(m) age(s)  ratio
2026/01/15 00:00:00.000   46.877101220    7.465048713   958.1518   6  10   4.1137   3.1349   8.4366   0.2878  -1.5248   2.2836   0.00    0.0
2026/01/15 00:00:30.000   46.877100050    7.465048095   958.2000   6  10   2.9142   2.2233   5.9873   0.1765  -1.1016   1.6047   0.00    0.0
2026/01/15 00:01:00.000   46.877098623    7.465046966   958.2983   6  10   2.3735   1.8162   4.8639   0.1262  -0.9054   1.2809   0.00    0.0
2026/01/15 00:01:30.000   46.877098115    7.465046500   958.2530   6  10   2.0459   1.5724   4.1718   0.0974  -0.7850   1.0704   0.00    0.0
2026/01/15 00:02:00.000   46.877097547    7.465046410   958.1424   6  10   1.8182   1.4054   3.6827   0.0804  -0.7008   0.9119   0.00    0.0
2026/01/15 00:02:30.000   46.877096810    7.465046308   958.1021   6  10   1.6468   1.2815   3.3082   0.0712  -0.6369   0.7820   0.00    0.0
2026/01/15 00:03:00.000   46.877096173    7.465046410   958.0568   6  10   1.5108   1.1848   3.0065   0.0676  -0.5861   0.6695   0.00    0.0
2026/01/15 00:03:30.000   46.877095957    7.465046554   957.9821   6  10   1.3990   1.1065   2.7549   0.0674  -0.5441   0.5682   0.00    0.0
2026/01/15 00:04:00.000   46.877096007    7.465046638   957.8975   6  10   1.3045   1.0412   2.5400   0.0693  -0.5085   0.4741   0.00    0.0
2026/01/15 00:04:30.000   46.877095902    7.465046862   957.8310   6   9   1.2277   0.9880   2.3856  -0.0367  -0.4956   0.4308   0.00    0.0
2026/01/15 00:05:00.000   46.877095908    7.465046991   957.7719   6   9   1.1593   0.9416   2.2446  -0.0683  -0.4803   0.3814   0.00    0.0
2026/01/15 00:05:30.000   46.877095897    7.465047197   957.7256   6   9   1.0978   0.9006   2.1152  -0.0785  -0.4638   0.3272   0.00    0.0
2026/01/15 00:06:00.000   46.877095793    7.465047356   957.6861   6   9   1.0419   0.8639   1.9961  -0.0808  -0.4468   0.2681   0.00    0.0
2026/01/15 00:06:30.000   46.877095634    7.465047317   957.6373   6   9   0.9910   0.8308   1.8863  -0.0785  -0.4299   0.2014   0.00    0.0
2026/01/15 00:07:00.000   46.877095425    7.465047171   957.6061   6   9   0.9443   0.8007   1.7849  -0.0733  -0.4133   0.1155   0.00    0.0
2026/01/15 00:07:30.000   46.877095254    7.465047085   957.5788   6   9   0.9012   0.7732   1.6911  -0.0659  -0.3973  -0.0992   0.00    0.0
2026/01/15 00:08:00.000   46.877095194    7.465047057   957.5352   6   9   0.8614   0.7478   1.6044  -0.0565  -0.3820  -0.1711   0.00    0.0
2026/01/15 00:08:30.000   46.877095242    7.465046994   957.5007   6   9   0.8245   0.7243   1.5240  -0.0448  -0.3674  -0.2129   0.00    0.0
2026/01/15 00:09:00.000   46.877095276    7.465046889   957.4614   6   9   0.7902   0.7025   1.4494  -0.0290  -0.3537  -0.2415   0.00    0.0
2026/01/15 00:09:30.000   46.877095235    7.465046829   957.4463   6   8   0.7613   0.6836   1.3874   0.0204  -0.3405  -0.2798   0.00    0.0
2026/01/15 00:10:00.000   46.877095181    7.465046927   957.4197   6   8   0.7341   0.6659   1.3292   0.0375  -0.3277  -0.3065   0.00    0.0
2026/01/15 00:10:30.000   46.877095207    7.465046987   957.3789   6   8   0.7086   0.6491   1.2745   0.0467  -0.3153  -0.3257   0.00    0.0
2026/01/15 00:11:00.000   46.877095229    7.465047010   957.3417   6   8   0.6844   0.6332   1.2231   0.0525  -0.3033  -0.3394   0.00    0.0
2026/01/15 00:11:30.000   46.877095259    7.465046934   957.3027   6   8   0.6616   0.6181   1.1747   0.0564  -0.2918  -0.3491   0.00    0.0
2026/01/15 00:12:00.000   46.877095224    7.465046909   957.2670   6   8   0.6401   0.6037   1.1292   0.0590  -0.2808  -0.3555   0.00    0.0
2026/01/15 00:12:30.000   46.877095227    7.465046879   957.2344   6   8   0.6196   0.5900   1.0863   0.0606  -0.2703  -0.3595   0.00    0.0
2026/01/15 00:13:00.000   46.877095197    7.465046893   957.2034   6   8   0.6001   0.5770   1.0458   0.0614  -0.2603  -0.3615   0.00    0.0
2026/01/15 00:13:30.000   46.877095204    7.465046882   957.1748   6   8   0.5816   0.5645   1.0076   0.0617  -0.2507  -0.3620   0.00    0.0
2026/01/15 00:14:00.000   46.877095174    7.465046837   957.1505   6   8   0.5639   0.5525   0.9715   0.0616  -0.2416  -0.3611   0.00    0.0
2026/01/15 00:14:30.000   46.877095182    7.465046779   957.1289   6   8   0.5471   0.5411   0.9373   0.0611  -0.2329  -0.3592   0.00    0.0
2026/01/15 00:15:00.000   46.877095172    7.465046779   957.1099   6   8   0.5310   0.5300   0.9049   0.0604  -0.2246  -0.3565   0.00    0.0
2026/01/15 00:15:30.000   46.877095208    7.465046760   957.0857   6   8   0.5156   0.5194   0.8743   0.0595  -0.2168  -0.3530   0.00    0.0
2026/01/15 00:16:00.000   46.877095220    7.465046685   957.0615   6   8   0.5009   0.5092   0.8452   0.0584  -0.2094  -0.3491   0.00    0.0
2026/01/15 00:16:30.000   46.877095212    7.465046531   957.0452   6   8   0.4868   0.4994   0.8175   0.0572  -0.2023  -0.3447   0.00    0.0
2026/01/15 00:17:00.000   46.877095186    7.465046385   957.0315   6   8   0.4733   0.4899   0.7912   0.0559  -0.1956  -0.3399   0.00    0.0
2026/01/15 00:17:30.000   46.877095171    7.465046253   957.0150   6   8   0.4603   0.4807   0.7662   0.0546  -0.1893  -0.3349   0.00    0.0
2026/01/15 00:18:00.000   46.877095161    7.465046136   957.0016   6   8   0.4479   0.4719   0.7424   0.0532  -0.1832  -0.3297   0.00    0.0
2026/01/15 00:18:30.000   46.877095167    7.465046019   956.9907   6   8   0.4359   0.4633   0.7197   0.0519  -0.1775  -0.3243   0.00    0.0
2026/01/15 00:19:00.000   46.877095197    7.465045873   956.9740   6   8   0.4244   0.4550   0.6981   0.0505  -0.1721  -0.3188   0.00    0.0
2026/01/15 00:19:30.000   46.877095208    7.465045735   956.9587   6   8   0.4134   0.4470   0.6775   0.0492  -0.1670  -0.3132   0.00    0.0
2026/01/15 00:20:00.000   46.877095222    7.465045555   956.9484   6   8   0.4027   0.4392   0.6577   0.0479  -0.1622  -0.3076   0.00    0.0
2026/01/15 00:20:30.000   46.877095227    7.465045430   956.9322   6   8   0.3925   0.4316   0.6389   0.0466  -0.1576  -0.3020   0.00    0.0
2026/01/15 00:21:00.000   46.877095255    7.465045319   956.9171   6   8   0.3826   0.4243   0.6209   0.0454  -0.1533  -0.2964   0.00    0.0
2026/01/15 00:21:30.000   46.877095261    7.465045253   956.9055   6   8   0.3731   0.4172   0.6036   0.0442  -0.1492  -0.2909   0.00    0.0
2026/01/15 00:22:00.000   46.877095291    7.465045163   956.8933   6   8   0.3640   0.4103   0.5871   0.0431  -0.1453  -0.2854   0.00    0.0
2026/01/15 00:22:30.000   46.877095303    7.465045093   956.8811   6   8   0.3552   0.4035   0.5712   0.0421  -0.1416  -0.2799   0.00    0.0
2026/01/15 00:23:00.000   46.877095316    7.465044999   956.8742   6   8   0.3466   0.3970   0.5560   0.0411  -0.1381  -0.2745   0.00    0.0
2026/01/15 00:23:30.000   46.877095331    7.465044931   956.8649   6   8   0.3384   0.3906   0.5414   0.0401  -0.1348  -0.2692   0.00    0.0
2026/01/15 00:24:00.000   46.877095354    7.465044854   956.8551   6   8   0.3305   0.3844   0.5275   0.0393  -0.1317  -0.2640   0.00    0.0
2026/01/15 00:24:30.000   46.877095370    7.465044778   956.8466   6   8   0.3228   0.3784   0.5140   0.0384  -0.1288  -0.2588   0.00    0.0
2026/01/15 00:25:00.000   46.877095389    7.465044667   956.8400   6   8   0.3154   0.3725   0.5011   0.0377  -0.1260  -0.2538   0.00    0.0
2026/01/15 00:25:30.000   46.877095415    7.465044559   956.8321   6   8   0.3083   0.3668   0.4887   0.0370  -0.1233  -0.2488   0.00    0.0
2026/01/15 00:26:00.000   46.877095434    7.465044453   956.8251   6   8   0.3014   0.3612   0.4767   0.0363  -0.1208  -0.2439   0.00    0.0
2026/01/15 00:26:30.000   46.877095454    7.465044350   956.8169   6   8   0.2947   0.3558   0.4652   0.0357  -0.1184  -0.2392   0.00    0.0
2026/01/15 00:27:00.000   46.877095474    7.465044242   956.8072   6   8   0.2882   0.3504   0.4541   0.0352  -0.1162  -0.2345   0.00    0.0
2026/01/15 00:27:30.000   46.877095494    7.465044124   956.7994   6   8   0.2820   0.3453   0.4435   0.0347  -0.1141  -0.2300   0.00    0.0
2026/01/15 00:28:00.000   46.877095508    7.465044010   956.7946   6   8   0.2760   0.3402   0.4332   0.0342  -0.1120  -0.2255   0.00    0.0
2026/01/15 00:28:30.000   46.877095529    7.465043893   956.7892   6   8   0.2701   0.3353   0.4233   0.0338  -0.1101  -0.2212   0.00    0.0
2026/01/15 00:29:00.000   46.877095563    7.465043813   956.7816   6   8   0.2644   0.3304   0.4137   0.0335  -0.1083  -0.2169   0.00    0.0
2026/01/15 00:29:30.000   46.877095589    7.465043734   956.7756   6   8   0.2589   0.3257   0.4045   0.0331  -0.1066  -0.2127   0.00    0.0
2026/01/15 00:30:00.000   46.877095606    7.465043628   956.7698   6   8   0.2536   0.3211   0.3956   0.0328  -0.1049  -0.2087   0.00    0.0
2026/01/15 00:30:30.000   46.877095622    7.465043489   956.7650   6   8   0.2485   0.3166   0.3869   0.0326  -0.1034  -0.2047   0.00    0.0
2026/01/15 00:31:00.000   46.877095643    7.465043372   956.7609   6   8   0.2435   0.3122   0.3786   0.0323  -0.1019  -0.2009   0.00    0.0
2026/01/15 00:31:30.000   46.877095660    7.465043281   956.7569   6   8   0.2386   0.3079   0.3706   0.0321  -0.1004  -0.1971   0.00    0.0
2026/01/15 00:32:00.000   46.877095685    7.465043200   956.7511   6   8   0.2339   0.3037   0.3628   0.0319  -0.0991  -0.1934   0.00    0.0
2026/01/15 00:32:30.000   46.877095704    7.465043122   956.7470   6   8   0.2294   0.2996   0.3553   0.0317  -0.0978  -0.1898   0.00    0.0
2026/01/15 00:33:00.000   46.877095712    7.465043041   956.7441   6   8   0.2249   0.2956   0.3480   0.0316  -0.0965  -0.1863   0.00    0.0
2026/01/15 00:33:30.000   46.877095721    7.465042950   956.7417   6   8   0.2206   0.2917   0.3410   0.0314  -0.0954  -0.1829   0.00    0.0
2026/01/15 00:34:00.000   46.877095738    7.465042848   956.7375   6   8   0.2165   0.2878   0.3341   0.0313  -0.0942  -0.1795   0.00    0.0
2026/01/15 00:34:30.000   46.877095764    7.465042759   956.7328   6   8   0.2124   0.2840   0.3275   0.0312  -0.0931  -0.1763   0.00    0.0
2026/01/15 00:35:00.000   46.877095787    7.465042698   956.7290   6   8   0.2085   0.2804   0.3211   0.0311  -0.0921  -0.1731   0.00    0.0
2026/01/15 00:35:30.000   46.877095806    7.465042649   956.7245   6   8   0.2047   0.2768   0.3149   0.0310  -0.0911  -0.1700   0.00    0.0
2026/01/15 00:36:00.000   46.877095830    7.465042587   956.7198   6   8   0.2010   0.2732   0.3089   0.0309  -0.0901  -0.1670   0.00    0.0
2026/01/15 00:36:30.000   46.877095850    7.465042495   956.7153   6   8   0.1974   0.2698   0.3031   0.0308  -0.0892  -0.1640   0.00    0.0
2026/01/15 00:37:00.000   46.877095860    7.465042396   956.7122   6   8   0.1938   0.2664   0.2974   0.0307  -0.0883  -0.1612   0.00    0.0
2026/01/15 00:37:30.000   46.877095864    7.465042313   956.7090   6   8   0.1904   0.2631   0.2919   0.0307  -0.0875  -0.1584   0.00    0.0
2026/01/15 00:38:00.000   46.877095875    7.465042239   956.7050   6   8   0.1871   0.2598   0.2866   0.0306  -0.0866  -0.1556   0.00    0.0
2026/01/15 00:38:30.000   46.877095898    7.465042169   956.6991   6   8   0.1839   0.2566   0.2814   0.0305  -0.0858  -0.1529   0.00    0.0
2026/01/15 00:39:00.000   46.877095922    7.465042086   956.6930   6   8   0.1807   0.2535   0.2764   0.0305  -0.0851  -0.1503   0.00    0.0
2026/01/15 00:39:30.000   46.877095938    7.465042011   956.6877   6   8   0.1777   0.2504   0.2715   0.0304  -0.0843  -0.1478   0.00    0.0
2026/01/15 00:40:00.000   46.877095942    7.465041941   956.6841   6   8   0.1747   0.2474   0.2667   0.0303  -0.0836  -0.1453   0.00    0.0
2026/01/15 00:40:30.000   46.877095947    7.465041866   956.6810   6   8   0.1718   0.2445   0.2621   0.0302  -0.0829  -0.1429   0.00    0.0
2026/01/15 00:41:00.000   46.877095962    7.465041771   956.6772   6   8   0.1690   0.2416   0.2576   0.0302  -0.0822  -0.1405   0.00    0.0
2026/01/15 00:41:30.000   46.877095981    7.465041670   956.6724   6   8   0.1662   0.2388   0.2532   0.0301  -0.0815  -0.1382   0.00    0.0
2026/01/15 00:42:00.000   46.877095995    7.465041572   956.6678   6   8   0.1635   0.2360   0.2490   0.0300  -0.0809  -0.1359   0.00    0.0
2026/01/15 00:42:30.000   46.877096007    7.465041483   956.6633   6   8   0.1609   0.2333   0.2449   0.0300  -0.0802  -0.1337   0.00    0.0
2026/01/15 00:43:00.000   46.877096017    7.465041398   956.6590   6   8   0.1584   0.2306   0.2408   0.0299  -0.0796  -0.1316   0.00    0.0
2026/01/15 00:43:30.000   46.877096023    7.465041328   956.6550   6   8   0.1559   0.2280   0.2369   0.0298  -0.0790  -0.1295   0.00    0.0
2026/01/15 00:44:00.000   46.877096036    7.465041268   956.6505   6   8   0.1534   0.2255   0.2331   0.0297  -0.0784  -0.1274   0.00    0.0
2026/01/15 00:44:30.000   46.877096045    7.465041181   956.6462   6   8   0.1511   0.2229   0.2294   0.0297  -0.0779  -0.1254   0.00    0.0
2026/01/15 00:45:00.000   46.877096049    7.465041083   956.6419   6   8   0.1488   0.2205   0.2258   0.0296  -0.0773  -0.1235   0.00    0.0
2026/01/15 00:45:30.000   46.877096062    7.465041001   956.6375   6   8   0.1465   0.2181   0.2223   0.0295  -0.0767  -0.1215   0.00    0.0
2026/01/15 00:46:00.000   46.877096070    7.465040933   956.6339   6   8   0.1443   0.2157   0.2188   0.0294  -0.0762  -0.1197   0.00    0.0
2026/01/15 00:46:30.000   46.877096072    7.465040845   956.6310   6   8   0.1422   0.2133   0.2155   0.0293  -0.0757  -0.1178   0.00    0.0
2026/01/15 00:47:00.000   46.877096071    7.465040754   956.6285   6   8   0.1401   0.2110   0.2122   0.0292  -0.0752  -0.1160   0.00    0.0
2026/01/15 00:47:30.000   46.877096075    7.465040677   956.6260   6   8   0.1380   0.2088   0.2090   0.0291  -0.0747  -0.1143   0.00    0.0
2026/01/15 00:48:00.000   46.877096078    7.465040604   956.6227   6   8   0.1360   0.2066   0.2059   0.0290  -0.0742  -0.1126   0.00    0.0
2026/01/15 00:48:30.000   46.877096087    7.465040536   956.6195   6   8   0.1341   0.2044   0.2029   0.0289  -0.0737  -0.1109   0.00    0.0
2026/01/15 00:49:00.000   46.877096098    7.465040466   956.6162   6   8   0.1322   0.2023   0.1999   0.0288  -0.0732  -0.1093   0.00    0.0
2026/01/15 00:49:30.000   46.877096103    7.465040394   956.6132   6   8   0.1303   0.2002   0.1970   0.0287  -0.0727  -0.1077   0.00    0.0
2026/01/15 00:50:00.000   46.877096109    7.465040329   956.6106   6   8   0.1285   0.1981   0.1942   0.0286  -0.0723  -0.1061   0.00    0.0
2026/01/15 00:50:30.000   46.877096117    7.465040260   956.6080   6   8   0.1267   0.1961   0.1915   0.0285  -0.0718  -0.1046   0.00    0.0
2026/01/15 00:51:00.000   46.877096123    7.465040196   956.6052   6   8   0.1250   0.1941   0.1888   0.0283  -0.0714  -0.1031   0.00    0.0
2026/01/15 00:51:30.000   46.877096130    7.465040138   956.6023   6   8   0.1233   0.1922   0.1862   0.0282  -0.0709  -0.1016   0.00    0.0
2026/01/15 00:52:00.000   46.877096138    7.465040086   956.5993   6   8   0.1216   0.1903   0.1836   0.0281  -0.0705  -0.1001   0.00    0.0
2026/01/15 00:52:30.000   46.877096149    7.465040022   956.5966   6   8   0.1200   0.1884   0.1811   0.0280  -0.0701  -0.0987   0.00    0.0
2026/01/15 00:53:00.000   46.877096159    7.465039952   956.5940   6   8   0.1184   0.1865   0.1786   0.0278  -0.0696  -0.0974   0.00    0.0
2026/01/15 00:53:30.000   46.877096169    7.465039875   956.5910   6   8   0.1168   0.1847   0.1762   0.0277  -0.0692  -0.0960   0.00    0.0
2026/01/15 00:54:00.000   46.877096181    7.465039805   956.5880   6   8   0.1153   0.1829   0.1739   0.0276  -0.0688  -0.0947   0.00    0.0
2026/01/15 00:54:30.000   46.877096192    7.465039742   956.5857   6   8   0.1138   0.1812   0.1716   0.0274  -0.0684  -0.0934   0.00    0.0
2026/01/15 00:55:00.000   46.877096198    7.465039688   956.5839   6   8   0.1123   0.1794   0.1694   0.0273  -0.0680  -0.0921   0.00    0.0
2026/01/15 00:55:30.000   46.877096201    7.465039635   956.5822   6   8   0.1109   0.1777   0.1672   0.0272  -0.0676  -0.0909   0.00    0.0
2026/01/15 00:56:00.000   46.877096208    7.465039584   956.5803   6   8   0.1095   0.1761   0.1650   0.0270  -0.0672  -0.0897   0.00    0.0
2026/01/15 00:56:30.000   46.877096219    7.465039532   956.5781   6   8   0.1081   0.1744   0.1629   0.0269  -0.0668  -0.0885   0.00    0.0
2026/01/15 00:57:00.000   46.877096228    7.465039477   956.5759   6   8   0.1068   0.1728   0.1609   0.0267  -0.0664  -0.0873   0.00    0.0
2026/01/15 00:57:30.000   46.877096236    7.465039426   956.5734   6   8   0.1055   0.1712   0.1589   0.0266  -0.0661  -0.0861   0.00    0.0
2026/01/15 00:58:00.000   46.877096244    7.465039376   956.5709   6   8   0.1042   0.1696   0.1569   0.0264  -0.0657  -0.0850   0.00    0.0
2026/01/15 00:58:30.000   46.877096254    7.465039319   956.5688   6   8   0.1029   0.1681   0.1550   0.0263  -0.0653  -0.0839   0.00    0.0
2026/01/15 00:59:00.000   46.877096267    7.465039262   956.5662   6   8   0.1017   0.1666   0.1531   0.0261  -0.0649  -0.0828   0.00    0.0
2026/01/15 00:59:30.000   46.877096276    7.465039214   956.5637   6   8   0.1004   0.1651   0.1513   0.0260  -0.0646  -0.0818   0.00    0.0
2026/01/15 01:00:00.000   46.877096285    7.465039165   956.5615   6   8   0.0993   0.1636   0.1495   0.0258  -0.0642  -0.0807   0.00    0.0
2026/01/15 01:00:30.000   46.877096294    7.465039117   956.5594   6   8   0.0981   0.1622   0.1477   0.0257  -0.0639  -0.0797   0.00    0.0
2026/01/15 01:01:00.000   46.877096301    7.465039065   956.5574   6   8   0.0969   0.1608   0.1460   0.0255  -0.0635  -0.0787   0.00    0.0
2026/01/15 01:01:30.000   46.877096306    7.465039010   956.5551   6   8   0.0958   0.1594   0.1443   0.0253  -0.0632  -0.0777   0.00    0.0
2026/01/15 01:02:00.000   46.877096311    7.465038962   956.5530   6   8   0.0947   0.1580   0.1426   0.0252  -0.0628  -0.0768   0.00    0.0
2026/01/15 01:02:30.000   46.877096320    7.465038914   956.5509   6   8   0.0936   0.1566   0.1410   0.0250  -0.0625  -0.0758   0.00    0.0
2026/01/15 01:03:00.000   46.877096328    7.465038865   956.5485   6   8   0.0926   0.1553   0.1394   0.0249  -0.0622  -0.0749   0.00    0.0
2026/01/15 01:03:30.000   46.877096334    7.465038811   956.5464   6   8   0.0915   0.1540   0.1378   0.0247  -0.0618  -0.0740   0.00    0.0
2026/01/15 01:04:00.000   46.877096338    7.465038760   956.5443   6   8   0.0905   0.1527   0.1363   0.0245  -0.0615  -0.0731   0.00    0.0
2026/01/15 01:04:30.000   46.877096343    7.465038712   956.5428   6   8   0.0895   0.1514   0.1348   0.0244  -0.0612  -0.0722   0.00    0.0
2026/01/15 01:05:00.000   46.877096348    7.465038673   956.5412   6   8   0.0885   0.1501   0.1333   0.0242  -0.0608  -0.0713   0.00    0.0
2026/01/15 01:05:30.000   46.877096353    7.465038627   956.5390   6   8   0.0875   0.1489   0.1318   0.0240  -0.0605  -0.0705   0.00    0.0
2026/01/15 01:06:00.000   46.877096360    7.465038578   956.5367   6   8   0.0866   0.1477   0.1304   0.0239  -0.0602  -0.0696   0.00    0.0
2026/01/15 01:06:30.000   46.877096367    7.465038528   956.5339   6   8   0.0857   0.1465   0.1290   0.0237  -0.0599  -0.0688   0.00    0.0
2026/01/15 01:07:00.000   46.877096373    7.465038479   956.5315   6   8   0.0847   0.1453   0.1276   0.0235  -0.0596  -0.0680   0.00    0.0
2026/01/15 01:07:30.000   46.877096377    7.465038436   956.5291   6   8   0.0839   0.1441   0.1263   0.0233  -0.0593  -0.0672   0.00    0.0
2026/01/15 01:08:00.000   46.877096381    7.465038397   956.5269   6   8   0.0830   0.1430   0.1250   0.0232  -0.0590  -0.0664   0.00    0.0
2026/01/15 01:08:30.000   46.877096388    7.465038356   956.5245   6   8   0.0821   0.1419   0.1237   0.0230  -0.0587  -0.0657   0.00    0.0
2026/01/15 01:09:00.000   46.877096395    7.465038314   956.5222   6   8   0.0812   0.1407   0.1224   0.0228  -0.0584  -0.0649   0.00    0.0
2026/01/15 01:09:30.000   46.877096397    7.465038267   956.5198   6   8   0.0804   0.1396   0.1212   0.0226  -0.0581  -0.0642   0.00    0.0
2026/01/15 01:10:00.000   46.877096402    7.465038213   956.5167   6   8   0.0796   0.1385   0.1199   0.0225  -0.0578  -0.0635   0.00    0.0
2026/01/15 01:10:30.000   46.877096407    7.465038163   956.5161   6   7   0.0788   0.1375   0.1189   0.0223  -0.0574  -0.0627   0.00    0.0
2026/01/15 01:11:00.000   46.877096412    7.465038117   956.5153   6   7   0.0780   0.1365   0.1179   0.0221  -0.0569  -0.0620   0.00    0.0
2026/01/15 01:11:30.000   46.877096417    7.465038073   956.5139   6   7   0.0772   0.1355   0.1169   0.0219  -0.0565  -0.0613   0.00    0.0
2026/01/15 01:12:00.000   46.877096422    7.465038031   956.5130   6   7   0.0764   0.1344   0.1159   0.0218  -0.0561  -0.0607   0.00    0.0
2026/01/15 01:12:30.000   46.877096426    7.465037988   956.5122   6   8   0.0757   0.1335   0.1150   0.0216  -0.0557  -0.0600   0.00    0.0
2026/01/15 01:13:00.000   46.877096428    7.465037946   956.5108   6   8   0.0749   0.1325   0.1140   0.0214  -0.0554  -0.0593   0.00    0.0
2026/01/15 01:13:30.000   46.877096431    7.465037905   956.5096   6   8   0.0742   0.1315   0.1131   0.0213  -0.0550  -0.0587   0.00    0.0
2026/01/15 01:14:00.000   46.877096436    7.465037857   956.5087   6   8   0.0735   0.1306   0.1121   0.0211  -0.0546  -0.0580   0.00    0.0
2026/01/15 01:14:30.000   46.877096438    7.465037813   956.5072   6   8   0.0728   0.1296   0.1112   0.0209  -0.0543  -0.0574   0.00    0.0
2026/01/15 01:15:00.000   46.877096441    7.465037767   956.5061   6   8   0.0721   0.1287   0.1103   0.0208  -0.0539  -0.0568   0.00    0.0
2026/01/15 01:15:30.000   46.877096445    7.465037724   956.5049   6   8   0.0714   0.1278   0.1094   0.0206  -0.0535  -0.0562   0.00    0.0
2026/01/15 01:16:00.000   46.877096448    7.465037679   956.5032   6   8   0.0707   0.1269   0.1085   0.0204  -0.0532  -0.0556   0.00    0.0
2026/01/15 01:16:30.000   46.877096451    7.465037635   956.5019   6   9   0.0701   0.1260   0.1077   0.0203  -0.0528  -0.0550   0.00    0.0
2026/01/15 01:17:00.000   46.877096455    7.465037594   956.5004   6   9   0.0694   0.1251   0.1068   0.0201  -0.0525  -0.0544   0.00    0.0
2026/01/15 01:17:30.000   46.877096459    7.465037556   956.4998   6   8   0.0688   0.1242   0.1060   0.0199  -0.0521  -0.0537   0.00    0.0
2026/01/15 01:18:00.000   46.877096464    7.465037512   956.4992   6   8   0.0682   0.1234   0.1053   0.0198  -0.0518  -0.0531   0.00    0.0
2026/01/15 01:18:30.000   46.877096469    7.465037471   956.4984   6   8   0.0676   0.1225   0.1045   0.0196  -0.0514  -0.0525   0.00    0.0
2026/01/15 01:19:00.000   46.877096475    7.465037430   956.4976   6   8   0.0670   0.1217   0.1038   0.0195  -0.0511  -0.0519   0.00    0.0
2026/01/15 01:19:30.000   46.877096481    7.465037388   956.4967   6   8   0.0664   0.1209   0.1031   0.0193  -0.0508  -0.0513   0.00    0.0
2026/01/15 01:20:00.000   46.877096488    7.465037344   956.4957   6   8   0.0658   0.1201   0.1023   0.0192  -0.0504  -0.0507   0.00    0.0
2026/01/15 01:20:30.000   46.877096495    7.465037296   956.4946   6   8   0.0652   0.1192   0.1016   0.0190  -0.0501  -0.0501   0.00    0.0
2026/01/15 01:21:00.000   46.877096501    7.465037252   956.4937   6   8   0.0647   0.1185   0.1009   0.0188  -0.0498  -0.0495   0.00    0.0
2026/01/15 01:21:30.000   46.877096507    7.465037210   956.4927   6   8   0.0641   0.1177   0.1002   0.0187  -0.0494  -0.0490   0.00    0.0
2026/01/15 01:22:00.000   46.877096512    7.465037169   956.4916   6   8   0.0636   0.1169   0.0995   0.0185  -0.0491  -0.0484   0.00    0.0
2026/01/15 01:22:30.000   46.877096521    7.465037126   956.4906   6   8   0.0630   0.1161   0.0988   0.0183  -0.0488  -0.0479   0.00    0.0
2026/01/15 01:23:00.000   46.877096527    7.465037086   956.4895   6   8   0.0625   0.1154   0.0982   0.0182  -0.0485  -0.0473   0.00    0.0
2026/01/15 01:23:30.000   46.877096533    7.465037042   956.4884   6   8   0.0620   0.1146   0.0975   0.0180  -0.0482  -0.0468   0.00    0.0
2026/01/15 01:24:00.000   46.877096539    7.465036996   956.4873   6   8   0.0615   0.1139   0.0968   0.0178  -0.0479  -0.0463   0.00    0.0
2026/01/15 01:24:30.000   46.877096536    7.465036992   956.4879   6   7   0.0611   0.1135   0.0962   0.0168  -0.0473  -0.0459   0.00    0.0
2026/01/15 01:25:00.000   46.877096530    7.465036985   956.4880   6   7   0.0607   0.1131   0.0957   0.0157  -0.0466  -0.0455   0.00    0.0
2026/01/15 01:25:30.000   46.877096526    7.465036980   956.4881   6   7   0.0603   0.1127   0.0951   0.0146  -0.0460  -0.0452   0.00    0.0
2026/01/15 01:26:00.000   46.877096523    7.465036974   956.4884   6   7   0.0599   0.1123   0.0945   0.0134  -0.0454  -0.0448   0.00    0.0
2026/01/15 01:26:30.000   46.877096520    7.465036968   956.4886   6   7   0.0595   0.1119   0.0940   0.0121  -0.0448  -0.0445   0.00    0.0
2026/01/15 01:27:00.000   46.877096515    7.465036961   956.4887   6   7   0.0591   0.1115   0.0934   0.0107  -0.0442  -0.0441   0.00    0.0
2026/01/15 01:27:30.000   46.877096512    7.465036956   956.4890   6   7   0.0587   0.1111   0.0928   0.0091  -0.0436  -0.0438   0.00    0.0
2026/01/15 01:28:00.000   46.877096508    7.465036949   956.4893   6   7   0.0584   0.1107   0.0923   0.0072  -0.0430  -0.0435   0.00    0.0
2026/01/15 01:28:30.000   46.877096504    7.465036944   956.4894   6   7   0.0580   0.1104   0.0917   0.0046  -0.0424  -0.0431   0.00    0.0
2026/01/15 01:29:00.000   46.877096501    7.465036942   956.4896   6   7   0.0576   0.1100   0.0912  -0.0028  -0.0418  -0.0428   0.00    0.0
2026/01/15 01:29:30.000   46.877096499    7.465036946   956.4895   6   7   0.0573   0.1096   0.0907  -0.0061  -0.0412  -0.0425   0.00    0.0
2026/01/15 01:30:00.000   46.877096495    7.465036946   956.4892   6   7   0.0569   0.1093   0.0901  -0.0081  -0.0406  -0.0422   0.00    0.0
2026/01/15 01:30:30.000   46.877096493    7.465036948   956.4891   6   7   0.0566   0.1089   0.0896  -0.0096  -0.0400  -0.0419   0.00    0.0
2026/01/15 01:31:00.000   46.877096492    7.465036952   956.4890   6   7   0.0562   0.1086   0.0891  -0.0109  -0.0395  -0.0416   0.00    0.0
2026/01/15 01:31:30.000   46.877096488    7.465036952   956.4887   6   7   0.0559   0.1082   0.0885  -0.0121  -0.0389  -0.0412   0.00    0.0
2026/01/15 01:32:00.000   46.877096486    7.465036954   956.4887   6   7   0.0556   0.1079   0.0880  -0.0131  -0.0383  -0.0409   0.00    0.0
2026/01/15 01:32:30.000   46.877096483    7.465036949   956.4886   6   7   0.0552   0.1076   0.0875  -0.0141  -0.0378  -0.0406   0.00    0.0
2026/01/15 01:33:00.000   46.877096481    7.465036944   956.4886   6   7   0.0549   0.1072   0.0870  -0.0149  -0.0372  -0.0404   0.00    0.0
2026/01/15 01:33:30.000   46.877096478    7.465036939   956.4885   6   7   0.0546   0.1069   0.0865  -0.0157  -0.0366  -0.0401   0.00    0.0
2026/01/15 01:34:00.000   46.877096476    7.465036935   956.4883   6   7   0.0542   0.1066   0.0860  -0.0164  -0.0361  -0.0398   0.00    0.0
2026/01/15 01:34:30.000   46.877096473    7.465036927   956.4881   6   7   0.0539   0.1063   0.0855  -0.0171  -0.0355  -0.0395   0.00    0.0
2026/01/15 01:35:00.000   46.877096471    7.465036920   956.4879   6   7   0.0536   0.1060   0.0850  -0.0178  -0.0350  -0.0392   0.00    0.0
2026/01/15 01:35:30.000   46.877096467    7.465036908   956.4877   6   7   0.0533   0.1057   0.0845  -0.0184  -0.0344  -0.0389   0.00    0.0
2026/01/15 01:36:00.000   46.877096464    7.465036905   956.4875   6   7   0.0530   0.1054   0.0840  -0.0190  -0.0339  -0.0387   0.00    0.0
2026/01/15 01:36:30.000   46.877096461    7.465036897   956.4873   6   7   0.0527   0.1051   0.0835  -0.0196  -0.0334  -0.0384   0.00    0.0
2026/01/15 01:37:00.000   46.877096459    7.465036889   956.4872   6   7   0.0524   0.1048   0.0830  -0.0201  -0.0328  -0.0381   0.00    0.0
2026/01/15 01:37:30.000   46.877096455    7.465036882   956.4869   6   7   0.0521   0.1045   0.0825  -0.0206  -0.0323  -0.0378   0.00    0.0
2026/01/15 01:38:00.000   46.877096451    7.465036877   956.4865   6   7   0.0518   0.1042   0.0821  -0.0211  -0.0318  -0.0376   0.00    0.0
2026/01/15 01:38:30.000   46.877096449    7.465036872   956.4862   6   7   0.0515   0.1039   0.0816  -0.0216  -0.0312  -0.0373   0.00    0.0
2026/01/15 01:39:00.000   46.877096447    7.465036866   956.4860   6   7   0.0512   0.1036   0.0811  -0.0220  -0.0307  -0.0371   0.00    0.0
2026/01/15 01:39:30.000   46.877096444    7.465036859   956.4856   6   7   0.0509   0.1034   0.0807  -0.0224  -0.0302  -0.0368   0.00    0.0
2026/01/15 01:40:00.000   46.877096439    7.465036843   956.4850   6   7   0.0506   0.1031   0.0802  -0.0228  -0.0297  -0.0366   0.00    0.0
2026/01/15 01:40:30.000   46.877096437    7.465036835   956.4848   6   7   0.0504   0.1028   0.0797  -0.0232  -0.0291  -0.0363   0.00    0.0
2026/01/15 01:41:00.000   46.877096435    7.465036823   956.4848   6   7   0.0501   0.1026   0.0793  -0.0236  -0.0286  -0.0361   0.00    0.0
2026/01/15 01:41:30.000   46.877096430    7.465036805   956.4841   6   7   0.0498   0.1023   0.0788  -0.0240  -0.0281  -0.0358   0.00    0.0
2026/01/15 01:42:00.000   46.877096428    7.465036796   956.4840   6   7   0.0495   0.1020   0.0784  -0.0243  -0.0276  -0.0356   0.00    0.0
2026/01/15 01:42:30.000   46.877096423    7.465036777   956.4831   6   7   0.0493   0.1018   0.0779  -0.0247  -0.0271  -0.0354   0.00    0.0
2026/01/15 01:43:00.000   46.877096423    7.465036775   956.4833   6   7   0.0490   0.1016   0.0775  -0.0249  -0.0263  -0.0351   0.00    0.0
2026/01/15 01:43:30.000   46.877096423    7.465036775   956.4837   6   7   0.0488   0.1014   0.0771  -0.0252  -0.0256  -0.0348   0.00    0.0
2026/01/15 01:44:00.000   46.877096423    7.465036773   956.4839   6   6   0.0486   0.1012   0.0768  -0.0254  -0.0249  -0.0345   0.00    0.0
2026/01/15 01:44:30.000   46.877096423    7.465036773   956.4841   6   6   0.0483   0.1011   0.0764  -0.0256  -0.0241  -0.0342   0.00    0.0
2026/01/15 01:45:00.000   46.877096424    7.465036769   956.4845   6   6   0.0481   0.1009   0.0760  -0.0258  -0.0233  -0.0340   0.00    0.0
2026/01/15 01:45:30.000   46.877096424    7.465036769   956.4846   6   6   0.0479   0.1007   0.0756  -0.0260  -0.0225  -0.0337   0.00    0.0
2026/01/15 01:46:00.000   46.877096424    7.465036767   956.4848   6   6   0.0476   0.1005   0.0753  -0.0262  -0.0217  -0.0334   0.00    0.0
2026/01/15 01:46:30.000   46.877096424    7.465036762   956.4850   6   6   0.0474   0.1004   0.0749  -0.0264  -0.0209  -0.0332   0.00    0.0
2026/01/15 01:47:00.000   46.877096424    7.465036759   956.4852   6   6   0.0472   0.1002   0.0745  -0.0266  -0.0201  -0.0329   0.00    0.0
2026/01/15 01:47:30.000   46.877096425    7.465036755   956.4854   6   6   0.0469   0.1001   0.0742  -0.0268  -0.0192  -0.0327   0.00    0.0
2026/01/15 01:48:00.000   46.877096425    7.465036753   956.4855   6   6   0.0467   0.0999   0.0738  -0.0270  -0.0184  -0.0324   0.00    0.0
2026/01/15 01:48:30.000   46.877096425    7.465036749   956.4857   6   6   0.0465   0.0997   0.0735  -0.0272  -0.0175  -0.0322   0.00    0.0
2026/01/15 01:49:00.000   46.877096425    7.465036747   956.4858   6   6   0.0463   0.0996   0.0731  -0.0274  -0.0165  -0.0319   0.00    0.0
2026/01/15 01:49:30.000   46.877096426    7.465036746   956.4859   6   6   0.0461   0.0994   0.0728  -0.0276  -0.0155  -0.0317   0.00    0.0
2026/01/15 01:50:00.000   46.877096426    7.465036742   956.4861   6   6   0.0459   0.0993   0.0724  -0.0278  -0.0145  -0.0315   0.00    0.0
2026/01/15 01:50:30.000   46.877096426    7.465036740   956.4863   6   6   0.0456   0.0991   0.0721  -0.0280  -0.0134  -0.0312   0.00    0.0
2026/01/15 01:51:00.000   46.877096426    7.465036737   956.4863   6   6   0.0454   0.0990   0.0717  -0.0281  -0.0122  -0.0310   0.00    0.0
2026/01/15 01:51:30.000   46.877096427    7.465036733   956.4865   6   6   0.0452   0.0988   0.0714  -0.0283  -0.0110  -0.0308   0.00    0.0
2026/01/15 01:52:00.000   46.877096428    7.465036729   956.4865   6   6   0.0450   0.0987   0.0711  -0.0285  -0.0096  -0.0305   0.00    0.0
2026/01/15 01:52:30.000   46.877096428    7.465036725   956.4866   6   6   0.0448   0.0985   0.0708  -0.0287  -0.0079  -0.0303   0.00    0.0
2026/01/15 01:53:00.000   46.877096429    7.465036723   956.4867   6   6   0.0446   0.0984   0.0704  -0.0288  -0.0059  -0.0301   0.00    0.0
2026/01/15 01:53:30.000   46.877096429    7.465036719   956.4868   6   6   0.0444   0.0983   0.0701  -0.0290  -0.0027  -0.0299   0.00    0.0
2026/01/15 01:54:00.000   46.877096429    7.465036717   956.4868   6   6   0.0442   0.0981   0.0698  -0.0291   0.0044  -0.0297   0.00    0.0
2026/01/15 01:54:30.000   46.877096429    7.465036715   956.4868   6   6   0.0440   0.0980   0.0695  -0.0293   0.0068  -0.0295   0.00    0.0
2026/01/15 01:55:00.000   46.877096430    7.465036714   956.4869   6   6   0.0438   0.0978   0.0691  -0.0295   0.0085  -0.0293   0.00    0.0
2026/01/15 01:55:30.000   46.877096430    7.465036713   956.4869   6   6   0.0437   0.0977   0.0688  -0.0296   0.0099  -0.0291   0.00    0.0
2026/01/15 01:56:00.000   46.877096431    7.465036710   956.4869   6   6   0.0435   0.0976   0.0685  -0.0298   0.0111  -0.0289   0.00    0.0
2026/01/15 01:56:30.000   46.877096432    7.465036707   956.4869   6   6   0.0433   0.0974   0.0682  -0.0299   0.0122  -0.0287   0.00    0.0
2026/01/15 01:57:00.000   46.877096433    7.465036704   956.4869   6   6   0.0431   0.0973   0.0679  -0.0301   0.0131  -0.0285   0.00    0.0
2026/01/15 01:57:30.000   46.877096433    7.465036700   956.4869   6   6   0.0429   0.0972   0.0676  -0.0302   0.0140  -0.0284   0.00    0.0
2026/01/15 01:58:00.000   46.877096433    7.465036700   956.4868   6   6   0.0427   0.0970   0.0673  -0.0304   0.0148  -0.0282   0.00    0.0
2026/01/15 01:58:30.000   46.877096433    7.465036698   956.4867   6   6   0.0426   0.0969   0.0670  -0.0305   0.0156  -0.0280   0.00    0.0
2026/01/15 01:59:00.000   46.877096433    7.465036696   956.4867   6   6   0.0424   0.0968   0.0667  -0.0306   0.0163  -0.0278   0.00    0.0
2026/01/15 01:59:30.000   46.877096433    7.465036693   956.4866   6   6   0.0422   0.0967   0.0664  -0.0308   0.0170  -0.0277   0.00    0.0
2026/01/15 02:00:00.000   46.877096434    7.465036689   956.4866   6   6   0.0420   0.0965   0.0661  -0.0309   0.0176  -0.0275   0.00    0.0
2026/01/15 02:00:30.000   46.877096434    7.465036686   956.4866   6   6   0.0419   0.0964   0.0658  -0.0311   0.0182  -0.0273   0.00    0.0
2026/01/15 02:01:00.000   46.877096435    7.465036683   956.4865   6   7   0.0417   0.0963   0.0656  -0.0312   0.0188  -0.0272   0.00    0.0
2026/01/15 02:01:30.000   46.877096436    7.465036677   956.4862   6   7   0.0415   0.0961   0.0653  -0.0313   0.0193  -0.0270   0.00    0.0
2026/01/15 02:02:00.000   46.877096437    7.465036671   956.4861   6   7   0.0414   0.0960   0.0650  -0.0314   0.0198  -0.0269   0.00    0.0
2026/01/15 02:02:30.000   46.877096438    7.465036668   956.4860   6   7   0.0412   0.0959   0.0647  -0.0316   0.0203  -0.0267   0.00    0.0
2026/01/15 02:03:00.000   46.877096438    7.465036664   956.4859   6   7   0.0410   0.0958   0.0644  -0.0317   0.0208  -0.0266   0.00    0.0
2026/01/15 02:03:30.000   46.877096438    7.465036661   956.4858   6   7   0.0409   0.0956   0.0642  -0.0318   0.0212  -0.0264   0.00    0.0
2026/01/15 02:04:00.000   46.877096438    7.465036660   956.4856   6   7   0.0407   0.0955   0.0639  -0.0319   0.0217  -0.0263   0.00    0.0
2026/01/15 02:04:30.000   46.877096439    7.465036657   956.4854   6   7   0.0406   0.0954   0.0636  -0.0321   0.0221  -0.0261   0.00    0.0
2026/01/15 02:05:00.000   46.877096440    7.465036654   956.4852   6   7   0.0404   0.0952   0.0633  -0.0322   0.0225  -0.0260   0.00    0.0
2026/01/15 02:05:30.000   46.877096440    7.465036652   956.4850   6   7   0.0403   0.0951   0.0631  -0.0323   0.0229  -0.0259   0.00    0.0
2026/01/15 02:06:00.000   46.877096440    7.465036648   956.4848   6   7   0.0401   0.0950   0.0628  -0.0324   0.0232  -0.0257   0.00    0.0
2026/01/15 02:06:30.000   46.877096440    7.465036646   956.4846   6   7   0.0400   0.0949   0.0625  -0.0325   0.0236  -0.0256   0.00    0.0
2026/01/15 02:07:00.000   46.877096441    7.465036643   956.4844   6   7   0.0398   0.0947   0.0623  -0.0327   0.0239  -0.0255   0.00    0.0
2026/01/15 02:07:30.000   46.877096442    7.465036638   956.4841   6   7   0.0397   0.0946   0.0620  -0.0328   0.0243  -0.0254   0.00    0.0
2026/01/15 02:08:00.000   46.877096442    7.465036633   956.4838   6   7   0.0395   0.0945   0.0618  -0.0329   0.0246  -0.0252   0.00    0.0
2026/01/15 02:08:30.000   46.877096443    7.465036629   956.4836   6   7   0.0394   0.0943   0.0615  -0.0330   0.0249  -0.0251   0.00    0.0
2026/01/15 02:09:00.000   46.877096443    7.465036623   956.4834   6   7   0.0392   0.0942   0.0613  -0.0331   0.0252  -0.0250   0.00    0.0
2026/01/15 02:09:30.000   46.877096444    7.465036620   956.4830   6   7   0.0391   0.0941   0.0610  -0.0332   0.0255  -0.0249   0.00    0.0
2026/01/15 02:10:00.000   46.877096444    7.465036615   956.4827   6   7   0.0390   0.0940   0.0607  -0.0333   0.0258  -0.0248   0.00    0.0
2026/01/15 02:10:30.000   46.877096445    7.465036610   956.4824   6   7   0.0388   0.0938   0.0605  -0.0334   0.0261  -0.0247   0.00    0.0
2026/01/15 02:11:00.000   46.877096445    7.465036604   956.4820   6   7   0.0387   0.0937   0.0603  -0.0335   0.0263  -0.0246   0.00    0.0
2026/01/15 02:11:30.000   46.877096446    7.465036601   956.4817   6   7   0.0386   0.0936   0.0600  -0.0336   0.0266  -0.0245   0.00    0.0
2026/01/15 02:12:00.000   46.877096447    7.465036599   956.4813   6   8   0.0384   0.0935   0.0598  -0.0337   0.0268  -0.0244   0.00    0.0
2026/01/15 02:12:30.000   46.877096447    7.465036594   956.4809   6   8   0.0383   0.0933   0.0595  -0.0338   0.0271  -0.0243   0.00    0.0
2026/01/15 02:13:00.000   46.877096448    7.465036589   956.4804   6   8   0.0382   0.0932   0.0593  -0.0339   0.0273  -0.0242   0.00    0.0
2026/01/15 02:13:30.000   46.877096448    7.465036585   956.4800   6   8   0.0381   0.0931   0.0590  -0.0340   0.0275  -0.0241   0.00    0.0
2026/01/15 02:14:00.000   46.877096448    7.465036581   956.4795   6   8   0.0379   0.0929   0.0588  -0.0341   0.0278  -0.0240   0.00    0.0
2026/01/15 02:14:30.000   46.877096448    7.465036577   956.4790   6   8   0.0378   0.0928   0.0586  -0.0342   0.0280  -0.0239   0.00    0.0
2026/01/15 02:15:00.000   46.877096448    7.465036572   956.4785   6   8   0.0377   0.0927   0.0583  -0.0343   0.0282  -0.0238   0.00    0.0
2026/01/15 02:15:30.000   46.877096448    7.465036568   956.4779   6   8   0.0376   0.0926   0.0581  -0.0344   0.0284  -0.0238   0.00    0.0
2026/01/15 02:16:00.000   46.877096449    7.465036564   956.4775   6   8   0.0375   0.0924   0.0579  -0.0345   0.0286  -0.0237   0.00    0.0
2026/01/15 02:16:30.000   46.877096449    7.465036559   956.4768   6   8   0.0373   0.0923   0.0576  -0.0346   0.0288  -0.0236   0.00    0.0
2026/01/15 02:17:00.000   46.877096449    7.465036556   956.4761   6   8   0.0372   0.0922   0.0574  -0.0347   0.0289  -0.0235   0.00    0.0
2026/01/15 02:17:30.000   46.877096448    7.465036551   956.4754   6   8   0.0371   0.0920   0.0572  -0.0347   0.0291  -0.0234   0.00    0.0
2026/01/15 02:18:00.000   46.877096449    7.465036546   956.4748   6   8   0.0370   0.0919   0.0570  -0.0348   0.0293  -0.0234   0.00    0.0
2026/01/15 02:18:30.000   46.877096449    7.465036541   956.4741   6   8   0.0369   0.0918   0.0567  -0.0349   0.0295  -0.0233   0.00    0.0
2026/01/15 02:19:00.000   46.877096448    7.465036536   956.4734   6   8   0.0368   0.0916   0.0565  -0.0350   0.0296  -0.0232   0.00    0.0
2026/01/15 02:19:30.000   46.877096447    7.465036532   956.4724   6   8   0.0367   0.0915   0.0563  -0.0351   0.0298  -0.0232   0.00    0.0
2026/01/15 02:20:00.000   46.877096447    7.465036526   956.4714   6   8   0.0366   0.0914   0.0561  -0.0352   0.0299  -0.0231   0.00    0.0
2026/01/15 02:20:30.000   46.877096446    7.465036523   956.4706   6   8   0.0365   0.0912   0.0558  -0.0352   0.0301  -0.0230   0.00    0.0
2026/01/15 02:21:00.000   46.877096446    7.465036519   956.4699   6   8   0.0364   0.0911   0.0556  -0.0353   0.0302  -0.0230   0.00    0.0
2026/01/15 02:21:30.000   46.877096445    7.465036513   956.4689   6   8   0.0363   0.0910   0.0554  -0.0354   0.0303  -0.0229   0.00    0.0
2026/01/15 02:22:00.000   46.877096444    7.465036507   956.4677   6   8   0.0362   0.0908   0.0552  -0.0355   0.0305  -0.0228   0.00    0.0
2026/01/15 02:22:30.000   46.877096443    7.465036501   956.4668   6   8   0.0361   0.0907   0.0550  -0.0355   0.0306  -0.0228   0.00    0.0
2026/01/15 02:23:00.000   46.877096442    7.465036497   956.4660   6   8   0.0360   0.0906   0.0548  -0.0356   0.0307  -0.0227   0.00    0.0
2026/01/15 02:23:30.000   46.877096442    7.465036493   956.4650   6   8   0.0359   0.0904   0.0546  -0.0357   0.0308  -0.0227   0.00    0.0
2026/01/15 02:24:00.000   46.877096441    7.465036487   956.4638   6   8   0.0358   0.0903   0.0543  -0.0358   0.0309  -0.0226   0.00    0.0
2026/01/15 02:24:30.000   46.877096440    7.465036481   956.4627   6   8   0.0357   0.0901   0.0541  -0.0358   0.0310  -0.0226   0.00    0.0
2026/01/15 02:25:00.000   46.877096439    7.465036477   956.4617   6   8   0.0356   0.0900   0.0539  -0.0359   0.0312  -0.0225   0.00    0.0
2026/01/15 02:25:30.000   46.877096438    7.465036470   956.4606   6   8   0.0355   0.0899   0.0537  -0.0360   0.0313  -0.0225   0.00    0.0
2026/01/15 02:26:00.000   46.877096439    7.465036465   956.4605   6   7   0.0354   0.0897   0.0536  -0.0360   0.0314  -0.0224   0.00    0.0
2026/01/15 02:26:30.000   46.877096440    7.465036459   956.4604   6   7   0.0353   0.0896   0.0535  -0.0361   0.0315  -0.0223   0.00    0.0
2026/01/15 02:27:00.000   46.877096441    7.465036453   956.4603   6   7   0.0352   0.0894   0.0534  -0.0361   0.0316  -0.0222   0.00    0.0
2026/01/15 02:27:30.000   46.877096442    7.465036450   956.4602   6   7   0.0352   0.0893   0.0533  -0.0362   0.0318  -0.0221   0.00    0.0
2026/01/15 02:28:00.000   46.877096443    7.465036445   956.4600   6   7   0.0351   0.0891   0.0532  -0.0363   0.0319  -0.0220   0.00    0.0
2026/01/15 02:28:30.000   46.877096444    7.465036441   956.4599   6   7   0.0350   0.0890   0.0531  -0.0363   0.0320  -0.0219   0.00    0.0
2026/01/15 02:29:00.000   46.877096445    7.465036435   956.4598   6   7   0.0349   0.0889   0.0530  -0.0364   0.0321  -0.0218   0.00    0.0
2026/01/15 02:29:30.000   46.877096446    7.465036431   956.4597   6   7   0.0348   0.0887   0.0529  -0.0364   0.0322  -0.0218   0.00    0.0
2026/01/15 02:30:00.000   46.877096447    7.465036427   956.4596   6   7   0.0348   0.0886   0.0528  -0.0365   0.0323  -0.0217   0.00    0.0
2026/01/15 02:30:30.000   46.877096448    7.465036422   956.4595   6   7   0.0347   0.0884   0.0527  -0.0365   0.0325  -0.0216   0.00    0.0
2026/01/15 02:31:00.000   46.877096449    7.465036417   956.4595   6   7   0.0346   0.0883   0.0526  -0.0365   0.0326  -0.0215   0.00    0.0
2026/01/15 02:31:30.000   46.877096449    7.465036414   956.4593   6   7   0.0345   0.0881   0.0525  -0.0366   0.0327  -0.0215   0.00    0.0
2026/01/15 02:32:00.000   46.877096450    7.465036411   956.4593   6   7   0.0345   0.0880   0.0524  -0.0366   0.0328  -0.0214   0.00    0.0
2026/01/15 02:32:30.000   46.877096451    7.465036407   956.4592   6   7   0.0344   0.0878   0.0523  -0.0367   0.0329  -0.0213   0.00    0.0
2026/01/15 02:33:00.000   46.877096452    7.465036403   956.4591   6   7   0.0343   0.0877   0.0522  -0.0367   0.0330  -0.0212   0.00    0.0
2026/01/15 02:33:30.000   46.877096453    7.465036401   956.4590   6   7   0.0342   0.0875   0.0521  -0.0367   0.0331  -0.0212   0.00    0.0
2026/01/15 02:34:00.000   46.877096453    7.465036400   956.4590   6   7   0.0342   0.0874   0.0520  -0.0368   0.0332  -0.0211   0.00    0.0
2026/01/15 02:34:30.000   46.877096454    7.465036398   956.4589   6   7   0.0341   0.0872   0.0519  -0.0368   0.0333  -0.0211   0.00    0.0
2026/01/15 02:35:00.000   46.877096455    7.465036394   956.4588   6   7   0.0340   0.0871   0.0518  -0.0368   0.0334  -0.0210   0.00    0.0
2026/01/15 02:35:30.000   46.877096456    7.465036390   956.4587   6   7   0.0340   0.0869   0.0517  -0.0369   0.0335  -0.0209   0.00    0.0
2026/01/15 02:36:00.000   46.877096457    7.465036388   956.4585   6   7   0.0339   0.0868   0.0516  -0.0369   0.0336  -0.0209   0.00    0.0
2026/01/15 02:36:30.000   46.877096458    7.465036385   956.4584   6   7   0.0338   0.0866   0.0515  -0.0369   0.0337  -0.0208   0.00    0.0
2026/01/15 02:37:00.000   46.877096459    7.465036380   956.4584   6   7   0.0337   0.0865   0.0514  -0.0370   0.0338  -0.0208   0.00    0.0
2026/01/15 02:37:30.000   46.877096460    7.465036376   956.4583   6   7   0.0337   0.0863   0.0513  -0.0370   0.0339  -0.0207   0.00    0.0
2026/01/15 02:38:00.000   46.877096461    7.465036372   956.4581   6   7   0.0336   0.0862   0.0512  -0.0370   0.0339  -0.0207   0.00    0.0
2026/01/15 02:38:30.000   46.877096462    7.465036367   956.4580   6   7   0.0335   0.0860   0.0511  -0.0370   0.0340  -0.0206   0.00    0.0
2026/01/15 02:39:00.000   46.877096463    7.465036364   956.4579   6   7   0.0335   0.0859   0.0510  -0.0371   0.0341  -0.0206   0.00    0.0
2026/01/15 02:39:30.000   46.877096464    7.465036359   956.4577   6   7   0.0334   0.0857   0.0509  -0.0371   0.0342  -0.0205   0.00    0.0
2026/01/15 02:40:00.000   46.877096465    7.465036354   956.4575   6   7   0.0333   0.0856   0.0508  -0.0371   0.0343  -0.0205   0.00    0.0
2026/01/15 02:40:30.000   46.877096466    7.465036349   956.4574   6   7   0.0333   0.0854   0.0507  -0.0371   0.0344  -0.0205   0.00    0.0
2026/01/15 02:41:00.000   46.877096467    7.465036346   956.4572   6   7   0.0332   0.0852   0.0506  -0.0371   0.0344  -0.0204   0.00    0.0
2026/01/15 02:41:30.000   46.877096468    7.465036342   956.4571   6   7   0.0331   0.0851   0.0505  -0.0372   0.0345  -0.0204   0.00    0.0
2026/01/15 02:42:00.000   46.877096469    7.465036339   956.4569   6   7   0.0331   0.0849   0.0504  -0.0372   0.0346  -0.0204   0.00    0.0
2026/01/15 02:42:30.000   46.877096470    7.465036335   956.4567   6   7   0.0330   0.0848   0.0503  -0.0372   0.0347  -0.0203   0.00    0.0
2026/01/15 02:43:00.000   46.877096471    7.465036331   956.4565   6   7   0.0330   0.0846   0.0502  -0.0372   0.0347  -0.0203   0.00    0.0
2026/01/15 02:43:30.000   46.877096472    7.465036326   956.4563   6   7   0.0329   0.0845   0.0501  -0.0372   0.0348  -0.0203   0.00    0.0
2026/01/15 02:44:00.000   46.877096473    7.465036322   956.4561   6   7   0.0328   0.0843   0.0500  -0.0372   0.0349  -0.0202   0.00    0.0
2026/01/15 02:44:30.000   46.877096474    7.465036318   956.4560   6   7   0.0328   0.0841   0.0498  -0.0372   0.0349  -0.0202   0.00    0.0
2026/01/15 02:45:00.000   46.877096475    7.465036313   956.4557   6   7   0.0327   0.0840   0.0497  -0.0372   0.0350  -0.0202   0.00    0.0
2026/01/15 02:45:30.000   46.877096477    7.465036307   956.4554   6   7   0.0326   0.0838   0.0496  -0.0372   0.0351  -0.0201   0.00    0.0
2026/01/15 02:46:00.000   46.877096478    7.465036304   956.4553   6   7   0.0326   0.0836   0.0495  -0.0372   0.0351  -0.0201   0.00    0.0
2026/01/15 02:46:30.000   46.877096479    7.465036299   956.4550   6   7   0.0325   0.0835   0.0494  -0.0372   0.0352  -0.0201   0.00    0.0
2026/01/15 02:47:00.000   46.877096480    7.465036294   956.4548   6   7   0.0325   0.0833   0.0493  -0.0372   0.0353  -0.0201   0.00    0.0
2026/01/15 02:47:30.000   46.877096481    7.465036291   956.4547   6   7   0.0324   0.0832   0.0492  -0.0372   0.0353  -0.0201   0.00    0.0
2026/01/15 02:48:00.000   46.877096482    7.465036288   956.4545   6   7   0.0323   0.0830   0.0491  -0.0372   0.0354  -0.0200   0.00    0.0
2026/01/15 02:48:30.000   46.877096483    7.465036283   956.4542   6   7   0.0323   0.0828   0.0490  -0.0372   0.0354  -0.0200   0.00    0.0
2026/01/15 02:49:00.000   46.877096485    7.465036278   956.4539   6   7   0.0322   0.0827   0.0489  -0.0372   0.0355  -0.0200   0.00    0.0
2026/01/15 02:49:30.000   46.877096486    7.465036272   956.4536   6   7   0.0322   0.0825   0.0488  -0.0372   0.0355  -0.0200   0.00    0.0
2026/01/15 02:50:00.000   46.877096487    7.465036267   956.4534   6   7   0.0321   0.0823   0.0487  -0.0372   0.0356  -0.0200   0.00    0.0
2026/01/15 02:50:30.000   46.877096488    7.465036264   956.4531   6   7   0.0320   0.0822   0.0486  -0.0372   0.0356  -0.0200   0.00    0.0
2026/01/15 02:51:00.000   46.877096489    7.465036257   956.4529   6   7   0.0320   0.0820   0.0485  -0.0372   0.0357  -0.0199   0.00    0.0
2026/01/15 02:51:30.000   46.877096491    7.465036250   956.4526   6   7   0.0319   0.0818   0.0484  -0.0372   0.0357  -0.0199   0.00    0.0
2026/01/15 02:52:00.000   46.877096492    7.465036243   956.4522   6   7   0.0319   0.0817   0.0483  -0.0372   0.0357  -0.0199   0.00    0.0
2026/01/15 02:52:30.000   46.877096494    7.465036237   956.4520   6   7   0.0318   0.0815   0.0482  -0.0372   0.0358  -0.0199   0.00    0.0
2026/01/15 02:53:00.000   46.877096495    7.465036231   956.4517   6   7   0.0318   0.0813   0.0481  -0.0372   0.0358  -0.0199   0.00    0.0
2026/01/15 02:53:30.000   46.877096496    7.465036226   956.4514   6   7   0.0317   0.0811   0.0480  -0.0372   0.0359  -0.0199   0.00    0.0
2026/01/15 02:54:00.000   46.877096497    7.465036221   956.4511   6   7   0.0316   0.0810   0.0479  -0.0372   0.0359  -0.0199   0.00    0.0
2026/01/15 02:54:30.000   46.877096498    7.465036215   956.4508   6   7   0.0316   0.0808   0.0478  -0.0371   0.0359  -0.0199   0.00    0.0
2026/01/15 02:55:00.000   46.877096500    7.465036210   956.4506   6   7   0.0315   0.0806   0.0477  -0.0371   0.0360  -0.0199   0.00    0.0
2026/01/15 02:55:30.000   46.877096501    7.465036207   956.4502   6   7   0.0315   0.0805   0.0476  -0.0371   0.0360  -0.0199   0.00    0.0
2026/01/15 02:56:00.000   46.877096502    7.465036202   956.4499   6   7   0.0314   0.0803   0.0475  -0.0371   0.0360  -0.0198   0.00    0.0
2026/01/15 02:56:30.000   46.877096503    7.465036196   956.4496   6   7   0.0314   0.0801   0.0474  -0.0371   0.0361  -0.0198   0.00    0.0
2026/01/15 02:57:00.000   46.877096504    7.465036188   956.4492   6   7   0.0313   0.0799   0.0472  -0.0371   0.0361  -0.0198   0.00    0.0
2026/01/15 02:57:30.000   46.877096506    7.465036182   956.4488   6   7   0.0312   0.0798   0.0471  -0.0370   0.0361  -0.0198   0.00    0.0
2026/01/15 02:58:00.000   46.877096507    7.465036175   956.4485   6   7   0.0312   0.0796   0.0470  -0.0370   0.0361  -0.0198   0.00    0.0
2026/01/15 02:58:30.000   46.877096509    7.465036167   956.4481   6   7   0.0311   0.0794   0.0469  -0.0370   0.0361  -0.0198   0.00    0.0
2026/01/15 02:59:00.000   46.877096510    7.465036158   956.4477   6   7   0.0311   0.0793   0.0468  -0.0370   0.0362  -0.0198   0.00    0.0
2026/01/15 02:59:30.000   46.877096511    7.465036151   956.4473   6   7   0.0310   0.0791   0.0467  -0.0370   0.0362  -0.0198   0.00    0.0
2026/01/15 03:00:00.000   46.877096513    7.465036143   956.4469   6   7   0.0310   0.0789   0.0466  -0.0369   0.0362  -0.0198   0.00    0.0
2026/01/15 03:00:30.000   46.877096514    7.465036138   956.4466   6   7   0.0309   0.0787   0.0465  -0.0369   0.0362  -0.0198   0.00    0.0
2026/01/15 03:01:00.000   46.877096515    7.465036133   956.4462   6   7   0.0309   0.0786   0.0464  -0.0369   0.0362  -0.0198   0.00    0.0
2026/01/15 03:01:30.000   46.877096516    7.465036128   956.4458   6   7   0.0308   0.0784   0.0463  -0.0369   0.0362  -0.0198   0.00    0.0
2026/01/15 03:02:00.000   46.877096517    7.465036122   956.4454   6   7   0.0307   0.0782   0.0462  -0.0368   0.0362  -0.0198   0.00    0.0
2026/01/15 03:02:30.000   46.877096518    7.465036115   956.4451   6   7   0.0307   0.0780   0.0461  -0.0368   0.0363  -0.0198   0.00    0.0
2026/01/15 03:03:00.000   46.877096519    7.465036110   956.4447   6   7   0.0306   0.0778   0.0460  -0.0368   0.0363  -0.0198   0.00    0.0
2026/01/15 03:03:30.000   46.877096521    7.465036104   956.4443   6   7   0.0306   0.0777   0.0458  -0.0367   0.0363  -0.0198   0.00    0.0
2026/01/15 03:04:00.000   46.877096522    7.465036098   956.4440   6   7   0.0305   0.0775   0.0457  -0.0367   0.0363  -0.0198   0.00    0.0
2026/01/15 03:04:30.000   46.877096523    7.465036094   956.4436   6   7   0.0305   0.0773   0.0456  -0.0367   0.0363  -0.0198   0.00    0.0
2026/01/15 03:05:00.000   46.877096524    7.465036088   956.4432   6   7   0.0304   0.0771   0.0455  -0.0366   0.0363  -0.0198   0.00    0.0
2026/01/15 03:05:30.000   46.877096525    7.465036083   956.4429   6   7   0.0304   0.0769   0.0454  -0.0366   0.0363  -0.0198   0.00    0.0
2026/01/15 03:06:00.000   46.877096527    7.465036078   956.4425   6   7   0.0303   0.0768   0.0453  -0.0366   0.0363  -0.0198   0.00    0.0
2026/01/15 03:06:30.000   46.877096528    7.465036073   956.4420   6   7   0.0302   0.0766   0.0452  -0.0365   0.0363  -0.0198   0.00    0.0
2026/01/15 03:07:00.000   46.877096529    7.465036068   956.4416   6   7   0.0302   0.0764   0.0451  -0.0365   0.0363  -0.0198   0.00    0.0
2026/01/15 03:07:30.000   46.877096531    7.465036062   956.4412   6   7   0.0301   0.0762   0.0450  -0.0365   0.0363  -0.0198   0.00    0.0
2026/01/15 03:08:00.000   46.877096532    7.465036058   956.4408   6   7   0.0301   0.0760   0.0449  -0.0364   0.0362  -0.0198   0.00    0.0
2026/01/15 03:08:30.000   46.877096533    7.465036055   956.4403   6   7   0.0300   0.0759   0.0448  -0.0364   0.0362  -0.0198   0.00    0.0
2026/01/15 03:09:00.000   46.877096534    7.465036051   956.4399   6   7   0.0300   0.0757   0.0446  -0.0363   0.0362  -0.0198   0.00    0.0
2026/01/15 03:09:30.000   46.877096536    7.465036048   956.4395   6   7   0.0299   0.0755   0.0445  -0.0363   0.0362  -0.0198   0.00    0.0
2026/01/15 03:10:00.000   46.877096537    7.465036046   956.4390   6   7   0.0299   0.0753   0.0444  -0.0363   0.0362  -0.0198   0.00    0.0
2026/01/15 03:10:30.000   46.877096538    7.465036044   956.4386   6   7   0.0298   0.0751   0.0443  -0.0362   0.0362  -0.0198   0.00    0.0
2026/01/15 03:11:00.000   46.877096538    7.465036043   956.4382   6   7   0.0297   0.0749   0.0442  -0.0362   0.0362  -0.0198   0.00    0.0
2026/01/15 03:11:30.000   46.877096540    7.465036039   956.4378   6   7   0.0297   0.0748   0.0441  -0.0361   0.0361  -0.0198   0.00    0.0
2026/01/15 03:12:00.000   46.877096541    7.465036035   956.4373   6   7   0.0296   0.0746   0.0440  -0.0361   0.0361  -0.0198   0.00    0.0
2026/01/15 03:12:30.000   46.877096543    7.465036032   956.4369   6   7   0.0296   0.0744   0.0439  -0.0360   0.0361  -0.0198   0.00    0.0
2026/01/15 03:13:00.000   46.877096544    7.465036029   956.4364   6   7   0.0295   0.0742   0.0438  -0.0360   0.0361  -0.0198   0.00    0.0
2026/01/15 03:13:30.000   46.877096545    7.465036024   956.4359   6   7   0.0295   0.0740   0.0436  -0.0359   0.0361  -0.0198   0.00    0.0
2026/01/15 03:14:00.000   46.877096547    7.465036019   956.4354   6   7   0.0294   0.0738   0.0435  -0.0359   0.0360  -0.0198   0.00    0.0
2026/01/15 03:14:30.000   46.877096548    7.465036016   956.4350   6   7   0.0294   0.0736   0.0434  -0.0358   0.0360  -0.0198   0.00    0.0
2026/01/15 03:15:00.000   46.877096549    7.465036014   956.4345   6   7   0.0293   0.0735   0.0433  -0.0358   0.0360  -0.0198   0.00    0.0
2026/01/15 03:15:30.000   46.877096550    7.465036011   956.4340   6   8   0.0292   0.0733   0.0432  -0.0357   0.0359  -0.0198   0.00    0.0
2026/01/15 03:16:00.000   46.877096551    7.465036009   956.4336   6   8   0.0292   0.0731   0.0431  -0.0357   0.0359  -0.0198   0.00    0.0
2026/01/15 03:16:30.000   46.877096552    7.465036006   956.4331   6   8   0.0291   0.0729   0.0430  -0.0356   0.0359  -0.0198   0.00    0.0
2026/01/15 03:17:00.000   46.877096554    7.465036004   956.4325   6   8   0.0291   0.0727   0.0429  -0.0356   0.0358  -0.0198   0.00    0.0
2026/01/15 03:17:30.000   46.877096555    7.465036002   956.4320   6   8   0.0290   0.0725   0.0427  -0.0355   0.0358  -0.0198   0.00    0.0
2026/01/15 03:18:00.000   46.877096556    7.465035999   956.4315   6   8   0.0290   0.0723   0.0426  -0.0355   0.0358  -0.0198   0.00    0.0
2026/01/15 03:18:30.000   46.877096557    7.465035995   956.4309   6   8   0.0289   0.0721   0.0425  -0.0354   0.0357  -0.0198   0.00    0.0
2026/01/15 03:19:00.000   46.877096559    7.465035991   956.4303   6   8   0.0289   0.0719   0.0424  -0.0354   0.0357  -0.0198   0.00    0.0
2026/01/15 03:19:30.000   46.877096560    7.465035989   956.4297   6   8   0.0288   0.0717   0.0423  -0.0353   0.0356  -0.0198   0.00    0.0
2026/01/15 03:20:00.000   46.877096561    7.465035986   956.4292   6   8   0.0287   0.0716   0.0422  -0.0353   0.0356  -0.0197   0.00    0.0
2026/01/15 03:20:30.000   46.877096562    7.465035982   956.4287   6   8   0.0287   0.0714   0.0421  -0.0352   0.0356  -0.0197   0.00    0.0
2026/01/15 03:21:00.000   46.877096563    7.465035979   956.4281   6   8   0.0286   0.0712   0.0419  -0.0351   0.0355  -0.0197   0.00    0.0
2026/01/15 03:21:30.000   46.877096565    7.465035976   956.4274   6   8   0.0286   0.0710   0.0418  -0.0351   0.0355  -0.0197   0.00    0.0
2026/01/15 03:22:00.000   46.877096566    7.465035972   956.4267   6   8   0.0285   0.0708   0.0417  -0.0350   0.0354  -0.0197   0.00    0.0
2026/01/15 03:22:30.000   46.877096568    7.465035968   956.4261   6   8   0.0285   0.0706   0.0416  -0.0350   0.0354  -0.0197   0.00    0.0
2026/01/15 03:23:00.000   46.877096569    7.465035965   956.4255   6   8   0.0284   0.0704   0.0415  -0.0349   0.0353  -0.0197   0.00    0.0
2026/01/15 03:23:30.000   46.877096571    7.465035960   956.4249   6   8   0.0283   0.0702   0.0414  -0.0348   0.0353  -0.0197   0.00    0.0
2026/01/15 03:24:00.000   46.877096572    7.465035956   956.4243   6   8   0.0283   0.0700   0.0413  -0.0348   0.0352  -0.0197   0.00    0.0
2026/01/15 03:24:30.000   46.877096574    7.465035952   956.4236   6   8   0.0282   0.0698   0.0412  -0.0347   0.0352  -0.0197   0.00    0.0
2026/01/15 03:25:00.000   46.877096575    7.465035947   956.4230   6   8   0.0282   0.0696   0.0410  -0.0346   0.0351  -0.0197   0.00    0.0
2026/01/15 03:25:30.000   46.877096577    7.465035942   956.4223   6   8   0.0281   0.0694   0.0409  -0.0346   0.0350  -0.0196   0.00    0.0
2026/01/15 03:26:00.000   46.877096579    7.465035936   956.4215   6   8   0.0281   0.0692   0.0408  -0.0345   0.0350  -0.0196   0.00    0.0
2026/01/15 03:26:30.000   46.877096581    7.465035930   956.4207   6   8   0.0280   0.0690   0.0407  -0.0344   0.0349  -0.0196   0.00    0.0
2026/01/15 03:27:00.000   46.877096582    7.465035926   956.4200   6   8   0.0279   0.0689   0.0406  -0.0344   0.0349  -0.0196   0.00    0.0
