% program   : RTKLIB ver.EX 2.5.0
% inp file  : C:\PPP_PROJECT\RTKLIB_work\runs\HKWS_4C_20260508_102907\HKWS00HKG_R_20260150000_01D_30S_MO.rnx
% inp file  : C:\PPP_PROJECT\RTKLIB_work\runs\HKWS_4C_20260508_102907\BRDC00IGS_R_20260150000_01D_MN.rnx
% inp file  : C:\PPP_PROJECT\RTKLIB_work\runs\HKWS_4C_20260508_102907
% inp file  : C:\PPP_PROJECT\RTKLIB_work\runs\HKWS_4C_20260508_102907
% inp file  : C:\PPP_PROJECT\RTKLIB_work\runs\HKWS_4C_20260508_102907
% inp file  : C:\PPP_PROJECT\RTKLIB_work\runs\HKWS_4C_20260508_102907\COD0OPSFIN_20260150000_01D_01H_GIM.INX
% obs start : 2026/01/15 00:00:00.0 GPST (week2401 345600.0s)
% obs end   : 2026/01/15 23:59:30.0 GPST (week2401 431970.0s)
% pos mode  : PPP Static
% freqs     : L1
% solution  : Forward
% elev mask : 15.0 deg
% dynamics  : on
% tidecorr  :
% ionos opt : IONEX TEC
% tropo opt : Saastamoinen
% ephemeris : Broadcast
% navi sys  : GPS
% antenna1  :                       ( 0.0000  0.0000  0.0000)
%
% (lat/lon/height=WGS84/ellipsoidal,Q=1:fix,2:float,3:sbas,4:dgps,5:single,6:ppp,ns=# of satellites)
%  GPST                  latitude(deg) longitude(deg)  height(m)   Q  ns   sdn(m)   sde(m)   sdu(m)  sdne(m)  sdeu(m)  sdun(m) age(s)  ratio
2026/01/15 00:00:30.000   22.434298486  114.335361286    57.7767   6   4   1.4984   1.8068   4.2971  -0.9415   1.6617  -1.2620   0.00    0.0
2026/01/15 00:01:00.000   22.434298313  114.335361774    57.8031   6   4   1.2234   1.4765   3.5088  -0.7694   1.3590  -1.0297   0.00    0.0
2026/01/15 00:01:30.000   22.434298310  114.335362117    57.8123   6   4   1.0593   1.2795   3.0374  -0.6667   1.1781  -0.8906   0.00    0.0
2026/01/15 00:02:00.000   22.434298379  114.335362415    57.7705   6   4   0.9472   1.1451   2.7150  -0.5965   1.0546  -0.7953   0.00    0.0
2026/01/15 00:02:30.000   22.434298381  114.335362662    57.7104   6   4   0.8645   1.0459   2.4767  -0.5447   0.9633  -0.7248   0.00    0.0
2026/01/15 00:03:00.000   22.434298364  114.335362855    57.6806   6   4   0.8002   0.9688   2.2912  -0.5044   0.8924  -0.6699   0.00    0.0
2026/01/15 00:03:30.000   22.434298372  114.335363026    57.6740   6   4   0.7483   0.9067   2.1414  -0.4720   0.8352  -0.6256   0.00    0.0
2026/01/15 00:04:00.000   22.434298388  114.335363106    57.6996   6   4   0.7054   0.8552   2.0173  -0.4451   0.7879  -0.5888   0.00    0.0
2026/01/15 00:04:30.000   22.434298381  114.335363097    57.7371   6   4   0.6690   0.8117   1.9121  -0.4223   0.7478  -0.5576   0.00    0.0
2026/01/15 00:05:00.000   22.434298357  114.335363079    57.7669   6   4   0.6378   0.7743   1.8215  -0.4028   0.7133  -0.5308   0.00    0.0
2026/01/15 00:05:30.000   22.434298369  114.335363076    57.7773   6   4   0.6105   0.7417   1.7424  -0.3857   0.6833  -0.5073   0.00    0.0
2026/01/15 00:06:00.000   22.434298386  114.335363044    57.7864   6   4   0.5865   0.7130   1.6726  -0.3707   0.6568  -0.4866   0.00    0.0
2026/01/15 00:06:30.000   22.434298392  114.335363006    57.7969   6   4   0.5650   0.6874   1.6103  -0.3573   0.6332  -0.4681   0.00    0.0
2026/01/15 00:07:00.000   22.434298341  114.335363025    57.8217   6   4   0.5458   0.6644   1.5543  -0.3452   0.6120  -0.4514   0.00    0.0
2026/01/15 00:07:30.000   22.434298253  114.335363101    57.8611   6   4   0.5284   0.6437   1.5036  -0.3343   0.5928  -0.4364   0.00    0.0
2026/01/15 00:08:00.000   22.434298147  114.335363197    57.9077   6   4   0.5125   0.6248   1.4574  -0.3244   0.5754  -0.4227   0.00    0.0
2026/01/15 00:08:30.000   22.434298043  114.335363277    57.9512   6   4   0.4980   0.6075   1.4150  -0.3153   0.5594  -0.4101   0.00    0.0
2026/01/15 00:09:00.000   22.434297943  114.335363360    57.9879   6   4   0.4847   0.5916   1.3760  -0.3070   0.5447  -0.3985   0.00    0.0
2026/01/15 00:09:30.000   22.434297868  114.335363415    58.0159   6   4   0.4723   0.5769   1.3400  -0.2993   0.5312  -0.3878   0.00    0.0
2026/01/15 00:10:00.000   22.434297818  114.335363442    58.0478   6   4   0.4609   0.5633   1.3065  -0.2921   0.5186  -0.3779   0.00    0.0
2026/01/15 00:10:30.000   22.434297804  114.335363439    58.0745   6   4   0.4503   0.5506   1.2753  -0.2855   0.5069  -0.3687   0.00    0.0
2026/01/15 00:11:00.000   22.434297825  114.335363387    58.0891   6   4   0.4403   0.5388   1.2461  -0.2793   0.4960  -0.3600   0.00    0.0
2026/01/15 00:11:30.000   22.434297860  114.335363339    58.1030   6   4   0.4310   0.5277   1.2188  -0.2735   0.4858  -0.3519   0.00    0.0
2026/01/15 00:12:00.000   22.434297900  114.335363337    58.1218   6   4   0.4223   0.5173   1.1931  -0.2680   0.4762  -0.3443   0.00    0.0
2026/01/15 00:12:30.000   22.434297937  114.335363374    58.1441   6   4   0.4141   0.5076   1.1688  -0.2628   0.4671  -0.3372   0.00    0.0
2026/01/15 00:13:00.000   22.434297995  114.335363397    58.1568   6   4   0.4063   0.4983   1.1460  -0.2580   0.4586  -0.3304   0.00    0.0
2026/01/15 00:13:30.000   22.434298076  114.335363399    58.1599   6   4   0.3990   0.4896   1.1243  -0.2534   0.4506  -0.3240   0.00    0.0
2026/01/15 00:14:00.000   22.434298137  114.335363382    58.1620   6   4   0.3921   0.4814   1.1038  -0.2491   0.4429  -0.3180   0.00    0.0
2026/01/15 00:14:30.000   22.434298174  114.335363369    58.1656   6   4   0.3855   0.4735   1.0843  -0.2449   0.4357  -0.3122   0.00    0.0
2026/01/15 00:15:00.000   22.434298191  114.335363342    58.1705   6   4   0.3792   0.4661   1.0657  -0.2410   0.4288  -0.3068   0.00    0.0
2026/01/15 00:15:30.000   22.434298227  114.335363279    58.1661   6   4   0.3732   0.4590   1.0480  -0.2373   0.4223  -0.3016   0.00    0.0
2026/01/15 00:16:00.000   22.434298278  114.335363221    58.1592   6   4   0.3676   0.4523   1.0311  -0.2337   0.4160  -0.2966   0.00    0.0
2026/01/15 00:16:30.000   22.434298322  114.335363207    58.1611   6   4   0.3621   0.4458   1.0150  -0.2303   0.4101  -0.2919   0.00    0.0
2026/01/15 00:17:00.000   22.434298347  114.335363238    58.1612   6   4   0.3569   0.4396   0.9995  -0.2270   0.4044  -0.2874   0.00    0.0
2026/01/15 00:17:30.000   22.434298376  114.335363280    58.1594   6   4   0.3520   0.4337   0.9847  -0.2239   0.3989  -0.2831   0.00    0.0
2026/01/15 00:18:00.000   22.434298424  114.335363315    58.1555   6   4   0.3472   0.4281   0.9705  -0.2209   0.3937  -0.2789   0.00    0.0
2026/01/15 00:18:30.000   22.434298466  114.335363380    58.1540   6   4   0.3426   0.4227   0.9568  -0.2181   0.3887  -0.2750   0.00    0.0
2026/01/15 00:19:00.000   22.434298483  114.335363472    58.1596   6   4   0.3382   0.4175   0.9437  -0.2153   0.3839  -0.2712   0.00    0.0
2026/01/15 00:19:30.000   22.434298481  114.335363568    58.1725   6   4   0.3340   0.4125   0.9311  -0.2127   0.3793  -0.2675   0.00    0.0
2026/01/15 00:20:00.000   22.434298479  114.335363653    58.1949   6   4   0.3300   0.4076   0.9189  -0.2101   0.3748  -0.2640   0.00    0.0
2026/01/15 00:20:30.000   22.434298486  114.335363713    58.2213   6   4   0.3261   0.4030   0.9072  -0.2077   0.3705  -0.2606   0.00    0.0
2026/01/15 00:21:00.000   22.434298499  114.335363767    58.2436   6   4   0.3223   0.3985   0.8959  -0.2053   0.3664  -0.2574   0.00    0.0
2026/01/15 00:21:30.000   22.434298496  114.335363829    58.2573   6   4   0.3187   0.3942   0.8850  -0.2030   0.3624  -0.2542   0.00    0.0
2026/01/15 00:22:00.000   22.434298487  114.335363880    58.2630   6   4   0.3152   0.3900   0.8744  -0.2008   0.3586  -0.2512   0.00    0.0
2026/01/15 00:22:30.000   22.434298491  114.335363922    58.2644   6   4   0.3118   0.3860   0.8642  -0.1987   0.3549  -0.2483   0.00    0.0
2026/01/15 00:23:00.000   22.434298512  114.335363970    58.2675   6   4   0.3085   0.3821   0.8543  -0.1966   0.3513  -0.2455   0.00    0.0
2026/01/15 00:23:30.000   22.434298523  114.335364037    58.2750   6   4   0.3053   0.3784   0.8448  -0.1946   0.3478  -0.2428   0.00    0.0
2026/01/15 00:24:00.000   22.434298534  114.335364101    58.2831   6   4   0.3023   0.3747   0.8355  -0.1927   0.3445  -0.2402   0.00    0.0
2026/01/15 00:24:30.000   22.434298697  114.335364166    58.2184   6   4   0.2997   0.3712   0.8286  -0.1908   0.3412  -0.2395   0.00    0.0
2026/01/15 00:25:00.000   22.434298849  114.335364214    58.1538   6   4   0.2972   0.3677   0.8219  -0.1890   0.3380  -0.2389   0.00    0.0
2026/01/15 00:25:30.000   22.434298723  114.335364717    58.2091   6   4   0.2938   0.3626   0.8107  -0.1848   0.3302  -0.2338   0.00    0.0
2026/01/15 00:26:00.000   22.434298617  114.335365202    58.2658   6   4   0.2905   0.3577   0.7999  -0.1809   0.3227  -0.2289   0.00    0.0
2026/01/15 00:26:30.000   22.434298517  114.335365662    58.3222   6   4   0.2873   0.3530   0.7896  -0.1771   0.3156  -0.2243   0.00    0.0
2026/01/15 00:27:00.000   22.434298429  114.335366103    58.3754   6   4   0.2843   0.3484   0.7797  -0.1735   0.3089  -0.2199   0.00    0.0
2026/01/15 00:27:30.000   22.434298333  114.335366538    58.4257   6   4   0.2813   0.3441   0.7701  -0.1701   0.3024  -0.2158   0.00    0.0
2026/01/15 00:28:00.000   22.434298248  114.335366968    58.4703   6   4   0.2785   0.3399   0.7609  -0.1668   0.2962  -0.2118   0.00    0.0
2026/01/15 00:28:30.000   22.434298187  114.335367365    58.5077   6   4   0.2757   0.3359   0.7521  -0.1636   0.2904  -0.2080   0.00    0.0
2026/01/15 00:29:00.000   22.434298136  114.335367744    58.5436   6   4   0.2730   0.3321   0.7436  -0.1606   0.2847  -0.2043   0.00    0.0
2026/01/15 00:29:30.000   22.434298085  114.335368109    58.5755   6   4   0.2704   0.3284   0.7353  -0.1577   0.2793  -0.2008   0.00    0.0
2026/01/15 00:30:00.000   22.434298027  114.335368459    58.6027   6   4   0.2679   0.3248   0.7273  -0.1549   0.2741  -0.1975   0.00    0.0
2026/01/15 00:30:30.000   22.434297967  114.335368797    58.6276   6   4   0.2655   0.3213   0.7196  -0.1522   0.2692  -0.1942   0.00    0.0
2026/01/15 00:31:00.000   22.434297918  114.335369104    58.6460   6   4   0.2631   0.3180   0.7122  -0.1496   0.2644  -0.1912   0.00    0.0
2026/01/15 00:31:30.000   22.434297876  114.335369394    58.6637   6   4   0.2609   0.3147   0.7050  -0.1471   0.2598  -0.1882   0.00    0.0
2026/01/15 00:32:00.000   22.434297836  114.335369669    58.6795   6   4   0.2586   0.3116   0.6980  -0.1447   0.2554  -0.1853   0.00    0.0
2026/01/15 00:32:30.000   22.434297793  114.335369940    58.6931   6   4   0.2565   0.3086   0.6912  -0.1424   0.2512  -0.1826   0.00    0.0
2026/01/15 00:33:00.000   22.434297732  114.335370220    58.7121   6   4   0.2543   0.3056   0.6846  -0.1401   0.2471  -0.1799   0.00    0.0
2026/01/15 00:33:30.000   22.434297662  114.335370510    58.7368   6   4   0.2523   0.3028   0.6782  -0.1380   0.2432  -0.1774   0.00    0.0
2026/01/15 00:34:00.000   22.434297599  114.335370782    58.7632   6   4   0.2503   0.3000   0.6720  -0.1359   0.2394  -0.1749   0.00    0.0
2026/01/15 00:34:30.000   22.434297542  114.335371042    58.7911   6   4   0.2484   0.2973   0.6659  -0.1338   0.2358  -0.1725   0.00    0.0
2026/01/15 00:35:00.000   22.434297486  114.335371301    58.8217   6   4   0.2465   0.2947   0.6601  -0.1319   0.2323  -0.1702   0.00    0.0
2026/01/15 00:35:30.000   22.434297438  114.335371564    58.8522   6   4   0.2446   0.2921   0.6543  -0.1300   0.2289  -0.1680   0.00    0.0
2026/01/15 00:36:00.000   22.434297394  114.335371825    58.8842   6   4   0.2428   0.2896   0.6488  -0.1281   0.2256  -0.1658   0.00    0.0
2026/01/15 00:36:30.000   22.434297355  114.335372075    58.9135   6   4   0.2410   0.2872   0.6433  -0.1263   0.2225  -0.1637   0.00    0.0
2026/01/15 00:37:00.000   22.434297315  114.335372318    58.9398   6   4   0.2393   0.2849   0.6380  -0.1246   0.2194  -0.1617   0.00    0.0
2026/01/15 00:37:30.000   22.434297284  114.335372549    58.9622   6   4   0.2376   0.2826   0.6329  -0.1229   0.2164  -0.1597   0.00    0.0
2026/01/15 00:38:00.000   22.434297256  114.335372758    58.9790   6   4   0.2360   0.2803   0.6278  -0.1213   0.2136  -0.1578   0.00    0.0
2026/01/15 00:38:30.000   22.434297231  114.335372956    58.9930   6   4   0.2344   0.2782   0.6229  -0.1197   0.2108  -0.1559   0.00    0.0
2026/01/15 00:39:00.000   22.434297216  114.335373138    59.0071   6   4   0.2328   0.2760   0.6181  -0.1181   0.2081  -0.1541   0.00    0.0
2026/01/15 00:39:30.000   22.434297205  114.335373323    59.0188   6   4   0.2313   0.2739   0.6134  -0.1166   0.2055  -0.1524   0.00    0.0
2026/01/15 00:40:00.000   22.434297196  114.335373506    59.0285   6   4   0.2298   0.2719   0.6089  -0.1151   0.2030  -0.1507   0.00    0.0
2026/01/15 00:40:30.000   22.434297184  114.335373689    59.0386   6   4   0.2284   0.2699   0.6044  -0.1137   0.2006  -0.1490   0.00    0.0
2026/01/15 00:41:00.000   22.434297161  114.335373874    59.0504   6   4   0.2269   0.2680   0.6000  -0.1123   0.1982  -0.1474   0.00    0.0
2026/01/15 00:41:30.000   22.434297131  114.335374061    59.0625   6   4   0.2255   0.2661   0.5958  -0.1110   0.1960  -0.1458   0.00    0.0
2026/01/15 00:42:00.000   22.434297089  114.335374260    59.0757   6   4   0.2241   0.2642   0.5916  -0.1097   0.1938  -0.1443   0.00    0.0
2026/01/15 00:42:30.000   22.434297043  114.335374474    59.0913   6   4   0.2228   0.2624   0.5875  -0.1084   0.1916  -0.1428   0.00    0.0
2026/01/15 00:43:00.000   22.434297003  114.335374694    59.1069   6   4   0.2215   0.2606   0.5835  -0.1071   0.1895  -0.1413   0.00    0.0
2026/01/15 00:43:30.000   22.434296969  114.335374909    59.1230   6   4   0.2202   0.2589   0.5796  -0.1059   0.1875  -0.1399   0.00    0.0
2026/01/15 00:44:00.000   22.434296938  114.335375112    59.1395   6   4   0.2189   0.2572   0.5757  -0.1047   0.1855  -0.1385   0.00    0.0
2026/01/15 00:44:30.000   22.434296909  114.335375300    59.1559   6   4   0.2177   0.2555   0.5720  -0.1036   0.1836  -0.1372   0.00    0.0
2026/01/15 00:45:00.000   22.434296882  114.335375475    59.1712   6   4   0.2165   0.2538   0.5683  -0.1024   0.1818  -0.1358   0.00    0.0
2026/01/15 00:45:30.000   22.434296863  114.335375636    59.1836   6   4   0.2153   0.2522   0.5647  -0.1013   0.1800  -0.1345   0.00    0.0
2026/01/15 00:46:00.000   22.434296843  114.335375782    59.1935   6   4   0.2141   0.2506   0.5612  -0.1002   0.1783  -0.1333   0.00    0.0
2026/01/15 00:46:30.000   22.434296823  114.335375924    59.2026   6   4   0.2130   0.2491   0.5577  -0.0992   0.1766  -0.1320   0.00    0.0
2026/01/15 00:47:00.000   22.434296810  114.335376052    59.2102   6   4   0.2119   0.2476   0.5543  -0.0981   0.1749  -0.1308   0.00    0.0
2026/01/15 00:47:30.000   22.434296807  114.335376170    59.2178   6   4   0.2108   0.2461   0.5510  -0.0971   0.1733  -0.1296   0.00    0.0
2026/01/15 00:48:00.000   22.434296811  114.335376287    59.2259   6   4   0.2097   0.2446   0.5477  -0.0961   0.1718  -0.1284   0.00    0.0
2026/01/15 00:48:30.000   22.434296791  114.335376404    59.2290   6   4   0.2088   0.2432   0.5450  -0.0952   0.1702  -0.1265   0.00    0.0
2026/01/15 00:49:00.000   22.434296761  114.335376528    59.2336   6   4   0.2080   0.2417   0.5424  -0.0943   0.1687  -0.1245   0.00    0.0
2026/01/15 00:49:30.000   22.434296728  114.335376657    59.2410   6   4   0.2071   0.2403   0.5398  -0.0933   0.1673  -0.1226   0.00    0.0
2026/01/15 00:50:00.000   22.434296696  114.335376792    59.2498   6   4   0.2063   0.2390   0.5372  -0.0924   0.1659  -0.1207   0.00    0.0
2026/01/15 00:50:30.000   22.434296664  114.335376928    59.2581   6   4   0.2055   0.2376   0.5347  -0.0916   0.1645  -0.1188   0.00    0.0
2026/01/15 00:51:00.000   22.434296629  114.335377063    59.2644   6   4   0.2047   0.2363   0.5323  -0.0907   0.1632  -0.1170   0.00    0.0
2026/01/15 00:51:30.000   22.434296594  114.335377203    59.2692   6   4   0.2039   0.2350   0.5299  -0.0899   0.1619  -0.1151   0.00    0.0
2026/01/15 00:52:00.000   22.434296560  114.335377339    59.2707   6   4   0.2031   0.2337   0.5275  -0.0891   0.1607  -0.1134   0.00    0.0
2026/01/15 00:52:30.000   22.434296532  114.335377466    59.2718   6   4   0.2024   0.2325   0.5252  -0.0882   0.1594  -0.1116   0.00    0.0
2026/01/15 00:53:00.000   22.434296506  114.335377589    59.2728   6   4   0.2016   0.2312   0.5229  -0.0875   0.1582  -0.1099   0.00    0.0
2026/01/15 00:53:30.000   22.434296481  114.335377705    59.2735   6   4   0.2009   0.2300   0.5206  -0.0867   0.1571  -0.1082   0.00    0.0
2026/01/15 00:54:00.000   22.434296454  114.335377817    59.2743   6   4   0.2001   0.2288   0.5184  -0.0859   0.1560  -0.1065   0.00    0.0
2026/01/15 00:54:30.000   22.434296427  114.335377919    59.2748   6   4   0.1994   0.2276   0.5162  -0.0852   0.1549  -0.1048   0.00    0.0
2026/01/15 00:55:00.000   22.434296397  114.335378015    59.2768   6   4   0.1987   0.2265   0.5141  -0.0844   0.1538  -0.1032   0.00    0.0
2026/01/15 00:55:30.000   22.434296366  114.335378106    59.2800   6   4   0.1980   0.2253   0.5120  -0.0837   0.1528  -0.1016   0.00    0.0
2026/01/15 00:56:00.000   22.434296338  114.335378190    59.2831   6   4   0.1973   0.2242   0.5099  -0.0830   0.1518  -0.1000   0.00    0.0
2026/01/15 00:56:30.000   22.434296319  114.335378269    59.2862   6   4   0.1966   0.2231   0.5078  -0.0823   0.1508  -0.0985   0.00    0.0
2026/01/15 00:57:00.000   22.434296300  114.335378346    59.2889   6   4   0.1959   0.2220   0.5058  -0.0816   0.1498  -0.0969   0.00    0.0
2026/01/15 00:57:30.000   22.434296278  114.335378425    59.2920   6   4   0.1952   0.2209   0.5038  -0.0810   0.1489  -0.0954   0.00    0.0
2026/01/15 00:58:00.000   22.434296254  114.335378512    59.2960   6   4   0.1946   0.2198   0.5019  -0.0803   0.1480  -0.0939   0.00    0.0
2026/01/15 00:58:30.000   22.434296227  114.335378606    59.3009   6   4   0.1939   0.2188   0.5000  -0.0796   0.1471  -0.0925   0.00    0.0
2026/01/15 00:59:00.000   22.434296196  114.335378707    59.3061   6   4   0.1932   0.2177   0.4981  -0.0790   0.1462  -0.0910   0.00    0.0
2026/01/15 00:59:30.000   22.434296161  114.335378812    59.3118   6   4   0.1926   0.2167   0.4962  -0.0784   0.1454  -0.0896   0.00    0.0
2026/01/15 01:00:00.000   22.434296111  114.335378907    59.3205   6   5   0.1920   0.2157   0.4943  -0.0778   0.1446  -0.0882   0.00    0.0
2026/01/15 01:00:30.000   22.434296064  114.335378999    59.3294   6   5   0.1913   0.2147   0.4925  -0.0772   0.1438  -0.0868   0.00    0.0
2026/01/15 01:01:00.000   22.434296021  114.335379095    59.3375   6   5   0.1907   0.2137   0.4907  -0.0766   0.1430  -0.0855   0.00    0.0
2026/01/15 01:01:30.000   22.434295978  114.335379199    59.3449   6   5   0.1901   0.2128   0.4889  -0.0760   0.1423  -0.0841   0.00    0.0
2026/01/15 01:02:00.000   22.434295930  114.335379301    59.3522   6   5   0.1895   0.2118   0.4872  -0.0754   0.1415  -0.0828   0.00    0.0
2026/01/15 01:02:30.000   22.434295876  114.335379389    59.3598   6   5   0.1889   0.2109   0.4855  -0.0749   0.1408  -0.0815   0.00    0.0
2026/01/15 01:03:00.000   22.434295823  114.335379477    59.3684   6   5   0.1883   0.2100   0.4837  -0.0743   0.1401  -0.0803   0.00    0.0
2026/01/15 01:03:30.000   22.434295769  114.335379572    59.3783   6   5   0.1877   0.2090   0.4821  -0.0738   0.1394  -0.0790   0.00    0.0
2026/01/15 01:04:00.000   22.434295718  114.335379669    59.3873   6   5   0.1871   0.2081   0.4804  -0.0732   0.1388  -0.0778   0.00    0.0
2026/01/15 01:04:30.000   22.434295666  114.335379768    59.3959   6   5   0.1865   0.2072   0.4788  -0.0727   0.1381  -0.0766   0.00    0.0
2026/01/15 01:05:00.000   22.434295611  114.335379868    59.4042   6   5   0.1860   0.2064   0.4771  -0.0722   0.1375  -0.0754   0.00    0.0
2026/01/15 01:05:30.000   22.434295553  114.335379967    59.4130   6   5   0.1854   0.2055   0.4755  -0.0717   0.1369  -0.0742   0.00    0.0
2026/01/15 01:06:00.000   22.434295499  114.335380057    59.4220   6   5   0.1848   0.2046   0.4739  -0.0711   0.1363  -0.0731   0.00    0.0
2026/01/15 01:06:30.000   22.434295446  114.335380145    59.4319   6   5   0.1843   0.2038   0.4724  -0.0707   0.1357  -0.0720   0.00    0.0
2026/01/15 01:07:00.000   22.434295396  114.335380230    59.4425   6   5   0.1837   0.2029   0.4708  -0.0702   0.1351  -0.0709   0.00    0.0
2026/01/15 01:07:30.000   22.434295349  114.335380317    59.4526   6   5   0.1832   0.2021   0.4693  -0.0697   0.1346  -0.0698   0.00    0.0
2026/01/15 01:08:00.000   22.434295305  114.335380408    59.4619   6   5   0.1826   0.2013   0.4678  -0.0692   0.1340  -0.0688   0.00    0.0
2026/01/15 01:08:30.000   22.434295263  114.335380495    59.4697   6   5   0.1821   0.2005   0.4663  -0.0687   0.1335  -0.0677   0.00    0.0
2026/01/15 01:09:00.000   22.434295221  114.335380577    59.4747   6   5   0.1816   0.1997   0.4648  -0.0683   0.1330  -0.0667   0.00    0.0
2026/01/15 01:09:30.000   22.434295182  114.335380653    59.4770   6   5   0.1810   0.1989   0.4633  -0.0678   0.1325  -0.0657   0.00    0.0
2026/01/15 01:10:00.000   22.434295146  114.335380728    59.4784   6   5   0.1805   0.1981   0.4619  -0.0674   0.1320  -0.0648   0.00    0.0
2026/01/15 01:10:30.000   22.434295112  114.335380804    59.4812   6   5   0.1800   0.1973   0.4604  -0.0670   0.1315  -0.0638   0.00    0.0
2026/01/15 01:11:00.000   22.434295078  114.335380884    59.4860   6   5   0.1795   0.1966   0.4590  -0.0665   0.1310  -0.0629   0.00    0.0
2026/01/15 01:11:30.000   22.434295044  114.335380965    59.4921   6   5   0.1790   0.1958   0.4576  -0.0661   0.1305  -0.0620   0.00    0.0
2026/01/15 01:12:00.000   22.434295008  114.335381045    59.4995   6   5   0.1785   0.1951   0.4562  -0.0657   0.1301  -0.0612   0.00    0.0
2026/01/15 01:12:30.000   22.434294967  114.335381121    59.5073   6   5   0.1780   0.1943   0.4548  -0.0653   0.1297  -0.0603   0.00    0.0
2026/01/15 01:13:00.000   22.434294930  114.335381194    59.5150   6   5   0.1775   0.1936   0.4534  -0.0649   0.1292  -0.0595   0.00    0.0
2026/01/15 01:13:30.000   22.434294922  114.335381262    59.5297   6   5   0.1768   0.1929   0.4517  -0.0646   0.1286  -0.0599   0.00    0.0
2026/01/15 01:14:00.000   22.434294915  114.335381323    59.5441   6   5   0.1762   0.1921   0.4500  -0.0643   0.1281  -0.0603   0.00    0.0
2026/01/15 01:14:30.000   22.434294907  114.335381383    59.5569   6   5   0.1755   0.1914   0.4482  -0.0640   0.1275  -0.0607   0.00    0.0
2026/01/15 01:15:00.000   22.434294899  114.335381444    59.5682   6   5   0.1749   0.1907   0.4465  -0.0638   0.1270  -0.0611   0.00    0.0
2026/01/15 01:15:30.000   22.434294893  114.335381502    59.5807   6   5   0.1743   0.1900   0.4449  -0.0635   0.1265  -0.0615   0.00    0.0
2026/01/15 01:16:00.000   22.434294887  114.335381561    59.5939   6   5   0.1737   0.1893   0.4432  -0.0633   0.1259  -0.0619   0.00    0.0
2026/01/15 01:16:30.000   22.434294882  114.335381617    59.6062   6   5   0.1730   0.1886   0.4416  -0.0630   0.1254  -0.0624   0.00    0.0
2026/01/15 01:17:00.000   22.434294876  114.335381675    59.6178   6   5   0.1724   0.1879   0.4400  -0.0628   0.1249  -0.0628   0.00    0.0
2026/01/15 01:17:30.000   22.434294869  114.335381739    59.6293   6   5   0.1718   0.1873   0.4384  -0.0625   0.1244  -0.0632   0.00    0.0
2026/01/15 01:18:00.000   22.434294859  114.335381802    59.6417   6   5   0.1712   0.1866   0.4368  -0.0623   0.1240  -0.0637   0.00    0.0
2026/01/15 01:18:30.000   22.434294851  114.335381867    59.6546   6   5   0.1706   0.1860   0.4352  -0.0620   0.1235  -0.0641   0.00    0.0
2026/01/15 01:19:00.000   22.434294846  114.335381933    59.6674   6   5   0.1700   0.1853   0.4337  -0.0618   0.1230  -0.0645   0.00    0.0
2026/01/15 01:19:30.000   22.434294845  114.335381998    59.6807   6   5   0.1694   0.1847   0.4322  -0.0616   0.1226  -0.0650   0.00    0.0
2026/01/15 01:20:00.000   22.434294848  114.335382062    59.6945   6   5   0.1688   0.1840   0.4307  -0.0614   0.1221  -0.0654   0.00    0.0
2026/01/15 01:20:30.000   22.434294852  114.335382124    59.7072   6   5   0.1682   0.1834   0.4292  -0.0611   0.1217  -0.0658   0.00    0.0
2026/01/15 01:21:00.000   22.434294856  114.335382179    59.7188   6   5   0.1677   0.1828   0.4277  -0.0609   0.1213  -0.0663   0.00    0.0
2026/01/15 01:21:30.000   22.434294861  114.335382231    59.7270   6   5   0.1671   0.1822   0.4265  -0.0606   0.1207  -0.0671   0.00    0.0
2026/01/15 01:22:00.000   22.434294862  114.335382282    59.7350   6   5   0.1666   0.1816   0.4254  -0.0603   0.1200  -0.0678   0.00    0.0
2026/01/15 01:22:30.000   22.434294860  114.335382334    59.7443   6   5   0.1660   0.1810   0.4242  -0.0600   0.1194  -0.0686   0.00    0.0
2026/01/15 01:23:00.000   22.434294859  114.335382388    59.7550   6   5   0.1655   0.1804   0.4231  -0.0598   0.1188  -0.0693   0.00    0.0
2026/01/15 01:23:30.000   22.434294857  114.335382441    59.7670   6   5   0.1649   0.1799   0.4219  -0.0595   0.1183  -0.0700   0.00    0.0
2026/01/15 01:24:00.000   22.434294857  114.335382492    59.7801   6   5   0.1644   0.1793   0.4208  -0.0592   0.1177  -0.0707   0.00    0.0
2026/01/15 01:24:30.000   22.434294859  114.335382542    59.7939   6   5   0.1639   0.1787   0.4197  -0.0589   0.1171  -0.0714   0.00    0.0
2026/01/15 01:25:00.000   22.434294862  114.335382588    59.8073   6   5   0.1634   0.1782   0.4186  -0.0587   0.1166  -0.0721   0.00    0.0
2026/01/15 01:25:30.000   22.434294862  114.335382630    59.8194   6   5   0.1629   0.1776   0.4175  -0.0584   0.1161  -0.0728   0.00    0.0
2026/01/15 01:26:00.000   22.434294863  114.335382673    59.8306   6   5   0.1623   0.1771   0.4164  -0.0582   0.1155  -0.0735   0.00    0.0
2026/01/15 01:26:30.000   22.434294861  114.335382721    59.8416   6   5   0.1618   0.1765   0.4154  -0.0579   0.1150  -0.0742   0.00    0.0
2026/01/15 01:27:00.000   22.434294856  114.335382777    59.8534   6   5   0.1613   0.1760   0.4143  -0.0577   0.1145  -0.0748   0.00    0.0
2026/01/15 01:27:30.000   22.434294853  114.335382837    59.8656   6   5   0.1608   0.1755   0.4133  -0.0574   0.1140  -0.0755   0.00    0.0
2026/01/15 01:28:00.000   22.434294841  114.335382901    59.8777   6   5   0.1603   0.1749   0.4122  -0.0572   0.1135  -0.0761   0.00    0.0
2026/01/15 01:28:30.000   22.434294826  114.335382967    59.8894   6   5   0.1598   0.1744   0.4112  -0.0569   0.1131  -0.0767   0.00    0.0
2026/01/15 01:29:00.000   22.434294813  114.335383028    59.9009   6   5   0.1594   0.1739   0.4102  -0.0567   0.1126  -0.0774   0.00    0.0
2026/01/15 01:29:30.000   22.434294802  114.335383083    59.9125   6   5   0.1589   0.1733   0.4092  -0.0565   0.1121  -0.0780   0.00    0.0
2026/01/15 01:30:00.000   22.434294799  114.335383137    59.9249   6   5   0.1584   0.1728   0.4082  -0.0563   0.1117  -0.0786   0.00    0.0
2026/01/15 01:30:30.000   22.434294798  114.335383192    59.9382   6   5   0.1579   0.1723   0.4072  -0.0560   0.1113  -0.0792   0.00    0.0
2026/01/15 01:31:00.000   22.434294796  114.335383253    59.9518   6   5   0.1574   0.1718   0.4063  -0.0558   0.1108  -0.0798   0.00    0.0
2026/01/15 01:31:30.000   22.434294792  114.335383321    59.9651   6   5   0.1570   0.1713   0.4053  -0.0556   0.1104  -0.0803   0.00    0.0
2026/01/15 01:32:00.000   22.434294786  114.335383387    59.9776   6   5   0.1565   0.1708   0.4043  -0.0554   0.1100  -0.0809   0.00    0.0
2026/01/15 01:32:30.000   22.434294781  114.335383444    59.9899   6   5   0.1560   0.1703   0.4034  -0.0552   0.1096  -0.0815   0.00    0.0
2026/01/15 01:33:00.000   22.434294776  114.335383497    60.0017   6   5   0.1556   0.1698   0.4025  -0.0550   0.1092  -0.0820   0.00    0.0
2026/01/15 01:33:30.000   22.434294770  114.335383551    60.0138   6   5   0.1551   0.1693   0.4015  -0.0548   0.1088  -0.0826   0.00    0.0
2026/01/15 01:34:00.000   22.434294758  114.335383606    60.0267   6   5   0.1547   0.1688   0.4006  -0.0546   0.1084  -0.0831   0.00    0.0
2026/01/15 01:34:30.000   22.434294744  114.335383663    60.0393   6   5   0.1542   0.1684   0.3997  -0.0544   0.1080  -0.0836   0.00    0.0
2026/01/15 01:35:00.000   22.434294727  114.335383725    60.0516   6   5   0.1538   0.1679   0.3988  -0.0542   0.1077  -0.0841   0.00    0.0
2026/01/15 01:35:30.000   22.434294708  114.335383791    60.0632   6   5   0.1534   0.1674   0.3979  -0.0540   0.1073  -0.0847   0.00    0.0
2026/01/15 01:36:00.000   22.434294688  114.335383858    60.0747   6   5   0.1529   0.1669   0.3970  -0.0539   0.1069  -0.0852   0.00    0.0
2026/01/15 01:36:30.000   22.434294668  114.335383925    60.0867   6   5   0.1525   0.1665   0.3962  -0.0537   0.1066  -0.0857   0.00    0.0
2026/01/15 01:37:00.000   22.434294625  114.335384021    60.1087   6   5   0.1520   0.1659   0.3949  -0.0533   0.1058  -0.0857   0.00    0.0
2026/01/15 01:37:30.000   22.434294587  114.335384116    60.1308   6   5   0.1515   0.1653   0.3937  -0.0529   0.1050  -0.0857   0.00    0.0
2026/01/15 01:38:00.000   22.434294552  114.335384208    60.1519   6   5   0.1510   0.1648   0.3925  -0.0524   0.1042  -0.0858   0.00    0.0
2026/01/15 01:38:30.000   22.434294522  114.335384299    60.1726   6   5   0.1505   0.1642   0.3914  -0.0520   0.1035  -0.0858   0.00    0.0
2026/01/15 01:39:00.000   22.434294491  114.335384386    60.1923   6   5   0.1501   0.1637   0.3902  -0.0516   0.1027  -0.0859   0.00    0.0
2026/01/15 01:39:30.000   22.434294459  114.335384469    60.2120   6   5   0.1496   0.1631   0.3890  -0.0512   0.1019  -0.0859   0.00    0.0
2026/01/15 01:40:00.000   22.434294424  114.335384552    60.2319   6   5   0.1491   0.1626   0.3879  -0.0508   0.1012  -0.0860   0.00    0.0
2026/01/15 01:40:30.000   22.434294386  114.335384637    60.2525   6   5   0.1486   0.1620   0.3867  -0.0504   0.1005  -0.0860   0.00    0.0
2026/01/15 01:41:00.000   22.434294350  114.335384724    60.2727   6   5   0.1482   0.1615   0.3856  -0.0501   0.0998  -0.0861   0.00    0.0
2026/01/15 01:41:30.000   22.434294316  114.335384808    60.2920   6   5   0.1477   0.1610   0.3845  -0.0497   0.0990  -0.0861   0.00    0.0
2026/01/15 01:42:00.000   22.434294286  114.335384887    60.3100   6   5   0.1472   0.1605   0.3834  -0.0493   0.0983  -0.0862   0.00    0.0
2026/01/15 01:42:30.000   22.434294258  114.335384964    60.3273   6   5   0.1468   0.1599   0.3823  -0.0489   0.0977  -0.0862   0.00    0.0
2026/01/15 01:43:00.000   22.434294233  114.335385041    60.3447   6   5   0.1463   0.1594   0.3812  -0.0485   0.0970  -0.0863   0.00    0.0
2026/01/15 01:43:30.000   22.434294205  114.335385119    60.3623   6   5   0.1459   0.1589   0.3802  -0.0482   0.0963  -0.0864   0.00    0.0
2026/01/15 01:44:00.000   22.434294179  114.335385191    60.3795   6   5   0.1454   0.1584   0.3791  -0.0478   0.0956  -0.0864   0.00    0.0
2026/01/15 01:44:30.000   22.434294156  114.335385257    60.3959   6   5   0.1450   0.1579   0.3780  -0.0474   0.0950  -0.0865   0.00    0.0
2026/01/15 01:45:00.000   22.434294137  114.335385320    60.4106   6   5   0.1445   0.1574   0.3770  -0.0471   0.0943  -0.0865   0.00    0.0
2026/01/15 01:45:30.000   22.434294118  114.335385377    60.4237   6   5   0.1441   0.1569   0.3760  -0.0467   0.0937  -0.0866   0.00    0.0
2026/01/15 01:46:00.000   22.434294098  114.335385433    60.4370   6   5   0.1437   0.1564   0.3750  -0.0464   0.0930  -0.0866   0.00    0.0
2026/01/15 01:46:30.000   22.434294075  114.335385487    60.4514   6   5   0.1432   0.1559   0.3739  -0.0460   0.0924  -0.0867   0.00    0.0
2026/01/15 01:47:00.000   22.434294050  114.335385539    60.4674   6   5   0.1428   0.1554   0.3729  -0.0457   0.0918  -0.0868   0.00    0.0
2026/01/15 01:47:30.000   22.434294023  114.335385587    60.4828   6   5   0.1424   0.1550   0.3720  -0.0453   0.0912  -0.0868   0.00    0.0
2026/01/15 01:48:00.000   22.434293994  114.335385636    60.4978   6   5   0.1420   0.1545   0.3710  -0.0450   0.0906  -0.0869   0.00    0.0
2026/01/15 01:48:30.000   22.434293966  114.335385689    60.5137   6   5   0.1415   0.1540   0.3700  -0.0446   0.0900  -0.0870   0.00    0.0
2026/01/15 01:49:00.000   22.434293936  114.335385749    60.5306   6   5   0.1411   0.1535   0.3690  -0.0443   0.0894  -0.0870   0.00    0.0
2026/01/15 01:49:30.000   22.434293909  114.335385812    60.5475   6   5   0.1407   0.1531   0.3681  -0.0440   0.0888  -0.0871   0.00    0.0
2026/01/15 01:50:00.000   22.434293884  114.335385872    60.5634   6   5   0.1403   0.1526   0.3671  -0.0436   0.0882  -0.0872   0.00    0.0
2026/01/15 01:50:30.000   22.434293859  114.335385931    60.5783   6   5   0.1399   0.1521   0.3662  -0.0433   0.0877  -0.0872   0.00    0.0
2026/01/15 01:51:00.000   22.434293833  114.335385995    60.5941   6   5   0.1395   0.1517   0.3653  -0.0430   0.0871  -0.0873   0.00    0.0
2026/01/15 01:51:30.000   22.434293808  114.335386058    60.6100   6   5   0.1391   0.1512   0.3643  -0.0427   0.0865  -0.0873   0.00    0.0
2026/01/15 01:52:00.000   22.434293785  114.335386119    60.6254   6   5   0.1387   0.1508   0.3634  -0.0424   0.0860  -0.0874   0.00    0.0
2026/01/15 01:52:30.000   22.434293763  114.335386177    60.6411   6   5   0.1383   0.1503   0.3625  -0.0421   0.0855  -0.0875   0.00    0.0
2026/01/15 01:53:00.000   22.434293742  114.335386231    60.6565   6   5   0.1379   0.1499   0.3616  -0.0418   0.0849  -0.0875   0.00    0.0
2026/01/15 01:53:30.000   22.434293721  114.335386285    60.6714   6   5   0.1375   0.1494   0.3607  -0.0415   0.0844  -0.0876   0.00    0.0
2026/01/15 01:54:00.000   22.434293696  114.335386333    60.6853   6   5   0.1372   0.1490   0.3598  -0.0412   0.0839  -0.0877   0.00    0.0
2026/01/15 01:54:30.000   22.434293668  114.335386374    60.6979   6   5   0.1368   0.1485   0.3590  -0.0409   0.0834  -0.0877   0.00    0.0
2026/01/15 01:55:00.000   22.434293639  114.335386415    60.7095   6   5   0.1364   0.1481   0.3581  -0.0406   0.0829  -0.0878   0.00    0.0
2026/01/15 01:55:30.000   22.434293611  114.335386460    60.7206   6   5   0.1360   0.1477   0.3572  -0.0403   0.0824  -0.0879   0.00    0.0
2026/01/15 01:56:00.000   22.434293587  114.335386505    60.7324   6   5   0.1356   0.1472   0.3564  -0.0400   0.0819  -0.0879   0.00    0.0
2026/01/15 01:56:30.000   22.434293566  114.335386548    60.7444   6   5   0.1353   0.1468   0.3555  -0.0397   0.0814  -0.0880   0.00    0.0
2026/01/15 01:57:00.000   22.434293545  114.335386590    60.7564   6   5   0.1349   0.1464   0.3547  -0.0394   0.0809  -0.0881   0.00    0.0
2026/01/15 01:57:30.000   22.434293525  114.335386631    60.7679   6   5   0.1345   0.1460   0.3538  -0.0392   0.0804  -0.0881   0.00    0.0
2026/01/15 01:58:00.000   22.434293506  114.335386669    60.7791   6   5   0.1342   0.1456   0.3530  -0.0389   0.0799  -0.0882   0.00    0.0
2026/01/15 01:58:30.000   22.434293484  114.335386706    60.7915   6   5   0.1338   0.1451   0.3522  -0.0386   0.0795  -0.0883   0.00    0.0
2026/01/15 01:59:00.000   22.434293460  114.335386742    60.8041   6   5   0.1335   0.1447   0.3513  -0.0384   0.0790  -0.0883   0.00    0.0
2026/01/15 01:59:30.000   22.434293437  114.335386775    60.8165   6   5   0.1331   0.1443   0.3505  -0.0381   0.0785  -0.0884   0.00    0.0
2026/01/15 02:00:00.000   22.434293418  114.335386821    60.8224   6   5   0.1328   0.1439   0.3498  -0.0378   0.0780  -0.0885   0.00    0.0
2026/01/15 02:00:30.000   22.434293400  114.335386865    60.8276   6   5   0.1324   0.1436   0.3491  -0.0376   0.0774  -0.0885   0.00    0.0
2026/01/15 02:01:00.000   22.434293382  114.335386911    60.8328   6   5   0.1321   0.1432   0.3484  -0.0373   0.0769  -0.0886   0.00    0.0
2026/01/15 02:01:30.000   22.434293364  114.335386962    60.8386   6   5   0.1318   0.1428   0.3477  -0.0370   0.0763  -0.0887   0.00    0.0
2026/01/15 02:02:00.000   22.434293344  114.335387015    60.8449   6   5   0.1314   0.1424   0.3470  -0.0368   0.0758  -0.0888   0.00    0.0
2026/01/15 02:02:30.000   22.434293324  114.335387069    60.8512   6   5   0.1311   0.1420   0.3463  -0.0365   0.0753  -0.0888   0.00    0.0
2026/01/15 02:03:00.000   22.434293305  114.335387118    60.8566   6   5   0.1308   0.1417   0.3457  -0.0363   0.0747  -0.0889   0.00    0.0
2026/01/15 02:03:30.000   22.434293288  114.335387163    60.8615   6   5   0.1305   0.1413   0.3450  -0.0360   0.0742  -0.0889   0.00    0.0
2026/01/15 02:04:00.000   22.434293272  114.335387209    60.8660   6   5   0.1301   0.1409   0.3443  -0.0358   0.0737  -0.0890   0.00    0.0
2026/01/15 02:04:30.000   22.434293257  114.335387257    60.8711   6   5   0.1298   0.1405   0.3436  -0.0355   0.0732  -0.0891   0.00    0.0
2026/01/15 02:05:00.000   22.434293242  114.335387308    60.8771   6   5   0.1295   0.1402   0.3430  -0.0353   0.0727  -0.0891   0.00    0.0
2026/01/15 02:05:30.000   22.434293228  114.335387358    60.8829   6   5   0.1292   0.1398   0.3423  -0.0350   0.0722  -0.0892   0.00    0.0
2026/01/15 02:06:00.000   22.434293213  114.335387403    60.8883   6   5   0.1289   0.1395   0.3417  -0.0348   0.0717  -0.0893   0.00    0.0
2026/01/15 02:06:30.000   22.434293197  114.335387443    60.8928   6   5   0.1286   0.1391   0.3410  -0.0346   0.0712  -0.0893   0.00    0.0
2026/01/15 02:07:00.000   22.434293180  114.335387484    60.8975   6   5   0.1283   0.1387   0.3403  -0.0344   0.0707  -0.0894   0.00    0.0
2026/01/15 02:07:30.000   22.434293162  114.335387528    60.9022   6   5   0.1280   0.1384   0.3397  -0.0341   0.0702  -0.0894   0.00    0.0
2026/01/15 02:08:00.000   22.434293145  114.335387572    60.9066   6   5   0.1277   0.1380   0.3390  -0.0339   0.0697  -0.0895   0.00    0.0
2026/01/15 02:08:30.000   22.434293131  114.335387619    60.9110   6   5   0.1274   0.1377   0.3384  -0.0337   0.0692  -0.0895   0.00    0.0
2026/01/15 02:09:00.000   22.434293120  114.335387666    60.9154   6   5   0.1271   0.1373   0.3377  -0.0335   0.0688  -0.0896   0.00    0.0
2026/01/15 02:09:30.000   22.434293111  114.335387712    60.9201   6   5   0.1268   0.1370   0.3371  -0.0333   0.0683  -0.0897   0.00    0.0
2026/01/15 02:10:00.000   22.434293103  114.335387757    60.9252   6   5   0.1265   0.1367   0.3364  -0.0331   0.0678  -0.0897   0.00    0.0
2026/01/15 02:10:30.000   22.434293090  114.335387802    60.9296   6   4   0.1262   0.1363   0.3360  -0.0328   0.0675  -0.0896   0.00    0.0
2026/01/15 02:11:00.000   22.434293077  114.335387850    60.9345   6   4   0.1259   0.1360   0.3355  -0.0326   0.0672  -0.0896   0.00    0.0
2026/01/15 02:11:30.000   22.434293063  114.335387900    60.9392   6   4   0.1257   0.1357   0.3351  -0.0323   0.0668  -0.0895   0.00    0.0
2026/01/15 02:12:00.000   22.434293057  114.335387961    60.9467   6   4   0.1254   0.1353   0.3345  -0.0322   0.0664  -0.0895   0.00    0.0
2026/01/15 02:12:30.000   22.434293049  114.335388018    60.9536   6   4   0.1251   0.1350   0.3340  -0.0321   0.0660  -0.0896   0.00    0.0
2026/01/15 02:13:00.000   22.434293039  114.335388071    60.9605   6   4   0.1248   0.1346   0.3334  -0.0319   0.0656  -0.0897   0.00    0.0
2026/01/15 02:13:30.000   22.434293029  114.335388120    60.9676   6   4   0.1245   0.1343   0.3329  -0.0318   0.0651  -0.0897   0.00    0.0
2026/01/15 02:14:00.000   22.434293020  114.335388169    60.9755   6   4   0.1242   0.1340   0.3324  -0.0317   0.0647  -0.0898   0.00    0.0
2026/01/15 02:14:30.000   22.434293014  114.335388218    60.9836   6   4   0.1239   0.1337   0.3318  -0.0315   0.0643  -0.0898   0.00    0.0
2026/01/15 02:15:00.000   22.434293012  114.335388266    60.9918   6   4   0.1236   0.1333   0.3313  -0.0314   0.0639  -0.0898   0.00    0.0
2026/01/15 02:15:30.000   22.434293011  114.335388313    60.9995   6   4   0.1233   0.1330   0.3308  -0.0313   0.0635  -0.0899   0.00    0.0
2026/01/15 02:16:00.000   22.434293012  114.335388358    61.0068   6   4   0.1230   0.1327   0.3303  -0.0312   0.0631  -0.0899   0.00    0.0
2026/01/15 02:16:30.000   22.434293013  114.335388402    61.0141   6   4   0.1227   0.1324   0.3297  -0.0311   0.0627  -0.0900   0.00    0.0
2026/01/15 02:17:00.000   22.434293013  114.335388448    61.0210   6   4   0.1225   0.1320   0.3292  -0.0310   0.0624  -0.0900   0.00    0.0
2026/01/15 02:17:30.000   22.434293014  114.335388495    61.0276   6   4   0.1222   0.1317   0.3287  -0.0309   0.0620  -0.0900   0.00    0.0
2026/01/15 02:18:00.000   22.434293014  114.335388539    61.0342   6   4   0.1219   0.1314   0.3282  -0.0308   0.0616  -0.0901   0.00    0.0
2026/01/15 02:18:30.000   22.434293014  114.335388580    61.0411   6   4   0.1216   0.1311   0.3277  -0.0307   0.0613  -0.0901   0.00    0.0
2026/01/15 02:19:00.000   22.434293014  114.335388616    61.0484   6   4   0.1214   0.1308   0.3272  -0.0306   0.0609  -0.0901   0.00    0.0
2026/01/15 02:19:30.000   22.434293014  114.335388651    61.0560   6   4   0.1211   0.1305   0.3267  -0.0305   0.0606  -0.0902   0.00    0.0
2026/01/15 02:20:00.000   22.434293014  114.335388689    61.0640   6   4   0.1208   0.1302   0.3262  -0.0304   0.0602  -0.0902   0.00    0.0
2026/01/15 02:20:30.000   22.434293014  114.335388726    61.0721   6   4   0.1205   0.1298   0.3257  -0.0303   0.0599  -0.0902   0.00    0.0
2026/01/15 02:21:00.000   22.434293016  114.335388761    61.0801   6   4   0.1203   0.1295   0.3252  -0.0303   0.0596  -0.0902   0.00    0.0
2026/01/15 02:21:30.000   22.434293016  114.335388796    61.0877   6   4   0.1200   0.1292   0.3247  -0.0302   0.0592  -0.0902   0.00    0.0
2026/01/15 02:22:00.000   22.434293014  114.335388831    61.0953   6   4   0.1197   0.1289   0.3242  -0.0301   0.0589  -0.0903   0.00    0.0
2026/01/15 02:22:30.000   22.434293006  114.335388867    61.1028   6   4   0.1195   0.1286   0.3238  -0.0301   0.0586  -0.0903   0.00    0.0
2026/01/15 02:23:00.000   22.434292997  114.335388900    61.1101   6   4   0.1192   0.1283   0.3233  -0.0300   0.0583  -0.0903   0.00    0.0
2026/01/15 02:23:30.000   22.434292990  114.335388932    61.1172   6   4   0.1190   0.1281   0.3228  -0.0299   0.0580  -0.0903   0.00    0.0
2026/01/15 02:24:00.000   22.434292986  114.335388964    61.1248   6   4   0.1187   0.1278   0.3223  -0.0299   0.0577  -0.0903   0.00    0.0
2026/01/15 02:24:30.000   22.434292984  114.335388995    61.1326   6   4   0.1185   0.1275   0.3218  -0.0298   0.0574  -0.0903   0.00    0.0
2026/01/15 02:25:00.000   22.434292982  114.335389022    61.1401   6   4   0.1182   0.1272   0.3214  -0.0298   0.0571  -0.0903   0.00    0.0
2026/01/15 02:25:30.000   22.434292981  114.335389045    61.1467   6   4   0.1179   0.1269   0.3209  -0.0297   0.0568  -0.0903   0.00    0.0
2026/01/15 02:26:00.000   22.434292980  114.335389066    61.1527   6   4   0.1177   0.1266   0.3204  -0.0297   0.0566  -0.0903   0.00    0.0
2026/01/15 02:26:30.000   22.434292978  114.335389088    61.1588   6   4   0.1174   0.1263   0.3199  -0.0296   0.0563  -0.0902   0.00    0.0
2026/01/15 02:27:00.000   22.434292975  114.335389108    61.1650   6   4   0.1172   0.1260   0.3195  -0.0296   0.0560  -0.0902   0.00    0.0
2026/01/15 02:27:30.000   22.434292973  114.335389129    61.1717   6   4   0.1170   0.1258   0.3190  -0.0295   0.0558  -0.0902   0.00    0.0
2026/01/15 02:28:00.000   22.434292963  114.335389154    61.1763   6   4   0.1167   0.1255   0.3186  -0.0295   0.0555  -0.0901   0.00    0.0
2026/01/15 02:28:30.000   22.434292953  114.335389177    61.1815   6   4   0.1165   0.1252   0.3182  -0.0295   0.0552  -0.0900   0.00    0.0
2026/01/15 02:29:00.000   22.434292946  114.335389203    61.1871   6   4   0.1163   0.1250   0.3178  -0.0296   0.0549  -0.0899   0.00    0.0
2026/01/15 02:29:30.000   22.434292938  114.335389227    61.1925   6   4   0.1161   0.1247   0.3174  -0.0296   0.0546  -0.0898   0.00    0.0
2026/01/15 02:30:00.000   22.434292930  114.335389253    61.1984   6   4   0.1159   0.1244   0.3170  -0.0296   0.0543  -0.0897   0.00    0.0
2026/01/15 02:30:30.000   22.434292922  114.335389278    61.2041   6   4   0.1156   0.1242   0.3166  -0.0296   0.0540  -0.0896   0.00    0.0
2026/01/15 02:31:00.000   22.434292914  114.335389308    61.2099   6   4   0.1154   0.1239   0.3162  -0.0296   0.0537  -0.0895   0.00    0.0
2026/01/15 02:31:30.000   22.434292904  114.335389340    61.2159   6   4   0.1152   0.1236   0.3157  -0.0296   0.0535  -0.0894   0.00    0.0
2026/01/15 02:32:00.000   22.434292892  114.335389369    61.2224   6   4   0.1150   0.1234   0.3153  -0.0296   0.0532  -0.0893   0.00    0.0
2026/01/15 02:32:30.000   22.434292879  114.335389395    61.2289   6   4   0.1148   0.1231   0.3149  -0.0296   0.0529  -0.0892   0.00    0.0
2026/01/15 02:33:00.000   22.434292864  114.335389420    61.2354   6   4   0.1146   0.1229   0.3145  -0.0297   0.0527  -0.0890   0.00    0.0
2026/01/15 02:33:30.000   22.434292849  114.335389443    61.2411   6   4   0.1143   0.1226   0.3141  -0.0297   0.0525  -0.0889   0.00    0.0
2026/01/15 02:34:00.000   22.434292833  114.335389466    61.2466   6   4   0.1141   0.1223   0.3137  -0.0297   0.0522  -0.0888   0.00    0.0
2026/01/15 02:34:30.000   22.434292818  114.335389488    61.2521   6   4   0.1139   0.1221   0.3133  -0.0297   0.0520  -0.0887   0.00    0.0
2026/01/15 02:35:00.000   22.434292803  114.335389507    61.2577   6   4   0.1137   0.1218   0.3129  -0.0297   0.0518  -0.0886   0.00    0.0
2026/01/15 02:35:30.000   22.434292789  114.335389522    61.2637   6   4   0.1135   0.1216   0.3125  -0.0297   0.0516  -0.0884   0.00    0.0
2026/01/15 02:36:00.000   22.434292776  114.335389536    61.2698   6   4   0.1133   0.1213   0.3121  -0.0297   0.0513  -0.0883   0.00    0.0
2026/01/15 02:36:30.000   22.434292762  114.335389548    61.2758   6   4   0.1131   0.1211   0.3117  -0.0298   0.0511  -0.0882   0.00    0.0
2026/01/15 02:37:00.000   22.434292750  114.335389558    61.2821   6   4   0.1129   0.1208   0.3113  -0.0298   0.0510  -0.0881   0.00    0.0
2026/01/15 02:37:30.000   22.434292737  114.335389563    61.2883   6   4   0.1127   0.1206   0.3109  -0.0298   0.0508  -0.0879   0.00    0.0
2026/01/15 02:38:00.000   22.434292722  114.335389564    61.2942   6   4   0.1125   0.1204   0.3105  -0.0298   0.0506  -0.0878   0.00    0.0
2026/01/15 02:38:30.000   22.434292706  114.335389566    61.3004   6   4   0.1123   0.1201   0.3101  -0.0298   0.0504  -0.0877   0.00    0.0
2026/01/15 02:39:00.000   22.434292689  114.335389572    61.3072   6   4   0.1121   0.1199   0.3097  -0.0299   0.0502  -0.0875   0.00    0.0
2026/01/15 02:39:30.000   22.434292674  114.335389582    61.3142   6   4   0.1119   0.1196   0.3093  -0.0299   0.0501  -0.0874   0.00    0.0
2026/01/15 02:40:00.000   22.434292662  114.335389591    61.3211   6   4   0.1117   0.1194   0.3089  -0.0299   0.0499  -0.0873   0.00    0.0
2026/01/15 02:40:30.000   22.434292650  114.335389601    61.3279   6   4   0.1115   0.1192   0.3085  -0.0299   0.0498  -0.0871   0.00    0.0
2026/01/15 02:41:00.000   22.434292637  114.335389608    61.3345   6   4   0.1112   0.1189   0.3081  -0.0299   0.0496  -0.0870   0.00    0.0
2026/01/15 02:41:30.000   22.434292624  114.335389615    61.3408   6   4   0.1111   0.1187   0.3077  -0.0300   0.0495  -0.0868   0.00    0.0
2026/01/15 02:42:00.000   22.434292613  114.335389622    61.3466   6   4   0.1109   0.1185   0.3073  -0.0300   0.0494  -0.0867   0.00    0.0
2026/01/15 02:42:30.000   22.434292603  114.335389627    61.3520   6   4   0.1107   0.1182   0.3069  -0.0300   0.0493  -0.0866   0.00    0.0
2026/01/15 02:43:00.000   22.434292593  114.335389631    61.3574   6   4   0.1105   0.1180   0.3064  -0.0300   0.0492  -0.0864   0.00    0.0
2026/01/15 02:43:30.000   22.434292581  114.335389634    61.3629   6   4   0.1103   0.1178   0.3060  -0.0301   0.0490  -0.0863   0.00    0.0
2026/01/15 02:44:00.000   22.434292567  114.335389637    61.3680   6   4   0.1101   0.1176   0.3056  -0.0301   0.0489  -0.0861   0.00    0.0
2026/01/15 02:44:30.000   22.434292550  114.335389639    61.3733   6   4   0.1099   0.1173   0.3052  -0.0301   0.0489  -0.0860   0.00    0.0
2026/01/15 02:45:00.000   22.434292531  114.335389644    61.3791   6   4   0.1097   0.1171   0.3048  -0.0301   0.0488  -0.0858   0.00    0.0
2026/01/15 02:45:30.000   22.434292514  114.335389651    61.3858   6   4   0.1095   0.1169   0.3044  -0.0302   0.0487  -0.0857   0.00    0.0
2026/01/15 02:46:00.000   22.434292496  114.335389659    61.3924   6   4   0.1093   0.1167   0.3039  -0.0302   0.0486  -0.0855   0.00    0.0
2026/01/15 02:46:30.000   22.434292480  114.335389665    61.3987   6   4   0.1091   0.1165   0.3035  -0.0302   0.0485  -0.0853   0.00    0.0
2026/01/15 02:47:00.000   22.434292465  114.335389673    61.4048   6   4   0.1089   0.1162   0.3031  -0.0302   0.0485  -0.0852   0.00    0.0
2026/01/15 02:47:30.000   22.434292449  114.335389678    61.4111   6   4   0.1087   0.1160   0.3027  -0.0303   0.0484  -0.0850   0.00    0.0
2026/01/15 02:48:00.000   22.434292432  114.335389684    61.4183   6   4   0.1085   0.1158   0.3022  -0.0303   0.0484  -0.0849   0.00    0.0
2026/01/15 02:48:30.000   22.434292412  114.335389689    61.4256   6   4   0.1084   0.1156   0.3018  -0.0303   0.0483  -0.0847   0.00    0.0
2026/01/15 02:49:00.000   22.434292392  114.335389694    61.4322   6   4   0.1082   0.1154   0.3014  -0.0303   0.0483  -0.0845   0.00    0.0
2026/01/15 02:49:30.000   22.434292372  114.335389695    61.4382   6   4   0.1080   0.1152   0.3010  -0.0304   0.0483  -0.0844   0.00    0.0
2026/01/15 02:50:00.000   22.434292357  114.335389696    61.4444   6   4   0.1078   0.1150   0.3005  -0.0304   0.0482  -0.0842   0.00    0.0
2026/01/15 02:50:30.000   22.434292344  114.335389694    61.4506   6   4   0.1076   0.1148   0.3001  -0.0304   0.0482  -0.0840   0.00    0.0
2026/01/15 02:51:00.000   22.434292333  114.335389688    61.4567   6   4   0.1074   0.1145   0.2996  -0.0305   0.0482  -0.0839   0.00    0.0
2026/01/15 02:51:30.000   22.434292321  114.335389683    61.4632   6   4   0.1072   0.1143   0.2992  -0.0305   0.0482  -0.0837   0.00    0.0
2026/01/15 02:52:00.000   22.434292307  114.335389677    61.4704   6   4   0.1071   0.1141   0.2988  -0.0305   0.0482  -0.0835   0.00    0.0
2026/01/15 02:52:30.000   22.434292290  114.335389669    61.4776   6   4   0.1069   0.1139   0.2983  -0.0305   0.0482  -0.0834   0.00    0.0
2026/01/15 02:53:00.000   22.434292271  114.335389661    61.4844   6   4   0.1067   0.1137   0.2979  -0.0306   0.0482  -0.0832   0.00    0.0
2026/01/15 02:53:30.000   22.434292251  114.335389653    61.4907   6   4   0.1065   0.1135   0.2974  -0.0306   0.0482  -0.0830   0.00    0.0
2026/01/15 02:54:00.000   22.434292231  114.335389647    61.4969   6   4   0.1064   0.1133   0.2970  -0.0306   0.0482  -0.0828   0.00    0.0
2026/01/15 02:54:30.000   22.434292211  114.335389644    61.5028   6   4   0.1062   0.1131   0.2965  -0.0307   0.0483  -0.0827   0.00    0.0
2026/01/15 02:55:00.000   22.434292193  114.335389643    61.5090   6   4   0.1060   0.1129   0.2961  -0.0307   0.0483  -0.0825   0.00    0.0
2026/01/15 02:55:30.000   22.434292176  114.335389644    61.5154   6   4   0.1058   0.1127   0.2956  -0.0307   0.0483  -0.0823   0.00    0.0
2026/01/15 02:56:00.000   22.434292156  114.335389644    61.5225   6   4   0.1057   0.1125   0.2952  -0.0307   0.0484  -0.0821   0.00    0.0
2026/01/15 02:56:30.000   22.434292128  114.335389652    61.5325   6   4   0.1055   0.1123   0.2946  -0.0307   0.0482  -0.0818   0.00    0.0
2026/01/15 02:57:00.000   22.434292100  114.335389659    61.5421   6   4   0.1053   0.1121   0.2940  -0.0306   0.0480  -0.0815   0.00    0.0
2026/01/15 02:57:30.000   22.434292071  114.335389663    61.5518   6   4   0.1051   0.1119   0.2934  -0.0305   0.0478  -0.0812   0.00    0.0
2026/01/15 02:58:00.000   22.434292044  114.335389668    61.5615   6   4   0.1049   0.1116   0.2929  -0.0304   0.0477  -0.0809   0.00    0.0
2026/01/15 02:58:30.000   22.434292021  114.335389675    61.5710   6   4   0.1047   0.1114   0.2923  -0.0304   0.0475  -0.0806   0.00    0.0
2026/01/15 02:59:00.000   22.434291999  114.335389682    61.5805   6   4   0.1045   0.1112   0.2917  -0.0303   0.0474  -0.0803   0.00    0.0
2026/01/15 02:59:30.000   22.434291977  114.335389687    61.5895   6   4   0.1043   0.1110   0.2911  -0.0302   0.0472  -0.0800   0.00    0.0
2026/01/15 03:00:00.000   22.434291957  114.335389686    61.6012   6   4   0.1041   0.1108   0.2905  -0.0301   0.0471  -0.0797   0.00    0.0
2026/01/15 03:00:30.000   22.434291939  114.335389685    61.6136   6   4   0.1038   0.1105   0.2899  -0.0300   0.0470  -0.0794   0.00    0.0
2026/01/15 03:01:00.000   22.434291920  114.335389685    61.6262   6   4   0.1036   0.1103   0.2893  -0.0300   0.0469  -0.0791   0.00    0.0
2026/01/15 03:01:30.000   22.434291902  114.335389689    61.6382   6   4   0.1034   0.1101   0.2887  -0.0299   0.0468  -0.0788   0.00    0.0
2026/01/15 03:02:00.000   22.434291880  114.335389692    61.6501   6   4   0.1032   0.1099   0.2881  -0.0298   0.0467  -0.0786   0.00    0.0
2026/01/15 03:02:30.000   22.434291857  114.335389694    61.6620   6   4   0.1030   0.1097   0.2875  -0.0297   0.0467  -0.0783   0.00    0.0
2026/01/15 03:03:00.000   22.434291832  114.335389694    61.6741   6   4   0.1028   0.1095   0.2869  -0.0297   0.0466  -0.0780   0.00    0.0
2026/01/15 03:03:30.000   22.434291809  114.335389694    61.6865   6   4   0.1026   0.1092   0.2863  -0.0296   0.0465  -0.0777   0.00    0.0
2026/01/15 03:04:00.000   22.434291787  114.335389694    61.6997   6   4   0.1024   0.1090   0.2857  -0.0295   0.0465  -0.0774   0.00    0.0
2026/01/15 03:04:30.000   22.434291764  114.335389692    61.7133   6   4   0.1022   0.1088   0.2851  -0.0294   0.0464  -0.0771   0.00    0.0
2026/01/15 03:05:00.000   22.434291741  114.335389689    61.7264   6   4   0.1020   0.1086   0.2845  -0.0294   0.0464  -0.0769   0.00    0.0
2026/01/15 03:05:30.000   22.434291719  114.335389686    61.7391   6   4   0.1018   0.1084   0.2838  -0.0293   0.0463  -0.0766   0.00    0.0
2026/01/15 03:06:00.000   22.434291697  114.335389685    61.7516   6   4   0.1016   0.1082   0.2832  -0.0292   0.0463  -0.0763   0.00    0.0
2026/01/15 03:06:30.000   22.434291675  114.335389682    61.7640   6   4   0.1015   0.1080   0.2826  -0.0291   0.0462  -0.0760   0.00    0.0
2026/01/15 03:07:00.000   22.434291654  114.335389676    61.7763   6   4   0.1013   0.1078   0.2820  -0.0291   0.0462  -0.0757   0.00    0.0
2026/01/15 03:07:30.000   22.434291633  114.335389666    61.7882   6   4   0.1011   0.1076   0.2814  -0.0290   0.0462  -0.0754   0.00    0.0
2026/01/15 03:08:00.000   22.434291612  114.335389654    61.8002   6   4   0.1009   0.1074   0.2808  -0.0289   0.0462  -0.0752   0.00    0.0
2026/01/15 03:08:30.000   22.434291590  114.335389640    61.8120   6   4   0.1007   0.1072   0.2802  -0.0288   0.0461  -0.0749   0.00    0.0
2026/01/15 03:09:00.000   22.434291567  114.335389627    61.8241   6   4   0.1005   0.1070   0.2796  -0.0288   0.0461  -0.0746   0.00    0.0
2026/01/15 03:09:30.000   22.434291545  114.335389615    61.8360   6   4   0.1003   0.1068   0.2790  -0.0287   0.0461  -0.0743   0.00    0.0
2026/01/15 03:10:00.000   22.434291526  114.335389600    61.8477   6   4   0.1001   0.1066   0.2784  -0.0286   0.0461  -0.0740   0.00    0.0
2026/01/15 03:10:30.000   22.434291508  114.335389583    61.8593   6   4   0.1000   0.1064   0.2778  -0.0286   0.0461  -0.0738   0.00    0.0
2026/01/15 03:11:00.000   22.434291491  114.335389565    61.8715   6   4   0.0998   0.1062   0.2772  -0.0285   0.0461  -0.0735   0.00    0.0
2026/01/15 03:11:30.000   22.434291473  114.335389548    61.8837   6   4   0.0996   0.1060   0.2766  -0.0284   0.0461  -0.0732   0.00    0.0
2026/01/15 03:12:00.000   22.434291453  114.335389532    61.8958   6   4   0.0994   0.1058   0.2760  -0.0283   0.0462  -0.0729   0.00    0.0
2026/01/15 03:12:30.000   22.434291431  114.335389516    61.9077   6   4   0.0992   0.1056   0.2754  -0.0283   0.0462  -0.0727   0.00    0.0
2026/01/15 03:13:00.000   22.434291411  114.335389516    61.9228   6   4   0.0991   0.1054   0.2749  -0.0282   0.0464  -0.0724   0.00    0.0
2026/01/15 03:13:30.000   22.434291392  114.335389516    61.9382   6   4   0.0989   0.1053   0.2744  -0.0281   0.0466  -0.0721   0.00    0.0
2026/01/15 03:14:00.000   22.434291371  114.335389518    61.9534   6   4   0.0987   0.1051   0.2738  -0.0280   0.0468  -0.0718   0.00    0.0
2026/01/15 03:14:30.000   22.434291351  114.335389520    61.9682   6   4   0.0985   0.1050   0.2733  -0.0279   0.0470  -0.0715   0.00    0.0
2026/01/15 03:15:00.000   22.434291331  114.335389523    61.9827   6   4   0.0984   0.1048   0.2728  -0.0278   0.0472  -0.0712   0.00    0.0
2026/01/15 03:15:30.000   22.434291311  114.335389527    61.9971   6   4   0.0982   0.1047   0.2722  -0.0277   0.0474  -0.0709   0.00    0.0
2026/01/15 03:16:00.000   22.434291292  114.335389532    62.0113   6   4   0.0980   0.1045   0.2717  -0.0276   0.0476  -0.0706   0.00    0.0
2026/01/15 10:17:00.000   22.434291793  114.335387640    64.0284   6   4   0.0581   0.0588   0.1460  -0.0175   0.0347  -0.0196   0.00    0.0
2026/01/15 10:17:30.000   22.434291803  114.335387643    64.0318   6   4   0.0580   0.0588   0.1460  -0.0175   0.0347  -0.0196   0.00    0.0
2026/01/15 10:18:00.000   22.434291813  114.335387645    64.0351   6   4   0.0580   0.0588   0.1460  -0.0175   0.0347  -0.0196   0.00    0.0
2026/01/15 10:18:30.000   22.434291822  114.335387647    64.0383   6   4   0.0580   0.0588   0.1459  -0.0175   0.0346  -0.0197   0.00    0.0
2026/01/15 10:19:00.000   22.434291831  114.335387649    64.0415   6   4   0.0580   0.0588   0.1459  -0.0175   0.0346  -0.0197   0.00    0.0
2026/01/15 10:19:30.000   22.434291840  114.335387651    64.0446   6   4   0.0580   0.0588   0.1458  -0.0175   0.0346  -0.0197   0.00    0.0
2026/01/15 10:20:00.000   22.434291850  114.335387653    64.0476   6   4   0.0580   0.0588   0.1458  -0.0175   0.0346  -0.0197   0.00    0.0
2026/01/15 10:20:30.000   22.434291859  114.335387655    64.0506   6   4   0.0580   0.0587   0.1457  -0.0175   0.0346  -0.0197   0.00    0.0
2026/01/15 10:21:00.000   22.434291867  114.335387657    64.0535   6   4   0.0579   0.0587   0.1457  -0.0175   0.0346  -0.0197   0.00    0.0
2026/01/15 10:21:30.000   22.434291876  114.335387659    64.0564   6   4   0.0579   0.0587   0.1456  -0.0175   0.0346  -0.0197   0.00    0.0
2026/01/15 10:22:00.000   22.434291884  114.335387661    64.0593   6   4   0.0579   0.0587   0.1456  -0.0175   0.0345  -0.0197   0.00    0.0
2026/01/15 10:22:30.000   22.434291892  114.335387663    64.0623   6   4   0.0579   0.0587   0.1455  -0.0175   0.0345  -0.0197   0.00    0.0
2026/01/15 10:23:00.000   22.434291900  114.335387664    64.0655   6   4   0.0579   0.0587   0.1455  -0.0175   0.0345  -0.0197   0.00    0.0
2026/01/15 10:23:30.000   22.434291907  114.335387666    64.0688   6   4   0.0579   0.0587   0.1454  -0.0175   0.0345  -0.0197   0.00    0.0
2026/01/15 10:24:00.000   22.434291914  114.335387667    64.0717   6   4   0.0579   0.0587   0.1454  -0.0175   0.0345  -0.0197   0.00    0.0
2026/01/15 10:24:30.000   22.434291915  114.335387666    64.0725   6   4   0.0578   0.0586   0.1453  -0.0175   0.0344  -0.0197   0.00    0.0
2026/01/15 10:25:00.000   22.434291916  114.335387666    64.0732   6   4   0.0578   0.0586   0.1453  -0.0175   0.0344  -0.0196   0.00    0.0
2026/01/15 10:25:30.000   22.434291917  114.335387665    64.0738   6   4   0.0578   0.0586   0.1452  -0.0175   0.0344  -0.0196   0.00    0.0
2026/01/15 10:26:00.000   22.434291918  114.335387664    64.0743   6   4   0.0578   0.0586   0.1452  -0.0175   0.0343  -0.0196   0.00    0.0
2026/01/15 10:26:30.000   22.434291919  114.335387662    64.0744   6   4   0.0578   0.0586   0.1451  -0.0175   0.0343  -0.0195   0.00    0.0
2026/01/15 10:27:00.000   22.434291920  114.335387660    64.0742   6   4   0.0578   0.0586   0.1451  -0.0175   0.0343  -0.0195   0.00    0.0
2026/01/15 10:27:30.000   22.434291921  114.335387658    64.0739   6   4   0.0578   0.0586   0.1450  -0.0175   0.0342  -0.0195   0.00    0.0
2026/01/15 10:28:00.000   22.434291921  114.335387657    64.0737   6   4   0.0578   0.0585   0.1450  -0.0175   0.0342  -0.0195   0.00    0.0
2026/01/15 10:28:30.000   22.434291921  114.335387655    64.0735   6   4   0.0578   0.0585   0.1449  -0.0175   0.0342  -0.0194   0.00    0.0
