% program   : RTKLIB ver.EX 2.5.0
% inp file  : C:\PPP_PROJECT\New_Data\obs\RNXDATA\KIRU00SWE_R_20260150000_01D_30S_MO.rnx
% inp file  : C:\PPP_PROJECT\New_Data\nav\BRDC00IGS_R_20260150000_01D_MN.rnx
% inp file  : .
% inp file  : .
% inp file  : .
% inp file  : C:\PPP_PROJECT\Old_data\products\ionex\COD0OPSFIN_20260150000_01D_01H_GIM.INX
% obs start : 2026/01/15 00:00:00.0 GPST (week2401 345600.0s)
% obs end   : 2026/01/15 23:59:30.0 GPST (week2401 431970.0s)
% pos mode  : PPP Static
% freqs     : L1
% solution  : Forward
% elev mask : 15.0 deg
% dynamics  : on
% tidecorr  :
% ionos opt : IONEX TEC
% tropo opt : Saastamoinen
% ephemeris : Broadcast
% navi sys  : GPS
% antenna1  :                       ( 0.0000  0.0000  0.0000)
%
% (lat/lon/height=WGS84/ellipsoidal,Q=1:fix,2:float,3:sbas,4:dgps,5:single,6:ppp,ns=# of satellites)
%  GPST                  latitude(deg) longitude(deg)  height(m)   Q  ns   sdn(m)   sde(m)   sdu(m)  sdne(m)  sdeu(m)  sdun(m) age(s)  ratio
2026/01/15 00:00:00.000   67.857336857   20.968463708   386.9441   6   9   2.0672   1.8201   6.0968  -0.6880  -1.5922   2.2567   0.00    0.0
2026/01/15 00:00:30.000   67.857337733   20.968464665   386.3784   6   9   1.4638   1.2895   4.3207  -0.4915  -1.1352   1.5993   0.00    0.0
2026/01/15 00:01:00.000   67.857336450   20.968464461   386.4513   6   9   1.1957   1.0542   3.5279  -0.4043  -0.9324   1.3055   0.00    0.0
2026/01/15 00:01:30.000   67.857336732   20.968463699   386.5520   6  10   1.0357   0.9140   3.0534  -0.3526  -0.8116   1.1297   0.00    0.0
2026/01/15 00:02:00.000   67.857337619   20.968464668   386.4601   6  10   0.9264   0.8183   2.7288  -0.3173  -0.7294   1.0092   0.00    0.0
2026/01/15 00:02:30.000   67.857337247   20.968464787   386.4372   6  10   0.8458   0.7478   2.4885  -0.2914  -0.6689   0.9200   0.00    0.0
2026/01/15 00:03:00.000   67.857337025   20.968464026   386.3589   6  10   0.7831   0.6930   2.3014  -0.2714  -0.6220   0.8505   0.00    0.0
2026/01/15 00:03:30.000   67.857337178   20.968464408   386.3572   6  10   0.7325   0.6489   2.1502  -0.2553  -0.5843   0.7943   0.00    0.0
2026/01/15 00:04:00.000   67.857338417   20.968464918   386.8383   6  11   0.6826   0.6121   1.9966  -0.2459  -0.5585   0.7237   0.00    0.0
2026/01/15 00:04:30.000   67.857339423   20.968465455   387.0460   6  11   0.6420   0.5810   1.8722  -0.2371  -0.5356   0.6683   0.00    0.0
2026/01/15 00:05:00.000   67.857339754   20.968465765   387.0716   6  11   0.6080   0.5544   1.7686  -0.2291  -0.5152   0.6235   0.00    0.0
2026/01/15 00:05:30.000   67.857340144   20.968466170   387.1025   6  11   0.5790   0.5312   1.6804  -0.2218  -0.4970   0.5861   0.00    0.0
2026/01/15 00:06:00.000   67.857340328   20.968466373   387.1964   6  11   0.5538   0.5108   1.6042  -0.2152  -0.4807   0.5545   0.00    0.0
2026/01/15 00:06:30.000   67.857340432   20.968466866   387.2620   6  11   0.5317   0.4926   1.5374  -0.2092  -0.4659   0.5272   0.00    0.0
2026/01/15 00:07:00.000   67.857340715   20.968467325   387.3401   6  11   0.5121   0.4763   1.4781  -0.2037  -0.4525   0.5034   0.00    0.0
2026/01/15 00:07:30.000   67.857341005   20.968467721   387.4156   6  11   0.4946   0.4615   1.4251  -0.1987  -0.4403   0.4824   0.00    0.0
2026/01/15 00:08:00.000   67.857341030   20.968468513   387.5063   6  11   0.4787   0.4481   1.3772  -0.1941  -0.4290   0.4637   0.00    0.0
2026/01/15 00:08:30.000   67.857341093   20.968469038   387.5051   6  11   0.4643   0.4359   1.3338  -0.1898  -0.4186   0.4469   0.00    0.0
2026/01/15 00:09:00.000   67.857341277   20.968468997   387.5482   6  11   0.4512   0.4246   1.2941  -0.1859  -0.4090   0.4317   0.00    0.0
2026/01/15 00:09:30.000   67.857341397   20.968469521   387.6094   6  10   0.4405   0.4143   1.2590  -0.1830  -0.3994   0.4154   0.00    0.0
2026/01/15 00:10:00.000   67.857341442   20.968470000   387.6978   6  10   0.4305   0.4048   1.2266  -0.1804  -0.3905   0.4004   0.00    0.0
2026/01/15 00:10:30.000   67.857341502   20.968470062   387.7811   6  10   0.4213   0.3959   1.1965  -0.1778  -0.3822   0.3868   0.00    0.0
2026/01/15 00:11:00.000   67.857341423   20.968470480   387.7752   6  10   0.4126   0.3876   1.1684  -0.1754  -0.3744   0.3742   0.00    0.0
2026/01/15 00:11:30.000   67.857341259   20.968470645   387.8026   6  10   0.4045   0.3798   1.1421  -0.1731  -0.3671   0.3625   0.00    0.0
2026/01/15 00:12:00.000   67.857341256   20.968470841   387.8344   6  10   0.3969   0.3725   1.1174  -0.1709  -0.3603   0.3518   0.00    0.0
2026/01/15 00:12:30.000   67.857341145   20.968471027   387.8544   6  10   0.3897   0.3657   1.0942  -0.1688  -0.3538   0.3417   0.00    0.0
2026/01/15 00:13:00.000   67.857341102   20.968471324   387.8695   6  10   0.3829   0.3592   1.0722  -0.1668  -0.3477   0.3324   0.00    0.0
2026/01/15 00:13:30.000   67.857341092   20.968471300   387.8919   6  10   0.3764   0.3531   1.0515  -0.1649  -0.3418   0.3237   0.00    0.0
2026/01/15 00:14:00.000   67.857341082   20.968471697   387.9182   6  10   0.3703   0.3473   1.0318  -0.1630  -0.3363   0.3155   0.00    0.0
2026/01/15 00:14:30.000   67.857341112   20.968472067   387.9457   6  10   0.3645   0.3418   1.0131  -0.1613  -0.3311   0.3078   0.00    0.0
2026/01/15 00:15:00.000   67.857341085   20.968472358   387.9489   6  10   0.3590   0.3366   0.9952  -0.1596  -0.3261   0.3006   0.00    0.0
2026/01/15 00:15:30.000   67.857341039   20.968472541   387.9907   6  10   0.3538   0.3316   0.9782  -0.1580  -0.3213   0.2937   0.00    0.0
2026/01/15 00:16:00.000   67.857341069   20.968472852   388.0039   6  10   0.3487   0.3269   0.9620  -0.1565  -0.3167   0.2873   0.00    0.0
2026/01/15 00:16:30.000   67.857341036   20.968472971   388.0102   6  10   0.3439   0.3223   0.9464  -0.1550  -0.3123   0.2812   0.00    0.0
2026/01/15 00:17:00.000   67.857341028   20.968473114   388.0131   6  10   0.3393   0.3180   0.9316  -0.1536  -0.3081   0.2754   0.00    0.0
2026/01/15 00:17:30.000   67.857340986   20.968473217   388.0168   6  10   0.3349   0.3138   0.9173  -0.1522  -0.3040   0.2699   0.00    0.0
2026/01/15 00:18:00.000   67.857340942   20.968473607   388.0150   6  10   0.3307   0.3099   0.9036  -0.1509  -0.3001   0.2647   0.00    0.0
2026/01/15 00:18:30.000   67.857340880   20.968474007   388.0444   6  10   0.3266   0.3060   0.8904  -0.1496  -0.2964   0.2597   0.00    0.0
2026/01/15 00:19:00.000   67.857340881   20.968474046   388.0476   6  10   0.3227   0.3024   0.8777  -0.1483  -0.2928   0.2550   0.00    0.0
2026/01/15 00:19:30.000   67.857340835   20.968474218   388.0409   6  10   0.3189   0.2989   0.8655  -0.1471  -0.2893   0.2504   0.00    0.0
2026/01/15 00:20:00.000   67.857340890   20.968474283   388.0483   6  10   0.3153   0.2955   0.8537  -0.1460  -0.2859   0.2461   0.00    0.0
2026/01/15 00:20:30.000   67.857340946   20.968474435   388.0737   6  10   0.3118   0.2922   0.8424  -0.1449  -0.2826   0.2421   0.00    0.0
2026/01/15 00:21:00.000   67.857340923   20.968474799   388.0901   6  10   0.3084   0.2890   0.8314  -0.1438  -0.2795   0.2382   0.00    0.0
2026/01/15 00:21:30.000   67.857340857   20.968475099   388.0863   6  10   0.3052   0.2860   0.8209  -0.1427  -0.2765   0.2345   0.00    0.0
2026/01/15 00:22:00.000   67.857340856   20.968475305   388.0912   6  10   0.3020   0.2831   0.8106  -0.1417  -0.2735   0.2310   0.00    0.0
2026/01/15 00:22:30.000   67.857340871   20.968475589   388.0977   6  10   0.2990   0.2802   0.8007  -0.1408  -0.2706   0.2276   0.00    0.0
2026/01/15 00:23:00.000   67.857340914   20.968475857   388.1080   6  10   0.2960   0.2775   0.7911  -0.1398  -0.2678   0.2243   0.00    0.0
2026/01/15 00:23:30.000   67.857340873   20.968476161   388.0960   6  10   0.2932   0.2748   0.7817  -0.1389  -0.2651   0.2212   0.00    0.0
2026/01/15 00:24:00.000   67.857340795   20.968476502   388.0742   6  10   0.2904   0.2722   0.7726  -0.1380  -0.2625   0.2182   0.00    0.0
2026/01/15 00:24:30.000   67.857340713   20.968476825   388.0370   6  10   0.2877   0.2697   0.7638  -0.1371  -0.2599   0.2153   0.00    0.0
2026/01/15 00:25:00.000   67.857340724   20.968477090   388.0459   6  10   0.2851   0.2673   0.7552  -0.1363  -0.2574   0.2126   0.00    0.0
2026/01/15 00:25:30.000   67.857340744   20.968477412   388.0613   6   9   0.2827   0.2651   0.7478  -0.1353  -0.2545   0.2105   0.00    0.0
2026/01/15 00:26:00.000   67.857340748   20.968477772   388.0624   6   9   0.2803   0.2629   0.7406  -0.1344  -0.2518   0.2085   0.00    0.0
2026/01/15 00:26:30.000   67.857340777   20.968478053   388.0666   6   9   0.2780   0.2607   0.7336  -0.1335  -0.2491   0.2066   0.00    0.0
2026/01/15 00:27:00.000   67.857340832   20.968478209   388.0751   6   8   0.2758   0.2587   0.7267  -0.1326  -0.2465   0.2048   0.00    0.0
2026/01/15 00:27:30.000   67.857340867   20.968478473   388.0846   6   8   0.2736   0.2567   0.7200  -0.1318  -0.2440   0.2030   0.00    0.0
2026/01/15 00:28:00.000   67.857340874   20.968478605   388.0972   6   8   0.2714   0.2547   0.7135  -0.1310  -0.2416   0.2013   0.00    0.0
2026/01/15 00:28:30.000   67.857340913   20.968478710   388.1137   6   9   0.2694   0.2528   0.7071  -0.1303  -0.2392   0.1996   0.00    0.0
2026/01/15 00:29:00.000   67.857340956   20.968478891   388.1319   6   9   0.2674   0.2510   0.7008  -0.1295  -0.2369   0.1980   0.00    0.0
2026/01/15 00:29:30.000   67.857340981   20.968478905   388.1469   6   9   0.2654   0.2492   0.6947  -0.1288  -0.2346   0.1965   0.00    0.0
2026/01/15 00:30:00.000   67.857341013   20.968479004   388.1607   6   9   0.2635   0.2474   0.6887  -0.1281  -0.2324   0.1950   0.00    0.0
2026/01/15 00:30:30.000   67.857341029   20.968479279   388.1618   6   8   0.2622   0.2459   0.6849  -0.1282  -0.2315   0.1959   0.00    0.0
2026/01/15 00:31:00.000   67.857341040   20.968479548   388.1579   6   8   0.2609   0.2445   0.6813  -0.1282  -0.2306   0.1967   0.00    0.0
2026/01/15 00:31:30.000   67.857340989   20.968479785   388.1703   6   8   0.2597   0.2430   0.6777  -0.1282  -0.2297   0.1975   0.00    0.0
2026/01/15 00:32:00.000   67.857341011   20.968480087   388.1625   6   8   0.2585   0.2416   0.6741  -0.1283  -0.2289   0.1983   0.00    0.0
2026/01/15 00:32:30.000   67.857341004   20.968480260   388.1653   6   8   0.2573   0.2403   0.6706  -0.1283  -0.2280   0.1990   0.00    0.0
2026/01/15 00:33:00.000   67.857341002   20.968480482   388.1658   6   8   0.2561   0.2389   0.6672  -0.1283  -0.2271   0.1996   0.00    0.0
2026/01/15 00:33:30.000   67.857340987   20.968480658   388.1665   6   8   0.2550   0.2376   0.6638  -0.1283  -0.2263   0.2004   0.00    0.0
2026/01/15 00:34:00.000   67.857340961   20.968480816   388.1604   6   8   0.2539   0.2364   0.6606  -0.1283  -0.2255   0.2010   0.00    0.0
2026/01/15 00:34:30.000   67.857340913   20.968481002   388.1634   6   8   0.2529   0.2351   0.6574  -0.1283  -0.2247   0.2017   0.00    0.0
2026/01/15 00:35:00.000   67.857340909   20.968481147   388.1629   6   8   0.2518   0.2339   0.6542  -0.1283  -0.2240   0.2022   0.00    0.0
2026/01/15 00:35:30.000   67.857340882   20.968481408   388.1700   6   8   0.2508   0.2327   0.6510  -0.1283  -0.2232   0.2028   0.00    0.0
2026/01/15 00:36:00.000   67.857340850   20.968481667   388.1636   6   8   0.2497   0.2315   0.6479  -0.1283  -0.2224   0.2033   0.00    0.0
2026/01/15 00:36:30.000   67.857340842   20.968481880   388.1614   6   8   0.2487   0.2303   0.6448  -0.1283  -0.2216   0.2038   0.00    0.0
2026/01/15 00:37:00.000   67.857340805   20.968482080   388.1593   6   8   0.2477   0.2292   0.6418  -0.1283  -0.2208   0.2043   0.00    0.0
2026/01/15 00:37:30.000   67.857340764   20.968482264   388.1590   6   8   0.2468   0.2280   0.6387  -0.1282  -0.2201   0.2047   0.00    0.0
2026/01/15 00:38:00.000   67.857340761   20.968482502   388.1501   6   8   0.2458   0.2269   0.6357  -0.1282  -0.2193   0.2051   0.00    0.0
2026/01/15 00:38:30.000   67.857340774   20.968482722   388.1413   6   8   0.2449   0.2258   0.6328  -0.1281  -0.2185   0.2055   0.00    0.0
2026/01/15 00:39:00.000   67.857340777   20.968482910   388.1358   6   8   0.2440   0.2248   0.6298  -0.1281  -0.2178   0.2058   0.00    0.0
2026/01/15 00:39:30.000   67.857340774   20.968483117   388.1283   6   8   0.2430   0.2237   0.6269  -0.1280  -0.2170   0.2061   0.00    0.0
2026/01/15 00:40:00.000   67.857340736   20.968483306   388.1330   6   8   0.2421   0.2227   0.6240  -0.1279  -0.2162   0.2064   0.00    0.0
2026/01/15 00:40:30.000   67.857340698   20.968483462   388.1305   6   8   0.2413   0.2216   0.6211  -0.1278  -0.2155   0.2066   0.00    0.0
2026/01/15 00:41:00.000   67.857340677   20.968483632   388.1337   6   8   0.2404   0.2206   0.6183  -0.1277  -0.2147   0.2069   0.00    0.0
2026/01/15 00:41:30.000   67.857340651   20.968483779   388.1407   6   8   0.2395   0.2196   0.6154  -0.1277  -0.2139   0.2071   0.00    0.0
2026/01/15 00:42:00.000   67.857340629   20.968483931   388.1468   6   8   0.2387   0.2187   0.6126  -0.1276  -0.2131   0.2072   0.00    0.0
2026/01/15 00:42:30.000   67.857340602   20.968484059   388.1450   6   7   0.2379   0.2177   0.6098  -0.1274  -0.2124   0.2074   0.00    0.0
2026/01/15 00:43:00.000   67.857340620   20.968484154   388.1421   6   8   0.2370   0.2168   0.6071  -0.1273  -0.2116   0.2075   0.00    0.0
2026/01/15 00:43:30.000   67.857340620   20.968484375   388.1485   6   8   0.2362   0.2158   0.6043  -0.1272  -0.2108   0.2077   0.00    0.0
2026/01/15 00:44:00.000   67.857340624   20.968484470   388.1455   6   8   0.2354   0.2149   0.6016  -0.1271  -0.2100   0.2077   0.00    0.0
2026/01/15 00:44:30.000   67.857340687   20.968484562   388.1332   6   9   0.2345   0.2139   0.5986  -0.1267  -0.2095   0.2082   0.00    0.0
2026/01/15 00:45:00.000   67.857340700   20.968484581   388.1305   6   9   0.2335   0.2129   0.5957  -0.1264  -0.2090   0.2085   0.00    0.0
2026/01/15 00:45:30.000   67.857340743   20.968484620   388.1228   6   9   0.2326   0.2119   0.5929  -0.1260  -0.2084   0.2089   0.00    0.0
2026/01/15 00:46:00.000   67.857340786   20.968484745   388.1177   6   9   0.2317   0.2110   0.5900  -0.1257  -0.2078   0.2091   0.00    0.0
2026/01/15 00:46:30.000   67.857340857   20.968484803   388.1041   6   9   0.2308   0.2100   0.5872  -0.1253  -0.2072   0.2094   0.00    0.0
2026/01/15 00:47:00.000   67.857340943   20.968484893   388.0983   6   9   0.2299   0.2091   0.5844  -0.1250  -0.2066   0.2096   0.00    0.0
2026/01/15 00:47:30.000   67.857341011   20.968484890   388.0907   6   9   0.2290   0.2081   0.5816  -0.1246  -0.2060   0.2098   0.00    0.0
2026/01/15 00:48:00.000   67.857341065   20.968484941   388.0918   6   9   0.2281   0.2072   0.5789  -0.1242  -0.2054   0.2100   0.00    0.0
2026/01/15 00:48:30.000   67.857341145   20.968484954   388.0878   6   9   0.2273   0.2063   0.5761  -0.1239  -0.2047   0.2101   0.00    0.0
2026/01/15 00:49:00.000   67.857341210   20.968484959   388.0884   6   9   0.2264   0.2054   0.5734  -0.1235  -0.2041   0.2102   0.00    0.0
2026/01/15 00:49:30.000   67.857341298   20.968484963   388.0851   6   9   0.2256   0.2045   0.5708  -0.1231  -0.2034   0.2102   0.00    0.0
2026/01/15 00:50:00.000   67.857341394   20.968484922   388.0736   6   9   0.2247   0.2036   0.5681  -0.1227  -0.2027   0.2103   0.00    0.0
2026/01/15 00:50:30.000   67.857341494   20.968484851   388.0688   6   9   0.2239   0.2027   0.5654  -0.1223  -0.2021   0.2103   0.00    0.0
2026/01/15 00:51:00.000   67.857341583   20.968484842   388.0686   6   9   0.2231   0.2018   0.5628  -0.1219  -0.2014   0.2102   0.00    0.0
2026/01/15 00:51:30.000   67.857341682   20.968484839   388.0673   6   9   0.2223   0.2010   0.5602  -0.1215  -0.2007   0.2102   0.00    0.0
2026/01/15 00:52:00.000   67.857341743   20.968484806   388.0730   6   8   0.2215   0.2001   0.5576  -0.1211  -0.1999   0.2101   0.00    0.0
2026/01/15 00:52:30.000   67.857341819   20.968484730   388.0754   6   8   0.2207   0.1992   0.5550  -0.1207  -0.1992   0.2100   0.00    0.0
2026/01/15 00:53:00.000   67.857341900   20.968484691   388.0784   6   8   0.2199   0.1984   0.5524  -0.1203  -0.1985   0.2099   0.00    0.0
2026/01/15 00:53:30.000   67.857341984   20.968484675   388.0762   6   8   0.2191   0.1976   0.5499  -0.1199  -0.1977   0.2097   0.00    0.0
2026/01/15 00:54:00.000   67.857342054   20.968484652   388.0782   6   8   0.2183   0.1967   0.5473  -0.1195  -0.1969   0.2096   0.00    0.0
2026/01/15 00:54:30.000   67.857342148   20.968484598   388.0749   6   8   0.2176   0.1959   0.5448  -0.1191  -0.1962   0.2094   0.00    0.0
2026/01/15 00:55:00.000   67.857342224   20.968484593   388.0720   6   8   0.2168   0.1951   0.5423  -0.1186  -0.1954   0.2091   0.00    0.0
2026/01/15 00:55:30.000   67.857342309   20.968484551   388.0743   6   8   0.2160   0.1943   0.5398  -0.1182  -0.1946   0.2089   0.00    0.0
2026/01/15 00:56:00.000   67.857342397   20.968484498   388.0750   6   8   0.2153   0.1935   0.5373  -0.1178  -0.1938   0.2086   0.00    0.0
2026/01/15 00:56:30.000   67.857342474   20.968484391   388.0814   6   8   0.2146   0.1927   0.5348  -0.1173  -0.1929   0.2083   0.00    0.0
2026/01/15 00:57:00.000   67.857342621   20.968484336   388.0693   6   8   0.2139   0.1919   0.5325  -0.1169  -0.1921   0.2078   0.00    0.0
2026/01/15 00:57:30.000   67.857342792   20.968484242   388.0695   6   7   0.2133   0.1912   0.5306  -0.1164  -0.1910   0.2074   0.00    0.0
2026/01/15 00:58:00.000   67.857342966   20.968484215   388.0642   6   7   0.2127   0.1904   0.5287  -0.1159  -0.1899   0.2070   0.00    0.0
2026/01/15 00:58:30.000   67.857343110   20.968484184   388.0665   6   7   0.2121   0.1897   0.5268  -0.1154  -0.1888   0.2067   0.00    0.0
2026/01/15 00:59:00.000   67.857343268   20.968484147   388.0665   6   7   0.2116   0.1890   0.5250  -0.1149  -0.1878   0.2063   0.00    0.0
2026/01/15 00:59:30.000   67.857343403   20.968484086   388.0743   6   7   0.2110   0.1882   0.5231  -0.1144  -0.1867   0.2058   0.00    0.0
2026/01/15 01:00:00.000   67.857343540   20.968484103   388.0621   6   7   0.2104   0.1874   0.5211  -0.1138  -0.1853   0.2053   0.00    0.0
2026/01/15 01:00:30.000   67.857343652   20.968484086   388.0573   6   7   0.2097   0.1866   0.5191  -0.1132  -0.1840   0.2048   0.00    0.0
2026/01/15 01:01:00.000   67.857343760   20.968484068   388.0558   6   7   0.2091   0.1857   0.5171  -0.1126  -0.1827   0.2043   0.00    0.0
2026/01/15 01:01:30.000   67.857343886   20.968484081   388.0479   6   7   0.2085   0.1849   0.5151  -0.1120  -0.1814   0.2038   0.00    0.0
2026/01/15 01:02:00.000   67.857344010   20.968484079   388.0424   6   7   0.2080   0.1841   0.5131  -0.1113  -0.1800   0.2032   0.00    0.0
2026/01/15 01:02:30.000   67.857344130   20.968484062   388.0399   6   7   0.2074   0.1833   0.5112  -0.1107  -0.1787   0.2027   0.00    0.0
2026/01/15 01:03:00.000   67.857344315   20.968483739   388.0819   6   7   0.2067   0.1823   0.5084  -0.1099  -0.1767   0.2018   0.00    0.0
2026/01/15 01:03:30.000   67.857344502   20.968483426   388.1184   6   7   0.2061   0.1813   0.5057  -0.1091  -0.1746   0.2010   0.00    0.0
2026/01/15 01:04:00.000   67.857344678   20.968483141   388.1581   6   7   0.2054   0.1803   0.5030  -0.1083  -0.1726   0.2001   0.00    0.0
2026/01/15 01:04:30.000   67.857344860   20.968482769   388.2069   6   7   0.2048   0.1793   0.5003  -0.1075  -0.1706   0.1993   0.00    0.0
2026/01/15 01:05:00.000   67.857345035   20.968482505   388.2403   6   7   0.2042   0.1783   0.4977  -0.1068  -0.1687   0.1984   0.00    0.0
2026/01/15 01:05:30.000   67.857345205   20.968482213   388.2812   6   7   0.2036   0.1774   0.4951  -0.1060  -0.1667   0.1976   0.00    0.0
2026/01/15 01:06:00.000   67.857345371   20.968482046   388.3119   6   7   0.2030   0.1764   0.4926  -0.1052  -0.1648   0.1968   0.00    0.0
2026/01/15 01:06:30.000   67.857345533   20.968481810   388.3423   6   7   0.2023   0.1755   0.4900  -0.1045  -0.1629   0.1960   0.00    0.0
2026/01/15 01:07:00.000   67.857345724   20.968481476   388.3841   6   7   0.2017   0.1746   0.4875  -0.1037  -0.1610   0.1951   0.00    0.0
2026/01/15 01:07:30.000   67.857345896   20.968481172   388.4257   6   7   0.2011   0.1737   0.4851  -0.1030  -0.1591   0.1943   0.00    0.0
2026/01/15 01:08:00.000   67.857346077   20.968480867   388.4691   6   7   0.2005   0.1728   0.4826  -0.1022  -0.1573   0.1935   0.00    0.0
2026/01/15 01:08:30.000   67.857346252   20.968480598   388.5025   6   7   0.1999   0.1720   0.4802  -0.1015  -0.1554   0.1927   0.00    0.0
2026/01/15 01:09:00.000   67.857346422   20.968480378   388.5353   6   7   0.1994   0.1711   0.4778  -0.1008  -0.1536   0.1920   0.00    0.0
2026/01/15 01:09:30.000   67.857346576   20.968480196   388.5626   6   7   0.1988   0.1703   0.4755  -0.1001  -0.1518   0.1912   0.00    0.0
2026/01/15 01:10:00.000   67.857346757   20.968479895   388.6008   6   7   0.1982   0.1694   0.4731  -0.0993  -0.1500   0.1904   0.00    0.0
2026/01/15 01:10:30.000   67.857346938   20.968479538   388.6456   6   7   0.1976   0.1686   0.4708  -0.0986  -0.1482   0.1896   0.00    0.0
2026/01/15 01:11:00.000   67.857347102   20.968479281   388.6826   6   7   0.1971   0.1678   0.4685  -0.0979  -0.1465   0.1889   0.00    0.0
2026/01/15 01:11:30.000   67.857347274   20.968479015   388.7185   6   7   0.1965   0.1670   0.4663  -0.0973  -0.1448   0.1881   0.00    0.0
2026/01/15 01:12:00.000   67.857347468   20.968478741   388.7520   6   7   0.1959   0.1662   0.4640  -0.0966  -0.1430   0.1874   0.00    0.0
2026/01/15 01:12:30.000   67.857347622   20.968478474   388.7918   6   7   0.1954   0.1654   0.4618  -0.0959  -0.1413   0.1866   0.00    0.0
2026/01/15 01:13:00.000   67.857347790   20.968478248   388.8237   6   7   0.1948   0.1647   0.4596  -0.0952  -0.1396   0.1859   0.00    0.0
2026/01/15 01:13:30.000   67.857347955   20.968477976   388.8619   6   7   0.1943   0.1639   0.4575  -0.0946  -0.1380   0.1851   0.00    0.0
2026/01/15 01:14:00.000   67.857348114   20.968477748   388.8964   6   7   0.1937   0.1632   0.4553  -0.0939  -0.1363   0.1844   0.00    0.0
2026/01/15 01:14:30.000   67.857348286   20.968477481   388.9296   6   7   0.1932   0.1625   0.4532  -0.0933  -0.1346   0.1836   0.00    0.0
2026/01/15 01:15:00.000   67.857348450   20.968477260   388.9620   6   7   0.1926   0.1617   0.4511  -0.0926  -0.1330   0.1829   0.00    0.0
2026/01/15 01:15:30.000   67.857348618   20.968477010   388.9929   6   7   0.1921   0.1610   0.4490  -0.0920  -0.1314   0.1822   0.00    0.0
2026/01/15 01:16:00.000   67.857348774   20.968476778   389.0277   6   7   0.1916   0.1603   0.4470  -0.0913  -0.1298   0.1814   0.00    0.0
2026/01/15 01:16:30.000   67.857348925   20.968476575   389.0594   6   7   0.1910   0.1596   0.4449  -0.0907  -0.1282   0.1807   0.00    0.0
2026/01/15 01:17:00.000   67.857349095   20.968476348   389.0928   6   7   0.1905   0.1590   0.4429  -0.0901  -0.1266   0.1800   0.00    0.0
2026/01/15 01:17:30.000   67.857349243   20.968476147   389.1241   6   7   0.1900   0.1583   0.4409  -0.0895  -0.1250   0.1793   0.00    0.0
2026/01/15 01:18:00.000   67.857349405   20.968475903   389.1582   6   7   0.1895   0.1576   0.4389  -0.0889  -0.1235   0.1786   0.00    0.0
2026/01/15 01:18:30.000   67.857349556   20.968475710   389.1885   6   7   0.1890   0.1570   0.4369  -0.0883  -0.1219   0.1778   0.00    0.0
2026/01/15 01:19:00.000   67.857349702   20.968475471   389.2198   6   7   0.1884   0.1563   0.4350  -0.0877  -0.1204   0.1771   0.00    0.0
2026/01/15 01:19:30.000   67.857349853   20.968475299   389.2492   6   7   0.1879   0.1557   0.4330  -0.0871  -0.1189   0.1764   0.00    0.0
2026/01/15 01:20:00.000   67.857350014   20.968475100   389.2759   6   7   0.1874   0.1551   0.4311  -0.0865  -0.1174   0.1757   0.00    0.0
2026/01/15 01:20:30.000   67.857350175   20.968474885   389.3046   6   7   0.1869   0.1545   0.4292  -0.0859  -0.1159   0.1750   0.00    0.0
2026/01/15 01:21:00.000   67.857350314   20.968474723   389.3310   6   7   0.1864   0.1539   0.4273  -0.0853  -0.1144   0.1743   0.00    0.0
2026/01/15 01:21:30.000   67.857350476   20.968474511   389.3599   6   7   0.1859   0.1533   0.4254  -0.0848  -0.1129   0.1736   0.00    0.0
2026/01/15 01:22:00.000   67.857350627   20.968474315   389.3866   6   7   0.1854   0.1527   0.4236  -0.0842  -0.1114   0.1729   0.00    0.0
2026/01/15 01:22:30.000   67.857350793   20.968474096   389.4154   6   7   0.1849   0.1521   0.4217  -0.0837  -0.1100   0.1722   0.00    0.0
2026/01/15 01:23:00.000   67.857350940   20.968473912   389.4411   6   7   0.1844   0.1515   0.4199  -0.0831  -0.1085   0.1715   0.00    0.0
2026/01/15 01:23:30.000   67.857351081   20.968473738   389.4672   6   7   0.1840   0.1509   0.4181  -0.0826  -0.1071   0.1708   0.00    0.0
2026/01/15 01:24:00.000   67.857351225   20.968473522   389.4943   6   7   0.1835   0.1504   0.4163  -0.0820  -0.1057   0.1701   0.00    0.0
2026/01/15 01:24:30.000   67.857351367   20.968473335   389.5193   6   7   0.1830   0.1498   0.4145  -0.0815  -0.1042   0.1694   0.00    0.0
2026/01/15 01:25:00.000   67.857351506   20.968473119   389.5489   6   6   0.1825   0.1493   0.4129  -0.0809  -0.1029   0.1686   0.00    0.0
2026/01/15 01:25:30.000   67.857351629   20.968472963   389.5740   6   6   0.1821   0.1488   0.4112  -0.0804  -0.1017   0.1678   0.00    0.0
2026/01/15 01:26:00.000   67.857351768   20.968472746   389.6051   6   6   0.1816   0.1483   0.4096  -0.0798  -0.1004   0.1670   0.00    0.0
2026/01/15 01:26:30.000   67.857351894   20.968472583   389.6311   6   6   0.1812   0.1477   0.4080  -0.0793  -0.0991   0.1662   0.00    0.0
2026/01/15 01:27:00.000   67.857352027   20.968472406   389.6593   6   6   0.1807   0.1472   0.4065  -0.0787  -0.0978   0.1655   0.00    0.0
2026/01/15 01:27:30.000   67.857352143   20.968472240   389.6849   6   6   0.1803   0.1467   0.4049  -0.0782  -0.0965   0.1647   0.00    0.0
2026/01/15 01:28:00.000   67.857352274   20.968472037   389.7121   6   6   0.1799   0.1463   0.4033  -0.0777  -0.0953   0.1639   0.00    0.0
2026/01/15 01:28:30.000   67.857352393   20.968471867   389.7374   6   6   0.1794   0.1458   0.4017  -0.0772  -0.0940   0.1631   0.00    0.0
2026/01/15 01:29:00.000   67.857352517   20.968471674   389.7651   6   6   0.1790   0.1453   0.4002  -0.0766  -0.0928   0.1624   0.00    0.0
2026/01/15 01:29:30.000   67.857352637   20.968471493   389.7918   6   6   0.1785   0.1448   0.3986  -0.0761  -0.0916   0.1616   0.00    0.0
2026/01/15 01:30:00.000   67.857352754   20.968471320   389.8181   6   6   0.1781   0.1443   0.3971  -0.0756  -0.0903   0.1608   0.00    0.0
2026/01/15 01:30:30.000   67.857352878   20.968471136   389.8439   6   6   0.1777   0.1439   0.3956  -0.0751  -0.0891   0.1600   0.00    0.0
2026/01/15 01:31:00.000   67.857352975   20.968471076   389.8600   6   6   0.1772   0.1434   0.3940  -0.0747  -0.0879   0.1593   0.00    0.0
2026/01/15 01:31:30.000   67.857353088   20.968470924   389.8809   6   6   0.1768   0.1430   0.3925  -0.0742  -0.0867   0.1585   0.00    0.0
2026/01/15 01:32:00.000   67.857353213   20.968470738   389.9076   6   6   0.1764   0.1425   0.3910  -0.0737  -0.0854   0.1578   0.00    0.0
2026/01/15 01:32:30.000   67.857353324   20.968470606   389.9289   6   6   0.1760   0.1421   0.3895  -0.0732  -0.0842   0.1570   0.00    0.0
2026/01/15 01:33:00.000   67.857353435   20.968470475   389.9486   6   6   0.1755   0.1416   0.3880  -0.0728  -0.0830   0.1562   0.00    0.0
2026/01/15 01:33:30.000   67.857353559   20.968470311   389.9711   6   6   0.1751   0.1412   0.3865  -0.0723  -0.0819   0.1555   0.00    0.0
2026/01/15 01:34:00.000   67.857353680   20.968470155   389.9941   6   6   0.1747   0.1408   0.3850  -0.0719  -0.0807   0.1547   0.00    0.0
2026/01/15 01:34:30.000   67.857353785   20.968470064   390.0143   6   6   0.1743   0.1404   0.3836  -0.0714  -0.0795   0.1540   0.00    0.0
2026/01/15 01:35:00.000   67.857353890   20.968469910   390.0356   6   6   0.1739   0.1399   0.3821  -0.0710  -0.0783   0.1532   0.00    0.0
2026/01/15 01:35:30.000   67.857353983   20.968469834   390.0527   6   6   0.1734   0.1395   0.3806  -0.0706  -0.0771   0.1525   0.00    0.0
2026/01/15 01:36:00.000   67.857354092   20.968469674   390.0749   6   6   0.1730   0.1391   0.3792  -0.0702  -0.0760   0.1517   0.00    0.0
2026/01/15 01:36:30.000   67.857354195   20.968469522   390.0967   6   6   0.1726   0.1387   0.3778  -0.0697  -0.0748   0.1510   0.00    0.0
2026/01/15 01:37:00.000   67.857354303   20.968469372   390.1167   6   6   0.1722   0.1383   0.3763  -0.0693  -0.0737   0.1502   0.00    0.0
2026/01/15 01:37:30.000   67.857354405   20.968469216   390.1380   6   6   0.1718   0.1379   0.3749  -0.0689  -0.0725   0.1495   0.00    0.0
2026/01/15 01:38:00.000   67.857354502   20.968469112   390.1589   6   6   0.1714   0.1376   0.3735  -0.0685  -0.0713   0.1487   0.00    0.0
2026/01/15 01:38:30.000   67.857354599   20.968468971   390.1793   6   6   0.1710   0.1372   0.3721  -0.0681  -0.0702   0.1480   0.00    0.0
2026/01/15 01:39:00.000   67.857354687   20.968468840   390.2009   6   6   0.1706   0.1368   0.3706  -0.0678  -0.0691   0.1473   0.00    0.0
2026/01/15 01:39:30.000   67.857354780   20.968468695   390.2194   6   6   0.1702   0.1364   0.3692  -0.0674  -0.0679   0.1465   0.00    0.0
2026/01/15 01:40:00.000   67.857354888   20.968468583   390.2372   6   6   0.1698   0.1360   0.3678  -0.0670  -0.0668   0.1458   0.00    0.0
2026/01/15 01:40:30.000   67.857354989   20.968468415   390.2562   6   6   0.1694   0.1357   0.3665  -0.0667  -0.0657   0.1450   0.00    0.0
2026/01/15 01:41:00.000   67.857355076   20.968468316   390.2714   6   6   0.1690   0.1353   0.3651  -0.0663  -0.0645   0.1443   0.00    0.0
2026/01/15 01:41:30.000   67.857355161   20.968468201   390.2907   6   6   0.1686   0.1350   0.3637  -0.0659  -0.0634   0.1436   0.00    0.0
2026/01/15 01:42:00.000   67.857355254   20.968468073   390.3079   6   6   0.1682   0.1346   0.3623  -0.0656  -0.0623   0.1428   0.00    0.0
2026/01/15 01:42:30.000   67.857355328   20.968467964   390.3221   6   6   0.1678   0.1343   0.3609  -0.0653  -0.0612   0.1421   0.00    0.0
2026/01/15 01:43:00.000   67.857355414   20.968467845   390.3409   6   6   0.1674   0.1339   0.3596  -0.0649  -0.0600   0.1414   0.00    0.0
2026/01/15 01:43:30.000   67.857355493   20.968467756   390.3566   6   6   0.1670   0.1336   0.3582  -0.0646  -0.0589   0.1406   0.00    0.0
2026/01/15 01:44:00.000   67.857355558   20.968467655   390.3709   6   6   0.1667   0.1332   0.3569  -0.0643  -0.0578   0.1399   0.00    0.0
2026/01/15 01:44:30.000   67.857355651   20.968467540   390.3882   6   6   0.1663   0.1329   0.3555  -0.0640  -0.0567   0.1392   0.00    0.0
2026/01/15 01:45:00.000   67.857355732   20.968467440   390.4025   6   6   0.1659   0.1326   0.3542  -0.0637  -0.0556   0.1385   0.00    0.0
2026/01/15 01:45:30.000   67.857355817   20.968467343   390.4185   6   6   0.1655   0.1322   0.3529  -0.0634  -0.0545   0.1377   0.00    0.0
2026/01/15 01:46:00.000   67.857355896   20.968467240   390.4349   6   6   0.1651   0.1319   0.3515  -0.0631  -0.0534   0.1370   0.00    0.0
2026/01/15 01:46:30.000   67.857355966   20.968467137   390.4485   6   6   0.1647   0.1316   0.3502  -0.0628  -0.0523   0.1363   0.00    0.0
2026/01/15 01:47:00.000   67.857356044   20.968467038   390.4616   6   6   0.1644   0.1313   0.3489  -0.0625  -0.0512   0.1356   0.00    0.0
2026/01/15 01:47:30.000   67.857356123   20.968466951   390.4754   6   6   0.1640   0.1310   0.3476  -0.0622  -0.0501   0.1349   0.00    0.0
2026/01/15 01:48:00.000   67.857356190   20.968466851   390.4905   6   6   0.1636   0.1307   0.3463  -0.0619  -0.0490   0.1342   0.00    0.0
2026/01/15 01:48:30.000   67.857356266   20.968466741   390.5021   6   6   0.1632   0.1303   0.3450  -0.0617  -0.0479   0.1335   0.00    0.0
2026/01/15 01:49:00.000   67.857356330   20.968466667   390.5140   6   6   0.1629   0.1300   0.3437  -0.0614  -0.0468   0.1328   0.00    0.0
2026/01/15 01:49:30.000   67.857356398   20.968466603   390.5258   6   7   0.1624   0.1297   0.3423  -0.0611  -0.0458   0.1322   0.00    0.0
2026/01/15 01:50:00.000   67.857356481   20.968466518   390.5380   6   7   0.1620   0.1294   0.3410  -0.0608  -0.0448   0.1316   0.00    0.0
2026/01/15 01:50:30.000   67.857356548   20.968466465   390.5478   6   7   0.1616   0.1291   0.3397  -0.0605  -0.0438   0.1310   0.00    0.0
2026/01/15 01:51:00.000   67.857356623   20.968466368   390.5611   6   7   0.1611   0.1288   0.3383  -0.0602  -0.0427   0.1304   0.00    0.0
2026/01/15 01:51:30.000   67.857356697   20.968466264   390.5738   6   7   0.1607   0.1286   0.3370  -0.0600  -0.0417   0.1298   0.00    0.0
2026/01/15 01:52:00.000   67.857356785   20.968466149   390.5867   6   7   0.1603   0.1283   0.3357  -0.0597  -0.0407   0.1292   0.00    0.0
2026/01/15 01:52:30.000   67.857356859   20.968466075   390.6005   6   7   0.1599   0.1280   0.3344  -0.0594  -0.0397   0.1286   0.00    0.0
2026/01/15 01:53:00.000   67.857356927   20.968465995   390.6109   6   7   0.1594   0.1277   0.3331  -0.0592  -0.0387   0.1280   0.00    0.0
2026/01/15 01:53:30.000   67.857356993   20.968465902   390.6206   6   7   0.1590   0.1274   0.3318  -0.0589  -0.0377   0.1274   0.00    0.0
2026/01/15 01:54:00.000   67.857357066   20.968465822   390.6285   6   7   0.1586   0.1271   0.3305  -0.0587  -0.0366   0.1269   0.00    0.0
2026/01/15 01:54:30.000   67.857357116   20.968465724   390.6364   6   7   0.1582   0.1268   0.3292  -0.0584  -0.0356   0.1263   0.00    0.0
2026/01/15 01:55:00.000   67.857357185   20.968465653   390.6459   6   7   0.1577   0.1266   0.3280  -0.0582  -0.0346   0.1257   0.00    0.0
2026/01/15 01:55:30.000   67.857357254   20.968465546   390.6550   6   7   0.1573   0.1263   0.3267  -0.0579  -0.0336   0.1251   0.00    0.0
2026/01/15 01:56:00.000   67.857357314   20.968465451   390.6642   6   7   0.1569   0.1260   0.3254  -0.0577  -0.0326   0.1245   0.00    0.0
2026/01/15 01:56:30.000   67.857357387   20.968465353   390.6739   6   7   0.1565   0.1258   0.3242  -0.0575  -0.0315   0.1240   0.00    0.0
2026/01/15 01:57:00.000   67.857357456   20.968465268   390.6830   6   7   0.1561   0.1255   0.3229  -0.0572  -0.0305   0.1234   0.00    0.0
2026/01/15 01:57:30.000   67.857357533   20.968465121   390.6829   6   8   0.1557   0.1252   0.3216  -0.0569  -0.0300   0.1229   0.00    0.0
2026/01/15 01:58:00.000   67.857357602   20.968464981   390.6868   6   8   0.1552   0.1249   0.3203  -0.0567  -0.0294   0.1224   0.00    0.0
2026/01/15 01:58:30.000   67.857357670   20.968464839   390.6882   6   8   0.1548   0.1245   0.3190  -0.0564  -0.0289   0.1218   0.00    0.0
2026/01/15 01:59:00.000   67.857357729   20.968464708   390.6914   6   8   0.1544   0.1242   0.3177  -0.0561  -0.0283   0.1213   0.00    0.0
2026/01/15 01:59:30.000   67.857357802   20.968464554   390.6920   6   8   0.1540   0.1239   0.3165  -0.0559  -0.0278   0.1208   0.00    0.0
2026/01/15 02:00:00.000   67.857357847   20.968464400   390.6972   6   8   0.1536   0.1236   0.3152  -0.0556  -0.0273   0.1203   0.00    0.0
2026/01/15 02:00:30.000   67.857357910   20.968464249   390.7009   6   8   0.1532   0.1233   0.3139  -0.0553  -0.0268   0.1198   0.00    0.0
2026/01/15 02:01:00.000   67.857357966   20.968464081   390.7041   6   8   0.1528   0.1230   0.3127  -0.0550  -0.0264   0.1193   0.00    0.0
2026/01/15 02:01:30.000   67.857358028   20.968463948   390.7077   6   8   0.1524   0.1227   0.3115  -0.0547  -0.0259   0.1188   0.00    0.0
2026/01/15 02:02:00.000   67.857358088   20.968463789   390.7107   6   8   0.1521   0.1224   0.3102  -0.0544  -0.0254   0.1183   0.00    0.0
2026/01/15 02:02:30.000   67.857358141   20.968463660   390.7100   6   9   0.1517   0.1221   0.3089  -0.0541  -0.0246   0.1178   0.00    0.0
2026/01/15 02:03:00.000   67.857358185   20.968463524   390.7075   6   9   0.1513   0.1218   0.3077  -0.0538  -0.0238   0.1172   0.00    0.0
2026/01/15 02:03:30.000   67.857358229   20.968463404   390.7060   6   9   0.1509   0.1215   0.3064  -0.0535  -0.0230   0.1167   0.00    0.0
2026/01/15 02:04:00.000   67.857358264   20.968463293   390.7014   6   9   0.1505   0.1212   0.3051  -0.0532  -0.0222   0.1161   0.00    0.0
2026/01/15 02:04:30.000   67.857358315   20.968463160   390.7022   6   9   0.1501   0.1209   0.3039  -0.0529  -0.0214   0.1156   0.00    0.0
2026/01/15 02:05:00.000   67.857358359   20.968463031   390.7037   6   9   0.1497   0.1206   0.3026  -0.0526  -0.0206   0.1151   0.00    0.0
2026/01/15 02:05:30.000   67.857358407   20.968462917   390.7016   6   9   0.1493   0.1203   0.3014  -0.0523  -0.0198   0.1145   0.00    0.0
2026/01/15 02:06:00.000   67.857358443   20.968462810   390.7002   6   9   0.1490   0.1200   0.3002  -0.0520  -0.0190   0.1140   0.00    0.0
2026/01/15 02:06:30.000   67.857358481   20.968462689   390.6976   6   9   0.1486   0.1197   0.2990  -0.0517  -0.0182   0.1135   0.00    0.0
2026/01/15 02:07:00.000   67.857358516   20.968462560   390.6975   6   9   0.1482   0.1194   0.2978  -0.0515  -0.0174   0.1130   0.00    0.0
2026/01/15 02:07:30.000   67.857358558   20.968462429   390.6979   6   9   0.1478   0.1191   0.2966  -0.0512  -0.0165   0.1125   0.00    0.0
2026/01/15 02:08:00.000   67.857358590   20.968462291   390.6970   6   9   0.1475   0.1188   0.2954  -0.0509  -0.0157   0.1120   0.00    0.0
2026/01/15 02:08:30.000   67.857358604   20.968462168   390.6936   6  10   0.1470   0.1185   0.2942  -0.0506  -0.0149   0.1113   0.00    0.0
2026/01/15 02:09:00.000   67.857358606   20.968462061   390.6885   6  10   0.1466   0.1182   0.2929  -0.0504  -0.0142   0.1106   0.00    0.0
2026/01/15 02:09:30.000   67.857358598   20.968461932   390.6783   6  10   0.1461   0.1179   0.2917  -0.0502  -0.0134   0.1100   0.00    0.0
2026/01/15 02:10:00.000   67.857358599   20.968461827   390.6734   6  10   0.1457   0.1176   0.2904  -0.0499  -0.0126   0.1093   0.00    0.0
2026/01/15 02:10:30.000   67.857358576   20.968461733   390.6617   6  10   0.1453   0.1173   0.2892  -0.0497  -0.0118   0.1087   0.00    0.0
2026/01/15 02:11:00.000   67.857358553   20.968461656   390.6526   6  10   0.1448   0.1171   0.2880  -0.0494  -0.0109   0.1080   0.00    0.0
2026/01/15 02:11:30.000   67.857358571   20.968461526   390.6502   6  10   0.1444   0.1168   0.2868  -0.0492  -0.0101   0.1074   0.00    0.0
2026/01/15 02:12:00.000   67.857358576   20.968461406   390.6434   6   9   0.1441   0.1165   0.2861  -0.0491  -0.0107   0.1072   0.00    0.0
2026/01/15 02:12:30.000   67.857358587   20.968461277   390.6387   6   9   0.1438   0.1163   0.2855  -0.0490  -0.0113   0.1070   0.00    0.0
2026/01/15 02:13:00.000   67.857358585   20.968461157   390.6362   6   9   0.1435   0.1160   0.2848  -0.0489  -0.0119   0.1069   0.00    0.0
2026/01/15 02:13:30.000   67.857358586   20.968461065   390.6317   6   9   0.1433   0.1158   0.2841  -0.0488  -0.0125   0.1067   0.00    0.0
2026/01/15 02:14:00.000   67.857358579   20.968460983   390.6256   6   9   0.1430   0.1155   0.2835  -0.0488  -0.0130   0.1065   0.00    0.0
2026/01/15 02:14:30.000   67.857358566   20.968460871   390.6173   6   9   0.1427   0.1152   0.2828  -0.0487  -0.0135   0.1064   0.00    0.0
2026/01/15 02:15:00.000   67.857358554   20.968460801   390.6093   6   9   0.1424   0.1150   0.2822  -0.0486  -0.0140   0.1062   0.00    0.0
2026/01/15 02:15:30.000   67.857358536   20.968460713   390.6030   6   9   0.1421   0.1147   0.2815  -0.0485  -0.0144   0.1060   0.00    0.0
2026/01/15 02:16:00.000   67.857358506   20.968460629   390.5940   6   9   0.1418   0.1145   0.2809  -0.0484  -0.0149   0.1059   0.00    0.0
2026/01/15 02:16:30.000   67.857358494   20.968460527   390.5862   6   9   0.1415   0.1142   0.2803  -0.0483  -0.0153   0.1057   0.00    0.0
2026/01/15 02:17:00.000   67.857358490   20.968460429   390.5785   6   9   0.1413   0.1140   0.2797  -0.0482  -0.0157   0.1055   0.00    0.0
2026/01/15 02:17:30.000   67.857358492   20.968460336   390.5734   6   9   0.1410   0.1138   0.2791  -0.0481  -0.0161   0.1054   0.00    0.0
2026/01/15 02:18:00.000   67.857358481   20.968460249   390.5702   6   9   0.1407   0.1135   0.2785  -0.0481  -0.0165   0.1052   0.00    0.0
2026/01/15 02:18:30.000   67.857358476   20.968460131   390.5645   6   9   0.1404   0.1133   0.2779  -0.0480  -0.0169   0.1050   0.00    0.0
2026/01/15 02:19:00.000   67.857358463   20.968460050   390.5574   6   9   0.1401   0.1130   0.2773  -0.0479  -0.0173   0.1049   0.00    0.0
2026/01/15 02:19:30.000   67.857358450   20.968459952   390.5497   6   9   0.1398   0.1128   0.2767  -0.0478  -0.0176   0.1047   0.00    0.0
2026/01/15 02:20:00.000   67.857358432   20.968459846   390.5422   6   9   0.1396   0.1125   0.2761  -0.0477  -0.0180   0.1045   0.00    0.0
2026/01/15 02:20:30.000   67.857358408   20.968459732   390.5337   6   9   0.1393   0.1123   0.2755  -0.0477  -0.0183   0.1044   0.00    0.0
2026/01/15 02:21:00.000   67.857358372   20.968459620   390.5243   6   9   0.1390   0.1121   0.2749  -0.0476  -0.0186   0.1042   0.00    0.0
2026/01/15 02:21:30.000   67.857358344   20.968459502   390.5176   6   9   0.1387   0.1118   0.2744  -0.0475  -0.0190   0.1040   0.00    0.0
2026/01/15 02:22:00.000   67.857358335   20.968459402   390.5115   6   9   0.1385   0.1116   0.2738  -0.0474  -0.0193   0.1039   0.00    0.0
2026/01/15 02:22:30.000   67.857358315   20.968459308   390.5045   6   9   0.1382   0.1114   0.2732  -0.0473  -0.0196   0.1037   0.00    0.0
2026/01/15 02:23:00.000   67.857358283   20.968459211   390.4963   6   9   0.1379   0.1111   0.2727  -0.0472  -0.0199   0.1035   0.00    0.0
2026/01/15 02:23:30.000   67.857358256   20.968459108   390.4903   6   9   0.1376   0.1109   0.2721  -0.0472  -0.0201   0.1033   0.00    0.0
2026/01/15 02:24:00.000   67.857358226   20.968459000   390.4846   6   9   0.1374   0.1107   0.2716  -0.0471  -0.0204   0.1032   0.00    0.0
2026/01/15 02:24:30.000   67.857358198   20.968458903   390.4796   6   9   0.1371   0.1104   0.2710  -0.0470  -0.0207   0.1030   0.00    0.0
2026/01/15 02:25:00.000   67.857358176   20.968458782   390.4753   6   9   0.1368   0.1102   0.2705  -0.0469  -0.0210   0.1028   0.00    0.0
2026/01/15 02:25:30.000   67.857358149   20.968458692   390.4701   6   9   0.1365   0.1100   0.2700  -0.0469  -0.0212   0.1027   0.00    0.0
2026/01/15 02:26:00.000   67.857358132   20.968458592   390.4649   6   9   0.1363   0.1097   0.2694  -0.0468  -0.0215   0.1025   0.00    0.0
2026/01/15 02:26:30.000   67.857358114   20.968458489   390.4590   6   9   0.1360   0.1095   0.2689  -0.0467  -0.0217   0.1023   0.00    0.0
2026/01/15 02:27:00.000   67.857358094   20.968458367   390.4549   6   8   0.1358   0.1093   0.2684  -0.0466  -0.0221   0.1021   0.00    0.0
2026/01/15 02:27:30.000   67.857358075   20.968458253   390.4506   6   8   0.1355   0.1091   0.2679  -0.0465  -0.0225   0.1019   0.00    0.0
2026/01/15 02:28:00.000   67.857358047   20.968458137   390.4459   6   8   0.1352   0.1088   0.2675  -0.0464  -0.0228   0.1017   0.00    0.0
2026/01/15 02:28:30.000   67.857358018   20.968458010   390.4406   6   8   0.1350   0.1086   0.2670  -0.0463  -0.0232   0.1015   0.00    0.0
2026/01/15 02:29:00.000   67.857357996   20.968457903   390.4354   6   8   0.1347   0.1084   0.2665  -0.0462  -0.0235   0.1013   0.00    0.0
2026/01/15 02:29:30.000   67.857357968   20.968457783   390.4315   6   8   0.1345   0.1082   0.2661  -0.0461  -0.0238   0.1010   0.00    0.0
2026/01/15 02:30:00.000   67.857357942   20.968457669   390.4280   6   8   0.1342   0.1080   0.2656  -0.0460  -0.0241   0.1008   0.00    0.0
2026/01/15 02:30:30.000   67.857357922   20.968457554   390.4228   6   8   0.1340   0.1078   0.2652  -0.0459  -0.0245   0.1006   0.00    0.0
2026/01/15 02:31:00.000   67.857357900   20.968457438   390.4200   6   8   0.1337   0.1076   0.2647  -0.0458  -0.0247   0.1004   0.00    0.0
2026/01/15 02:31:30.000   67.857357884   20.968457336   390.4166   6   8   0.1335   0.1074   0.2643  -0.0458  -0.0250   0.1002   0.00    0.0
2026/01/15 02:32:00.000   67.857357859   20.968457219   390.4135   6   8   0.1332   0.1071   0.2638  -0.0457  -0.0253   0.1000   0.00    0.0
2026/01/15 02:32:30.000   67.857357827   20.968457120   390.4096   6   8   0.1330   0.1069   0.2634  -0.0456  -0.0256   0.0998   0.00    0.0
2026/01/15 02:33:00.000   67.857357802   20.968457016   390.4065   6   8   0.1327   0.1067   0.2629  -0.0455  -0.0259   0.0996   0.00    0.0
2026/01/15 02:33:30.000   67.857357777   20.968456912   390.4033   6   8   0.1325   0.1065   0.2625  -0.0454  -0.0261   0.0994   0.00    0.0
2026/01/15 02:34:00.000   67.857357751   20.968456827   390.4022   6   8   0.1322   0.1063   0.2621  -0.0453  -0.0264   0.0992   0.00    0.0
2026/01/15 02:34:30.000   67.857357725   20.968456714   390.3994   6   8   0.1320   0.1061   0.2616  -0.0452  -0.0266   0.0990   0.00    0.0
2026/01/15 02:35:00.000   67.857357700   20.968456598   390.3972   6   8   0.1317   0.1059   0.2612  -0.0451  -0.0269   0.0988   0.00    0.0
2026/01/15 02:35:30.000   67.857357678   20.968456494   390.3945   6   8   0.1315   0.1057   0.2608  -0.0451  -0.0271   0.0986   0.00    0.0
2026/01/15 02:36:00.000   67.857357654   20.968456403   390.3915   6   8   0.1313   0.1055   0.2603  -0.0450  -0.0273   0.0984   0.00    0.0
2026/01/15 02:36:30.000   67.857357623   20.968456292   390.3893   6   8   0.1310   0.1053   0.2599  -0.0449  -0.0275   0.0982   0.00    0.0
2026/01/15 02:37:00.000   67.857357600   20.968456199   390.3864   6   8   0.1308   0.1051   0.2595  -0.0448  -0.0277   0.0980   0.00    0.0
2026/01/15 02:37:30.000   67.857357577   20.968456105   390.3846   6   8   0.1305   0.1049   0.2591  -0.0447  -0.0279   0.0978   0.00    0.0
2026/01/15 02:38:00.000   67.857357558   20.968456000   390.3832   6   8   0.1303   0.1047   0.2587  -0.0446  -0.0282   0.0976   0.00    0.0
2026/01/15 02:38:30.000   67.857357531   20.968455905   390.3815   6   8   0.1300   0.1045   0.2582  -0.0446  -0.0283   0.0973   0.00    0.0
2026/01/15 02:39:00.000   67.857357507   20.968455815   390.3797   6   8   0.1298   0.1043   0.2578  -0.0445  -0.0285   0.0971   0.00    0.0
2026/01/15 02:39:30.000   67.857357486   20.968455718   390.3779   6   8   0.1296   0.1041   0.2574  -0.0444  -0.0287   0.0969   0.00    0.0
2026/01/15 02:40:00.000   67.857357459   20.968455618   390.3763   6   8   0.1293   0.1039   0.2570  -0.0443  -0.0289   0.0967   0.00    0.0
2026/01/15 02:40:30.000   67.857357443   20.968455519   390.3747   6   8   0.1291   0.1037   0.2566  -0.0442  -0.0291   0.0965   0.00    0.0
2026/01/15 02:41:00.000   67.857357424   20.968455421   390.3731   6   8   0.1289   0.1035   0.2562  -0.0442  -0.0293   0.0963   0.00    0.0
2026/01/15 02:41:30.000   67.857357400   20.968455315   390.3712   6   8   0.1286   0.1033   0.2558  -0.0441  -0.0294   0.0961   0.00    0.0
2026/01/15 02:42:00.000   67.857357380   20.968455210   390.3688   6   8   0.1284   0.1031   0.2554  -0.0440  -0.0296   0.0959   0.00    0.0
2026/01/15 02:42:30.000   67.857357358   20.968455102   390.3663   6   8   0.1282   0.1029   0.2550  -0.0439  -0.0297   0.0957   0.00    0.0
2026/01/15 02:43:00.000   67.857357335   20.968454988   390.3645   6   8   0.1279   0.1027   0.2546  -0.0439  -0.0299   0.0955   0.00    0.0
2026/01/15 02:43:30.000   67.857357312   20.968454894   390.3631   6   8   0.1277   0.1025   0.2542  -0.0438  -0.0300   0.0953   0.00    0.0
2026/01/15 02:44:00.000   67.857357289   20.968454805   390.3620   6   8   0.1275   0.1023   0.2538  -0.0437  -0.0302   0.0951   0.00    0.0
2026/01/15 02:44:30.000   67.857357266   20.968454706   390.3601   6   8   0.1272   0.1021   0.2534  -0.0436  -0.0303   0.0949   0.00    0.0
2026/01/15 02:45:00.000   67.857357237   20.968454620   390.3590   6   8   0.1270   0.1019   0.2530  -0.0436  -0.0304   0.0947   0.00    0.0
2026/01/15 02:45:30.000   67.857357215   20.968454528   390.3591   6   8   0.1268   0.1018   0.2526  -0.0435  -0.0306   0.0945   0.00    0.0
2026/01/15 02:46:00.000   67.857357199   20.968454434   390.3590   6   8   0.1265   0.1016   0.2522  -0.0434  -0.0307   0.0943   0.00    0.0
2026/01/15 02:46:30.000   67.857357182   20.968454327   390.3598   6   8   0.1263   0.1014   0.2518  -0.0433  -0.0308   0.0941   0.00    0.0
2026/01/15 02:47:00.000   67.857357166   20.968454233   390.3600   6   8   0.1261   0.1012   0.2514  -0.0433  -0.0309   0.0939   0.00    0.0
2026/01/15 02:47:30.000   67.857357147   20.968454144   390.3592   6   8   0.1259   0.1010   0.2510  -0.0432  -0.0310   0.0937   0.00    0.0
2026/01/15 02:48:00.000   67.857357126   20.968454034   390.3589   6   8   0.1256   0.1008   0.2507  -0.0431  -0.0312   0.0935   0.00    0.0
2026/01/15 02:48:30.000   67.857357098   20.968453932   390.3589   6   8   0.1254   0.1006   0.2503  -0.0431  -0.0313   0.0933   0.00    0.0
2026/01/15 02:49:00.000   67.857357083   20.968453824   390.3579   6   8   0.1252   0.1005   0.2499  -0.0430  -0.0314   0.0931   0.00    0.0
2026/01/15 02:49:30.000   67.857357060   20.968453722   390.3584   6   8   0.1250   0.1003   0.2495  -0.0429  -0.0315   0.0929   0.00    0.0
2026/01/15 02:50:00.000   67.857357043   20.968453616   390.3570   6   8   0.1248   0.1001   0.2491  -0.0428  -0.0316   0.0927   0.00    0.0
2026/01/15 02:50:30.000   67.857357015   20.968453529   390.3562   6   8   0.1245   0.0999   0.2487  -0.0428  -0.0316   0.0925   0.00    0.0
2026/01/15 02:51:00.000   67.857356985   20.968453436   390.3569   6   8   0.1243   0.0997   0.2483  -0.0427  -0.0317   0.0923   0.00    0.0
2026/01/15 02:51:30.000   67.857356965   20.968453345   390.3577   6   8   0.1241   0.0996   0.2479  -0.0426  -0.0318   0.0921   0.00    0.0
2026/01/15 02:52:00.000   67.857356943   20.968453244   390.3578   6   8   0.1239   0.0994   0.2476  -0.0426  -0.0319   0.0919   0.00    0.0
2026/01/15 02:52:30.000   67.857356923   20.968453139   390.3584   6   8   0.1237   0.0992   0.2472  -0.0425  -0.0320   0.0917   0.00    0.0
2026/01/15 02:53:00.000   67.857356901   20.968453043   390.3593   6   8   0.1235   0.0990   0.2468  -0.0424  -0.0320   0.0915   0.00    0.0
2026/01/15 02:53:30.000   67.857356889   20.968452941   390.3602   6   8   0.1232   0.0988   0.2464  -0.0424  -0.0321   0.0913   0.00    0.0
2026/01/15 02:54:00.000   67.857356876   20.968452846   390.3615   6   8   0.1230   0.0987   0.2460  -0.0423  -0.0322   0.0911   0.00    0.0
2026/01/15 02:54:30.000   67.857356862   20.968452757   390.3612   6   8   0.1228   0.0985   0.2456  -0.0422  -0.0322   0.0909   0.00    0.0
2026/01/15 02:55:00.000   67.857356841   20.968452676   390.3617   6   8   0.1226   0.0983   0.2452  -0.0422  -0.0323   0.0907   0.00    0.0
2026/01/15 02:55:30.000   67.857356826   20.968452586   390.3632   6   8   0.1224   0.0981   0.2449  -0.0421  -0.0323   0.0905   0.00    0.0
2026/01/15 02:56:00.000   67.857356815   20.968452504   390.3638   6   8   0.1222   0.0980   0.2445  -0.0420  -0.0324   0.0903   0.00    0.0
2026/01/15 02:56:30.000   67.857356801   20.968452406   390.3647   6   8   0.1220   0.0978   0.2441  -0.0420  -0.0324   0.0901   0.00    0.0
2026/01/15 02:57:00.000   67.857356788   20.968452317   390.3662   6   8   0.1218   0.0976   0.2437  -0.0419  -0.0325   0.0899   0.00    0.0
2026/01/15 02:57:30.000   67.857356763   20.968452237   390.3676   6   8   0.1216   0.0974   0.2433  -0.0418  -0.0325   0.0897   0.00    0.0
2026/01/15 02:58:00.000   67.857356740   20.968452147   390.3684   6   8   0.1214   0.0973   0.2429  -0.0418  -0.0326   0.0895   0.00    0.0
2026/01/15 02:58:30.000   67.857356730   20.968452067   390.3698   6   9   0.1211   0.0971   0.2425  -0.0417  -0.0327   0.0893   0.00    0.0
2026/01/15 02:59:00.000   67.857356712   20.968451983   390.3713   6   9   0.1209   0.0969   0.2421  -0.0416  -0.0328   0.0892   0.00    0.0
2026/01/15 02:59:30.000   67.857356708   20.968451879   390.3729   6   9   0.1207   0.0967   0.2417  -0.0415  -0.0329   0.0890   0.00    0.0
2026/01/15 03:00:00.000   67.857356705   20.968451814   390.3786   6   9   0.1204   0.0965   0.2412  -0.0414  -0.0330   0.0887   0.00    0.0
2026/01/15 03:00:30.000   67.857356710   20.968451723   390.3839   6   9   0.1202   0.0963   0.2406  -0.0413  -0.0331   0.0884   0.00    0.0
2026/01/15 03:01:00.000   67.857356700   20.968451630   390.3869   6   9   0.1199   0.0961   0.2401  -0.0412  -0.0332   0.0880   0.00    0.0
2026/01/15 03:01:30.000   67.857356692   20.968451544   390.3903   6   9   0.1196   0.0959   0.2396  -0.0411  -0.0333   0.0877   0.00    0.0
2026/01/15 03:02:00.000   67.857356696   20.968451452   390.3939   6   9   0.1193   0.0957   0.2390  -0.0410  -0.0334   0.0874   0.00    0.0
2026/01/15 03:02:30.000   67.857356702   20.968451375   390.3988   6   9   0.1191   0.0955   0.2385  -0.0409  -0.0335   0.0871   0.00    0.0
2026/01/15 03:03:00.000   67.857356707   20.968451302   390.4028   6   9   0.1188   0.0953   0.2380  -0.0408  -0.0335   0.0868   0.00    0.0
2026/01/15 03:03:30.000   67.857356699   20.968451222   390.4060   6   9   0.1186   0.0951   0.2375  -0.0407  -0.0336   0.0865   0.00    0.0
2026/01/15 03:04:00.000   67.857356690   20.968451151   390.4106   6   9   0.1183   0.0949   0.2370  -0.0406  -0.0337   0.0862   0.00    0.0
2026/01/15 03:04:30.000   67.857356687   20.968451099   390.4166   6   9   0.1180   0.0947   0.2364  -0.0405  -0.0338   0.0859   0.00    0.0
2026/01/15 03:05:00.000   67.857356688   20.968451028   390.4224   6   9   0.1178   0.0946   0.2359  -0.0404  -0.0338   0.0856   0.00    0.0
2026/01/15 03:05:30.000   67.857356691   20.968450933   390.4275   6   9   0.1175   0.0944   0.2354  -0.0403  -0.0339   0.0854   0.00    0.0
2026/01/15 03:06:00.000   67.857356685   20.968450851   390.4318   6   9   0.1173   0.0942   0.2349  -0.0402  -0.0339   0.0851   0.00    0.0
2026/01/15 03:06:30.000   67.857356698   20.968450775   390.4393   6  10   0.1170   0.0940   0.2343  -0.0401  -0.0340   0.0847   0.00    0.0
2026/01/15 03:07:00.000   67.857356715   20.968450696   390.4458   6  10   0.1167   0.0938   0.2338  -0.0400  -0.0341   0.0843   0.00    0.0
2026/01/15 03:07:30.000   67.857356737   20.968450633   390.4558   6  10   0.1164   0.0936   0.2332  -0.0400  -0.0342   0.0839   0.00    0.0
2026/01/15 03:08:00.000   67.857356757   20.968450565   390.4657   6  10   0.1161   0.0934   0.2327  -0.0399  -0.0343   0.0836   0.00    0.0
2026/01/15 03:08:30.000   67.857356775   20.968450512   390.4746   6  10   0.1158   0.0932   0.2321  -0.0398  -0.0343   0.0832   0.00    0.0
2026/01/15 03:09:00.000   67.857356792   20.968450441   390.4821   6  10   0.1155   0.0930   0.2316  -0.0397  -0.0344   0.0828   0.00    0.0
2026/01/15 03:09:30.000   67.857356811   20.968450367   390.4899   6  10   0.1153   0.0928   0.2310  -0.0396  -0.0344   0.0825   0.00    0.0
2026/01/15 03:10:00.000   67.857356825   20.968450295   390.4962   6  10   0.1150   0.0927   0.2305  -0.0396  -0.0345   0.0821   0.00    0.0
2026/01/15 03:10:30.000   67.857356820   20.968450208   390.4997   6   9   0.1148   0.0925   0.2301  -0.0395  -0.0345   0.0820   0.00    0.0
2026/01/15 03:11:00.000   67.857356817   20.968450109   390.5030   6   9   0.1146   0.0923   0.2298  -0.0394  -0.0345   0.0819   0.00    0.0
2026/01/15 03:11:30.000   67.857356813   20.968450033   390.5065   6   9   0.1143   0.0921   0.2294  -0.0393  -0.0346   0.0817   0.00    0.0
2026/01/15 03:12:00.000   67.857356811   20.968449960   390.5108   6   9   0.1141   0.0919   0.2291  -0.0392  -0.0346   0.0816   0.00    0.0
2026/01/15 03:12:30.000   67.857356816   20.968449871   390.5151   6   9   0.1139   0.0918   0.2288  -0.0391  -0.0346   0.0815   0.00    0.0
2026/01/15 03:13:00.000   67.857356816   20.968449802   390.5200   6   9   0.1137   0.0916   0.2284  -0.0390  -0.0346   0.0813   0.00    0.0
2026/01/15 03:13:30.000   67.857356818   20.968449728   390.5245   6   9   0.1135   0.0914   0.2281  -0.0389  -0.0346   0.0812   0.00    0.0
2026/01/15 03:14:00.000   67.857356816   20.968449637   390.5296   6   9   0.1133   0.0912   0.2278  -0.0388  -0.0346   0.0811   0.00    0.0
2026/01/15 03:14:30.000   67.857356821   20.968449560   390.5352   6   9   0.1131   0.0911   0.2274  -0.0387  -0.0346   0.0809   0.00    0.0
2026/01/15 03:15:00.000   67.857356826   20.968449467   390.5407   6   9   0.1129   0.0909   0.2271  -0.0386  -0.0346   0.0808   0.00    0.0
2026/01/15 03:15:30.000   67.857356824   20.968449386   390.5442   6   9   0.1127   0.0907   0.2268  -0.0385  -0.0346   0.0807   0.00    0.0
2026/01/15 03:16:00.000   67.857356821   20.968449303   390.5484   6   9   0.1125   0.0906   0.2264  -0.0384  -0.0346   0.0805   0.00    0.0
2026/01/15 03:16:30.000   67.857356822   20.968449215   390.5545   6   9   0.1123   0.0904   0.2261  -0.0383  -0.0346   0.0804   0.00    0.0
2026/01/15 03:17:00.000   67.857356827   20.968449129   390.5595   6   9   0.1121   0.0902   0.2258  -0.0382  -0.0345   0.0803   0.00    0.0
2026/01/15 03:17:30.000   67.857356836   20.968449044   390.5631   6   9   0.1119   0.0900   0.2254  -0.0381  -0.0345   0.0801   0.00    0.0
2026/01/15 03:18:00.000   67.857356837   20.968448975   390.5691   6   9   0.1117   0.0899   0.2251  -0.0380  -0.0345   0.0800   0.00    0.0
2026/01/15 03:18:30.000   67.857356843   20.968448896   390.5725   6   9   0.1115   0.0897   0.2248  -0.0380  -0.0345   0.0799   0.00    0.0
2026/01/15 03:19:00.000   67.857356849   20.968448825   390.5770   6   9   0.1113   0.0895   0.2244  -0.0379  -0.0344   0.0798   0.00    0.0
2026/01/15 03:19:30.000   67.857356846   20.968448754   390.5818   6   9   0.1111   0.0894   0.2241  -0.0378  -0.0344   0.0796   0.00    0.0
2026/01/15 03:20:00.000   67.857356855   20.968448686   390.5865   6   9   0.1109   0.0892   0.2238  -0.0377  -0.0344   0.0795   0.00    0.0
2026/01/15 03:20:30.000   67.857356869   20.968448613   390.5913   6   9   0.1107   0.0891   0.2234  -0.0376  -0.0343   0.0794   0.00    0.0
2026/01/15 03:21:00.000   67.857356871   20.968448552   390.5973   6   9   0.1105   0.0889   0.2231  -0.0375  -0.0343   0.0792   0.00    0.0
2026/01/15 03:21:30.000   67.857356880   20.968448474   390.6020   6   9   0.1103   0.0887   0.2228  -0.0374  -0.0342   0.0791   0.00    0.0
2026/01/15 03:22:00.000   67.857356887   20.968448394   390.6066   6   9   0.1101   0.0886   0.2224  -0.0373  -0.0342   0.0790   0.00    0.0
2026/01/15 03:22:30.000   67.857356900   20.968448302   390.6108   6   9   0.1099   0.0884   0.2221  -0.0372  -0.0341   0.0788   0.00    0.0
2026/01/15 03:23:00.000   67.857356904   20.968448217   390.6168   6   9   0.1097   0.0882   0.2218  -0.0372  -0.0341   0.0787   0.00    0.0
2026/01/15 03:23:30.000   67.857356916   20.968448135   390.6223   6   9   0.1095   0.0881   0.2214  -0.0371  -0.0340   0.0786   0.00    0.0
2026/01/15 03:24:00.000   67.857356933   20.968448037   390.6280   6   9   0.1093   0.0879   0.2211  -0.0370  -0.0339   0.0784   0.00    0.0
2026/01/15 03:24:30.000   67.857356940   20.968447985   390.6313   6   9   0.1091   0.0878   0.2208  -0.0369  -0.0339   0.0783   0.00    0.0
2026/01/15 03:25:00.000   67.857356952   20.968447911   390.6366   6   9   0.1090   0.0876   0.2204  -0.0368  -0.0338   0.0781   0.00    0.0
2026/01/15 03:25:30.000   67.857356965   20.968447845   390.6409   6   9   0.1088   0.0874   0.2201  -0.0367  -0.0337   0.0780   0.00    0.0
2026/01/15 03:26:00.000   67.857356968   20.968447784   390.6468   6   9   0.1086   0.0873   0.2198  -0.0366  -0.0337   0.0779   0.00    0.0
2026/01/15 03:26:30.000   67.857356972   20.968447726   390.6530   6   9   0.1084   0.0871   0.2194  -0.0366  -0.0336   0.0777   0.00    0.0
2026/01/15 03:27:00.000   67.857356977   20.968447665   390.6574   6   9   0.1082   0.0870   0.2191  -0.0365  -0.0335   0.0776   0.00    0.0
2026/01/15 03:27:30.000   67.857356981   20.968447588   390.6636   6   9   0.1080   0.0868   0.2188  -0.0364  -0.0334   0.0775   0.00    0.0
2026/01/15 03:28:00.000   67.857356993   20.968447531   390.6684   6   9   0.1078   0.0867   0.2184  -0.0363  -0.0333   0.0773   0.00    0.0
2026/01/15 03:28:30.000   67.857357011   20.968447451   390.6737   6   9   0.1077   0.0865   0.2181  -0.0362  -0.0332   0.0772   0.00    0.0
