% program   : RTKLIB ver.EX 2.5.0
% inp file  : C:\PPP_PROJECT\New_Data\obs\RNXDATA\KIRU00SWE_R_20260150000_01D_30S_MO.rnx
% inp file  : C:\PPP_PROJECT\New_Data\nav\BRDC00IGS_R_20260150000_01D_MN.rnx
% inp file  : .
% inp file  : .
% inp file  : .
% inp file  : .
% obs start : 2026/01/15 00:00:00.0 GPST (week2401 345600.0s)
% obs end   : 2026/01/15 23:59:30.0 GPST (week2401 431970.0s)
% pos mode  : PPP Static
% freqs     : L1
% solution  : Forward
% elev mask : 15.0 deg
% dynamics  : on
% tidecorr  :
% ionos opt : Broadcast
% tropo opt : Saastamoinen
% ephemeris : Broadcast
% navi sys  : GPS
% antenna1  :                       ( 0.0000  0.0000  0.0000)
%
% (lat/lon/height=WGS84/ellipsoidal,Q=1:fix,2:float,3:sbas,4:dgps,5:single,6:ppp,ns=# of satellites)
%  GPST                  latitude(deg) longitude(deg)  height(m)   Q  ns   sdn(m)   sde(m)   sdu(m)  sdne(m)  sdeu(m)  sdun(m) age(s)  ratio
2026/01/15 00:00:00.000   67.857334346   20.968465131   384.6112   6   8   2.2197   1.9481   6.4224  -0.7238  -1.6801   2.3920   0.00    0.0
2026/01/15 00:00:30.000   67.857335166   20.968466112   384.0255   6   9   1.5718   1.3800   4.5536  -0.5165  -1.1978   1.6960   0.00    0.0
2026/01/15 00:02:00.000   67.857334996   20.968466163   384.0788   6   9   0.9952   0.8757   2.8781  -0.3338  -0.7701   1.0715   0.00    0.0
2026/01/15 00:02:30.000   67.857334610   20.968466259   384.0467   6   8   0.9086   0.8002   2.6253  -0.3067  -0.7063   0.9771   0.00    0.0
2026/01/15 00:03:00.000   67.857334376   20.968465509   383.9626   6   9   0.8413   0.7415   2.4283  -0.2857  -0.6569   0.9036   0.00    0.0
2026/01/15 00:03:30.000   67.857334503   20.968465888   383.9490   6   8   0.7870   0.6943   2.2694  -0.2688  -0.6172   0.8443   0.00    0.0
2026/01/15 00:04:30.000   67.857336433   20.968466834   384.5129   6   9   0.6903   0.6217   1.9782  -0.2502  -0.5662   0.7120   0.00    0.0
2026/01/15 00:05:00.000   67.857336680   20.968467109   384.5081   6   9   0.6538   0.5932   1.8692  -0.2419  -0.5448   0.6645   0.00    0.0
2026/01/15 00:05:30.000   67.857337004   20.968467485   384.5150   6   9   0.6227   0.5683   1.7765  -0.2344  -0.5258   0.6251   0.00    0.0
2026/01/15 00:06:00.000   67.857337132   20.968467670   384.5877   6   9   0.5957   0.5464   1.6963  -0.2276  -0.5086   0.5916   0.00    0.0
2026/01/15 00:06:30.000   67.857337192   20.968468142   384.6346   6   9   0.5720   0.5270   1.6261  -0.2213  -0.4931   0.5629   0.00    0.0
2026/01/15 00:07:00.000   67.857337435   20.968468579   384.6964   6   9   0.5509   0.5095   1.5638  -0.2156  -0.4791   0.5378   0.00    0.0
2026/01/15 00:07:30.000   67.857337688   20.968468963   384.7571   6   9   0.5321   0.4938   1.5082  -0.2104  -0.4662   0.5157   0.00    0.0
2026/01/15 00:08:00.000   67.857337681   20.968469745   384.8348   6   9   0.5151   0.4794   1.4579  -0.2056  -0.4544   0.4960   0.00    0.0
2026/01/15 00:08:30.000   67.857337717   20.968470252   384.8240   6   9   0.4997   0.4663   1.4123  -0.2012  -0.4436   0.4783   0.00    0.0
2026/01/15 00:09:00.000   67.857337873   20.968470206   384.8573   6   9   0.4856   0.4543   1.3707  -0.1970  -0.4335   0.4623   0.00    0.0
2026/01/15 00:09:30.000   67.857337937   20.968470738   384.9150   6   8   0.4741   0.4432   1.3339  -0.1941  -0.4235   0.4451   0.00    0.0
2026/01/15 00:10:00.000   67.857337918   20.968471240   384.9967   6   7   0.4634   0.4330   1.3001  -0.1914  -0.4142   0.4296   0.00    0.0
2026/01/15 00:10:30.000   67.857337933   20.968471308   385.0786   6   8   0.4535   0.4235   1.2685  -0.1888  -0.4055   0.4152   0.00    0.0
2026/01/15 00:11:00.000   67.857337814   20.968471726   385.0739   6   8   0.4442   0.4147   1.2390  -0.1863  -0.3973   0.4020   0.00    0.0
2026/01/15 00:11:30.000   67.857337615   20.968471905   385.1010   6   9   0.4355   0.4064   1.2115  -0.1839  -0.3897   0.3898   0.00    0.0
2026/01/15 00:12:00.000   67.857337575   20.968472109   385.1331   6   9   0.4273   0.3986   1.1856  -0.1817  -0.3825   0.3785   0.00    0.0
2026/01/15 00:12:30.000   67.857337427   20.968472308   385.1531   6   9   0.4196   0.3912   1.1613  -0.1795  -0.3757   0.3680   0.00    0.0
2026/01/15 00:13:00.000   67.857337354   20.968472607   385.1695   6   9   0.4123   0.3843   1.1384  -0.1774  -0.3694   0.3582   0.00    0.0
2026/01/15 00:13:30.000   67.857337317   20.968472585   385.1932   6   9   0.4054   0.3778   1.1167  -0.1754  -0.3633   0.3491   0.00    0.0
2026/01/15 00:14:00.000   67.857337282   20.968472982   385.2210   6   9   0.3988   0.3716   1.0961  -0.1736  -0.3575   0.3406   0.00    0.0
2026/01/15 00:14:30.000   67.857337286   20.968473348   385.2502   6   9   0.3926   0.3657   1.0766  -0.1718  -0.3521   0.3325   0.00    0.0
2026/01/15 00:15:00.000   67.857337237   20.968473635   385.2559   6   9   0.3867   0.3601   1.0580  -0.1700  -0.3469   0.3250   0.00    0.0
2026/01/15 00:15:30.000   67.857337169   20.968473822   385.2990   6   9   0.3810   0.3548   1.0402  -0.1684  -0.3419   0.3179   0.00    0.0
2026/01/15 00:16:00.000   67.857337180   20.968474130   385.3145   6   9   0.3757   0.3498   1.0233  -0.1668  -0.3371   0.3111   0.00    0.0
2026/01/15 00:16:30.000   67.857337127   20.968474251   385.3235   6   9   0.3705   0.3449   1.0071  -0.1652  -0.3326   0.3048   0.00    0.0
2026/01/15 00:17:00.000   67.857337101   20.968474393   385.3296   6   9   0.3655   0.3403   0.9916  -0.1638  -0.3282   0.2988   0.00    0.0
2026/01/15 00:17:30.000   67.857337043   20.968474492   385.3364   6   9   0.3608   0.3359   0.9767  -0.1623  -0.3240   0.2931   0.00    0.0
2026/01/15 00:18:00.000   67.857336987   20.968474870   385.3376   6   9   0.3562   0.3316   0.9624  -0.1610  -0.3199   0.2876   0.00    0.0
2026/01/15 00:18:30.000   67.857336912   20.968475257   385.3699   6   9   0.3519   0.3275   0.9487  -0.1596  -0.3161   0.2825   0.00    0.0
2026/01/15 00:19:00.000   67.857336898   20.968475297   385.3760   6   9   0.3477   0.3236   0.9355  -0.1584  -0.3123   0.2776   0.00    0.0
2026/01/15 00:19:30.000   67.857336840   20.968475460   385.3728   6   9   0.3436   0.3199   0.9228  -0.1571  -0.3087   0.2729   0.00    0.0
2026/01/15 00:20:00.000   67.857336886   20.968475518   385.3836   6   9   0.3397   0.3162   0.9105  -0.1559  -0.3052   0.2684   0.00    0.0
2026/01/15 00:20:30.000   67.857336932   20.968475662   385.4116   6   9   0.3360   0.3127   0.8987  -0.1548  -0.3019   0.2642   0.00    0.0
2026/01/15 00:21:00.000   67.857336901   20.968476014   385.4313   6   9   0.3323   0.3094   0.8874  -0.1536  -0.2986   0.2602   0.00    0.0
2026/01/15 00:21:30.000   67.857336828   20.968476299   385.4314   6   9   0.3288   0.3061   0.8763  -0.1526  -0.2954   0.2563   0.00    0.0
2026/01/15 00:22:00.000   67.857336821   20.968476491   385.4398   6   9   0.3254   0.3030   0.8657  -0.1515  -0.2924   0.2527   0.00    0.0
2026/01/15 00:22:30.000   67.857336830   20.968476760   385.4500   6   9   0.3222   0.3000   0.8553  -0.1505  -0.2894   0.2491   0.00    0.0
2026/01/15 00:23:00.000   67.857336868   20.968477011   385.4645   6   9   0.3190   0.2970   0.8453  -0.1495  -0.2865   0.2457   0.00    0.0
2026/01/15 00:23:30.000   67.857336824   20.968477295   385.4567   6   9   0.3159   0.2942   0.8356  -0.1485  -0.2837   0.2425   0.00    0.0
2026/01/15 00:24:00.000   67.857336742   20.968477616   385.4392   6   9   0.3130   0.2914   0.8261  -0.1476  -0.2809   0.2394   0.00    0.0
2026/01/15 00:24:30.000   67.857336661   20.968477908   385.4068   6   9   0.3101   0.2888   0.8170  -0.1467  -0.2783   0.2364   0.00    0.0
2026/01/15 00:25:00.000   67.857336670   20.968478150   385.4206   6   9   0.3073   0.2862   0.8080  -0.1458  -0.2757   0.2335   0.00    0.0
2026/01/15 00:25:30.000   67.857336686   20.968478466   385.4389   6   8   0.3046   0.2838   0.8003  -0.1448  -0.2727   0.2313   0.00    0.0
2026/01/15 00:26:00.000   67.857336687   20.968478816   385.4431   6   8   0.3021   0.2815   0.7928  -0.1438  -0.2698   0.2292   0.00    0.0
2026/01/15 00:26:30.000   67.857336715   20.968479089   385.4506   6   8   0.2996   0.2792   0.7855  -0.1428  -0.2670   0.2272   0.00    0.0
2026/01/15 00:27:00.000   67.857336768   20.968479235   385.4627   6   8   0.2972   0.2770   0.7783  -0.1419  -0.2642   0.2252   0.00    0.0
2026/01/15 00:27:30.000   67.857336802   20.968479483   385.4764   6   8   0.2948   0.2748   0.7713  -0.1410  -0.2616   0.2234   0.00    0.0
2026/01/15 00:28:00.000   67.857336808   20.968479604   385.4929   6   8   0.2925   0.2727   0.7645  -0.1402  -0.2590   0.2216   0.00    0.0
2026/01/15 00:28:30.000   67.857336847   20.968479692   385.5140   6   8   0.2903   0.2707   0.7578  -0.1394  -0.2565   0.2198   0.00    0.0
2026/01/15 00:29:00.000   67.857336892   20.968479858   385.5368   6   8   0.2881   0.2687   0.7513  -0.1386  -0.2541   0.2181   0.00    0.0
2026/01/15 00:29:30.000   67.857336918   20.968479858   385.5565   6   8   0.2860   0.2668   0.7449  -0.1378  -0.2517   0.2165   0.00    0.0
2026/01/15 00:30:00.000   67.857336951   20.968479942   385.5753   6   8   0.2839   0.2649   0.7386  -0.1370  -0.2494   0.2149   0.00    0.0
2026/01/15 00:30:30.000   67.857336958   20.968480228   385.5733   6   5   0.2826   0.2633   0.7348  -0.1371  -0.2484   0.2158   0.00    0.0
2026/01/15 00:31:00.000   67.857336965   20.968480493   385.5693   6   6   0.2812   0.2617   0.7310  -0.1371  -0.2475   0.2167   0.00    0.0
2026/01/15 00:32:00.000   67.857336940   20.968481020   385.5748   6   8   0.2786   0.2586   0.7236  -0.1372  -0.2456   0.2183   0.00    0.0
2026/01/15 00:32:30.000   67.857336927   20.968481204   385.5735   6   5   0.2773   0.2572   0.7200  -0.1372  -0.2447   0.2191   0.00    0.0
2026/01/15 00:33:00.000   67.857336916   20.968481441   385.5696   6   5   0.2761   0.2557   0.7165  -0.1373  -0.2439   0.2198   0.00    0.0
2026/01/15 00:33:30.000   67.857336901   20.968481616   385.5672   6   6   0.2749   0.2543   0.7131  -0.1373  -0.2430   0.2205   0.00    0.0
2026/01/15 00:34:00.000   67.857336885   20.968481751   385.5667   6   8   0.2737   0.2529   0.7096  -0.1373  -0.2421   0.2212   0.00    0.0
2026/01/15 00:34:30.000   67.857336834   20.968481943   385.5655   6   6   0.2725   0.2516   0.7063  -0.1373  -0.2413   0.2218   0.00    0.0
2026/01/15 00:35:00.000   67.857336829   20.968482088   385.5614   6   6   0.2714   0.2503   0.7031  -0.1373  -0.2405   0.2225   0.00    0.0
2026/01/15 00:35:30.000   67.857336799   20.968482350   385.5642   6   6   0.2703   0.2489   0.6999  -0.1373  -0.2397   0.2231   0.00    0.0
2026/01/15 00:36:00.000   67.857336783   20.968482580   385.5652   6   8   0.2692   0.2477   0.6965  -0.1372  -0.2388   0.2236   0.00    0.0
2026/01/15 00:36:30.000   67.857336775   20.968482791   385.5597   6   6   0.2681   0.2464   0.6934  -0.1372  -0.2380   0.2241   0.00    0.0
2026/01/15 00:37:00.000   67.857336737   20.968482992   385.5541   6   6   0.2670   0.2452   0.6904  -0.1372  -0.2373   0.2246   0.00    0.0
2026/01/15 00:37:30.000   67.857336693   20.968483181   385.5488   6   6   0.2660   0.2439   0.6873  -0.1371  -0.2365   0.2251   0.00    0.0
2026/01/15 00:38:00.000   67.857336688   20.968483420   385.5358   6   6   0.2650   0.2428   0.6843  -0.1371  -0.2357   0.2256   0.00    0.0
2026/01/15 00:38:30.000   67.857336700   20.968483642   385.5233   6   6   0.2640   0.2416   0.6814  -0.1370  -0.2349   0.2260   0.00    0.0
2026/01/15 00:39:00.000   67.857336700   20.968483831   385.5136   6   6   0.2630   0.2404   0.6784  -0.1370  -0.2342   0.2264   0.00    0.0
2026/01/15 00:39:30.000   67.857336696   20.968484038   385.5025   6   6   0.2620   0.2393   0.6755  -0.1369  -0.2334   0.2268   0.00    0.0
2026/01/15 00:40:00.000   67.857336655   20.968484228   385.5024   6   6   0.2611   0.2382   0.6727  -0.1368  -0.2326   0.2272   0.00    0.0
2026/01/15 00:40:30.000   67.857336612   20.968484390   385.4943   6   6   0.2601   0.2371   0.6698  -0.1367  -0.2319   0.2275   0.00    0.0
2026/01/15 00:41:00.000   67.857336588   20.968484561   385.4926   6   6   0.2592   0.2360   0.6670  -0.1367  -0.2311   0.2278   0.00    0.0
2026/01/15 00:41:30.000   67.857336557   20.968484711   385.4946   6   6   0.2583   0.2349   0.6642  -0.1366  -0.2304   0.2281   0.00    0.0
2026/01/15 00:42:00.000   67.857336529   20.968484866   385.4949   6   6   0.2574   0.2339   0.6615  -0.1365  -0.2296   0.2284   0.00    0.0
2026/01/15 00:42:30.000   67.857336498   20.968484994   385.4885   6   5   0.2565   0.2328   0.6588  -0.1364  -0.2289   0.2286   0.00    0.0
2026/01/15 00:43:00.000   67.857336511   20.968485091   385.4801   6   5   0.2556   0.2318   0.6561  -0.1363  -0.2281   0.2289   0.00    0.0
2026/01/15 00:43:30.000   67.857336505   20.968485315   385.4810   6   6   0.2548   0.2308   0.6534  -0.1362  -0.2273   0.2291   0.00    0.0
2026/01/15 00:44:00.000   67.857336503   20.968485412   385.4721   6   6   0.2540   0.2298   0.6507  -0.1361  -0.2266   0.2293   0.00    0.0
2026/01/15 00:44:30.000   67.857336575   20.968485478   385.4552   6   7   0.2529   0.2288   0.6479  -0.1357  -0.2261   0.2298   0.00    0.0
2026/01/15 00:45:00.000   67.857336597   20.968485472   385.4480   6   7   0.2520   0.2277   0.6451  -0.1353  -0.2255   0.2303   0.00    0.0
2026/01/15 00:45:30.000   67.857336646   20.968485487   385.4349   6   7   0.2510   0.2266   0.6424  -0.1350  -0.2250   0.2307   0.00    0.0
2026/01/15 00:46:00.000   67.857336696   20.968485590   385.4246   6   7   0.2500   0.2256   0.6397  -0.1346  -0.2244   0.2311   0.00    0.0
2026/01/15 00:46:30.000   67.857336773   20.968485626   385.4063   6   9   0.2491   0.2246   0.6370  -0.1342  -0.2238   0.2314   0.00    0.0
2026/01/15 00:47:00.000   67.857336865   20.968485693   385.3957   6   9   0.2481   0.2236   0.6343  -0.1339  -0.2233   0.2318   0.00    0.0
2026/01/15 00:47:30.000   67.857336940   20.968485666   385.3839   6   8   0.2472   0.2226   0.6317  -0.1335  -0.2227   0.2320   0.00    0.0
2026/01/15 00:48:00.000   67.857336997   20.968485696   385.3793   6   8   0.2463   0.2216   0.6291  -0.1331  -0.2220   0.2323   0.00    0.0
2026/01/15 00:48:30.000   67.857337084   20.968485682   385.3717   6   9   0.2454   0.2206   0.6265  -0.1327  -0.2214   0.2325   0.00    0.0
2026/01/15 00:49:00.000   67.857337156   20.968485659   385.3679   6   8   0.2445   0.2196   0.6240  -0.1323  -0.2208   0.2327   0.00    0.0
2026/01/15 00:49:30.000   67.857337249   20.968485637   385.3598   6   8   0.2436   0.2186   0.6214  -0.1320  -0.2201   0.2329   0.00    0.0
2026/01/15 00:50:00.000   67.857337351   20.968485570   385.3450   6   8   0.2427   0.2177   0.6189  -0.1316  -0.2195   0.2330   0.00    0.0
2026/01/15 00:50:30.000   67.857337455   20.968485474   385.3366   6   8   0.2419   0.2167   0.6164  -0.1312  -0.2188   0.2332   0.00    0.0
2026/01/15 00:51:00.000   67.857337548   20.968485441   385.3318   6   5   0.2410   0.2158   0.6139  -0.1308  -0.2181   0.2332   0.00    0.0
2026/01/15 00:51:30.000   67.857337651   20.968485414   385.3269   6   8   0.2402   0.2149   0.6115  -0.1304  -0.2174   0.2333   0.00    0.0
2026/01/15 00:52:00.000   67.857337715   20.968485357   385.3275   6   5   0.2394   0.2140   0.6090  -0.1300  -0.2168   0.2334   0.00    0.0
2026/01/15 00:52:30.000   67.857337795   20.968485253   385.3264   6   8   0.2385   0.2131   0.6066  -0.1296  -0.2160   0.2334   0.00    0.0
2026/01/15 00:53:00.000   67.857337880   20.968485188   385.3259   6   7   0.2377   0.2122   0.6042  -0.1291  -0.2153   0.2334   0.00    0.0
2026/01/15 00:53:30.000   67.857337970   20.968485145   385.3221   6   8   0.2369   0.2113   0.6018  -0.1287  -0.2146   0.2333   0.00    0.0
2026/01/15 00:54:00.000   67.857338044   20.968485097   385.3212   6   8   0.2361   0.2104   0.5994  -0.1283  -0.2138   0.2333   0.00    0.0
2026/01/15 00:54:30.000   67.857338142   20.968485018   385.3155   6   8   0.2353   0.2095   0.5970  -0.1279  -0.2131   0.2332   0.00    0.0
2026/01/15 00:55:00.000   67.857338221   20.968484991   385.3095   6   8   0.2345   0.2086   0.5946  -0.1275  -0.2123   0.2331   0.00    0.0
2026/01/15 00:55:30.000   67.857338311   20.968484925   385.3099   6   8   0.2338   0.2078   0.5922  -0.1270  -0.2115   0.2330   0.00    0.0
2026/01/15 00:56:00.000   67.857338403   20.968484850   385.3082   6   8   0.2330   0.2069   0.5899  -0.1266  -0.2107   0.2328   0.00    0.0
2026/01/15 00:56:30.000   67.857338484   20.968484718   385.3128   6   8   0.2322   0.2061   0.5876  -0.1261  -0.2099   0.2327   0.00    0.0
2026/01/15 00:57:00.000   67.857338631   20.968484639   385.3030   6   8   0.2316   0.2052   0.5854  -0.1257  -0.2090   0.2322   0.00    0.0
2026/01/15 00:57:30.000   67.857338797   20.968484526   385.3032   6   7   0.2310   0.2044   0.5836  -0.1252  -0.2080   0.2320   0.00    0.0
2026/01/15 00:58:00.000   67.857338967   20.968484482   385.2987   6   7   0.2304   0.2037   0.5818  -0.1247  -0.2069   0.2317   0.00    0.0
2026/01/15 00:58:30.000   67.857339106   20.968484436   385.3010   6   7   0.2298   0.2029   0.5800  -0.1243  -0.2058   0.2315   0.00    0.0
2026/01/15 00:59:00.000   67.857339258   20.968484385   385.3007   6   7   0.2292   0.2021   0.5782  -0.1238  -0.2047   0.2312   0.00    0.0
2026/01/15 00:59:30.000   67.857339384   20.968484316   385.3058   6   7   0.2286   0.2013   0.5765  -0.1233  -0.2036   0.2309   0.00    0.0
2026/01/15 01:00:00.000   67.857339522   20.968484310   385.2959   6   7   0.2280   0.2004   0.5744  -0.1226  -0.2022   0.2304   0.00    0.0
2026/01/15 01:00:30.000   67.857339637   20.968484269   385.2938   6   7   0.2274   0.1995   0.5724  -0.1220  -0.2008   0.2299   0.00    0.0
2026/01/15 01:01:00.000   67.857339747   20.968484229   385.2946   6   7   0.2268   0.1987   0.5705  -0.1213  -0.1994   0.2294   0.00    0.0
2026/01/15 01:01:30.000   67.857339877   20.968484217   385.2894   6   7   0.2261   0.1978   0.5685  -0.1207  -0.1981   0.2290   0.00    0.0
2026/01/15 01:02:00.000   67.857340002   20.968484194   385.2864   6   7   0.2255   0.1969   0.5665  -0.1200  -0.1967   0.2285   0.00    0.0
2026/01/15 01:02:30.000   67.857340127   20.968484153   385.2869   6   7   0.2249   0.1960   0.5646  -0.1194  -0.1953   0.2280   0.00    0.0
2026/01/15 01:03:00.000   67.857340321   20.968483787   385.3353   6   7   0.2242   0.1949   0.5617  -0.1185  -0.1931   0.2271   0.00    0.0
2026/01/15 01:03:30.000   67.857340517   20.968483431   385.3784   6   7   0.2236   0.1939   0.5590  -0.1177  -0.1909   0.2263   0.00    0.0
2026/01/15 01:04:00.000   67.857340702   20.968483104   385.4242   6   7   0.2229   0.1928   0.5562  -0.1168  -0.1888   0.2254   0.00    0.0
2026/01/15 01:04:30.000   67.857340886   20.968482703   385.4764   6   6   0.2222   0.1917   0.5536  -0.1160  -0.1867   0.2246   0.00    0.0
2026/01/15 01:05:00.000   67.857341072   20.968482396   385.5161   6   7   0.2216   0.1907   0.5509  -0.1152  -0.1846   0.2238   0.00    0.0
2026/01/15 01:05:30.000   67.857341253   20.968482063   385.5634   6   7   0.2209   0.1897   0.5483  -0.1143  -0.1826   0.2230   0.00    0.0
2026/01/15 01:06:00.000   67.857341429   20.968481855   385.6003   6   7   0.2203   0.1887   0.5457  -0.1135  -0.1805   0.2222   0.00    0.0
2026/01/15 01:06:30.000   67.857341599   20.968481581   385.6362   6   7   0.2197   0.1877   0.5431  -0.1127  -0.1785   0.2214   0.00    0.0
2026/01/15 01:07:00.000   67.857341795   20.968481221   385.6815   6   6   0.2191   0.1867   0.5406  -0.1119  -0.1765   0.2206   0.00    0.0
2026/01/15 01:07:30.000   67.857341971   20.968480888   385.7266   6   6   0.2184   0.1858   0.5382  -0.1112  -0.1746   0.2199   0.00    0.0
2026/01/15 01:08:00.000   67.857342158   20.968480555   385.7743   6   6   0.2178   0.1848   0.5357  -0.1104  -0.1726   0.2192   0.00    0.0
2026/01/15 01:08:30.000   67.857342346   20.968480248   385.8147   6   7   0.2172   0.1839   0.5333  -0.1096  -0.1706   0.2184   0.00    0.0
2026/01/15 01:09:00.000   67.857342528   20.968479990   385.8540   6   7   0.2166   0.1830   0.5309  -0.1088  -0.1687   0.2176   0.00    0.0
2026/01/15 01:09:30.000   67.857342695   20.968479772   385.8879   6   7   0.2160   0.1821   0.5285  -0.1081  -0.1668   0.2169   0.00    0.0
2026/01/15 01:10:00.000   67.857342888   20.968479435   385.9330   6   7   0.2154   0.1812   0.5261  -0.1073  -0.1649   0.2161   0.00    0.0
2026/01/15 01:10:30.000   67.857343074   20.968479055   385.9808   6   6   0.2148   0.1803   0.5238  -0.1066  -0.1630   0.2154   0.00    0.0
2026/01/15 01:11:00.000   67.857343251   20.968478765   386.0246   6   7   0.2142   0.1794   0.5215  -0.1058  -0.1611   0.2147   0.00    0.0
2026/01/15 01:11:30.000   67.857343435   20.968478465   386.0673   6   7   0.2136   0.1786   0.5192  -0.1051  -0.1593   0.2139   0.00    0.0
2026/01/15 01:12:00.000   67.857343644   20.968478159   386.1081   6   7   0.2131   0.1777   0.5169  -0.1044  -0.1574   0.2132   0.00    0.0
2026/01/15 01:12:30.000   67.857343804   20.968477869   386.1513   6   6   0.2125   0.1769   0.5148  -0.1037  -0.1556   0.2125   0.00    0.0
2026/01/15 01:13:00.000   67.857343987   20.968477610   386.1905   6   7   0.2119   0.1761   0.5125  -0.1030  -0.1538   0.2118   0.00    0.0
2026/01/15 01:13:30.000   67.857344167   20.968477307   386.2362   6   7   0.2113   0.1753   0.5103  -0.1022  -0.1520   0.2111   0.00    0.0
2026/01/15 01:14:00.000   67.857344342   20.968477047   386.2783   6   7   0.2108   0.1745   0.5082  -0.1015  -0.1503   0.2104   0.00    0.0
2026/01/15 01:14:30.000   67.857344529   20.968476750   386.3189   6   7   0.2102   0.1737   0.5060  -0.1008  -0.1485   0.2097   0.00    0.0
2026/01/15 01:15:00.000   67.857344710   20.968476498   386.3592   6   7   0.2096   0.1729   0.5039  -0.1002  -0.1467   0.2090   0.00    0.0
2026/01/15 01:15:30.000   67.857344894   20.968476219   386.3979   6   7   0.2091   0.1721   0.5018  -0.0995  -0.1450   0.2083   0.00    0.0
2026/01/15 01:16:00.000   67.857345067   20.968475958   386.4405   6   7   0.2085   0.1714   0.4997  -0.0988  -0.1433   0.2076   0.00    0.0
2026/01/15 01:16:30.000   67.857345234   20.968475728   386.4796   6   7   0.2080   0.1706   0.4976  -0.0981  -0.1415   0.2069   0.00    0.0
2026/01/15 01:17:00.000   67.857345421   20.968475473   386.5208   6   7   0.2074   0.1699   0.4956  -0.0975  -0.1398   0.2062   0.00    0.0
2026/01/15 01:17:30.000   67.857345586   20.968475246   386.5596   6   7   0.2069   0.1692   0.4935  -0.0968  -0.1381   0.2055   0.00    0.0
2026/01/15 01:18:00.000   67.857345766   20.968474976   386.6014   6   7   0.2064   0.1685   0.4915  -0.0961  -0.1365   0.2048   0.00    0.0
2026/01/15 01:18:30.000   67.857345933   20.968474758   386.6390   6   7   0.2058   0.1678   0.4895  -0.0955  -0.1348   0.2041   0.00    0.0
2026/01/15 01:19:00.000   67.857346096   20.968474495   386.6777   6   7   0.2053   0.1671   0.4876  -0.0948  -0.1331   0.2034   0.00    0.0
2026/01/15 01:19:30.000   67.857346265   20.968474299   386.7146   6   7   0.2048   0.1664   0.4856  -0.0942  -0.1315   0.2027   0.00    0.0
2026/01/15 01:20:00.000   67.857346444   20.968474076   386.7491   6   7   0.2042   0.1657   0.4837  -0.0936  -0.1299   0.2021   0.00    0.0
2026/01/15 01:20:30.000   67.857346623   20.968473839   386.7854   6   7   0.2037   0.1651   0.4817  -0.0930  -0.1282   0.2014   0.00    0.0
2026/01/15 01:21:00.000   67.857346780   20.968473653   386.8195   6   7   0.2032   0.1644   0.4798  -0.0923  -0.1266   0.2007   0.00    0.0
2026/01/15 01:21:30.000   67.857346961   20.968473419   386.8565   6   7   0.2027   0.1638   0.4779  -0.0917  -0.1250   0.2000   0.00    0.0
2026/01/15 01:22:00.000   67.857347132   20.968473201   386.8914   6   7   0.2022   0.1631   0.4760  -0.0911  -0.1234   0.1994   0.00    0.0
2026/01/15 01:22:30.000   67.857347317   20.968472961   386.9285   6   7   0.2017   0.1625   0.4742  -0.0905  -0.1219   0.1987   0.00    0.0
2026/01/15 01:23:00.000   67.857347483   20.968472756   386.9619   6   7   0.2012   0.1619   0.4723  -0.0899  -0.1203   0.1980   0.00    0.0
2026/01/15 01:23:30.000   67.857347644   20.968472562   386.9961   6   7   0.2007   0.1613   0.4705  -0.0893  -0.1187   0.1974   0.00    0.0
2026/01/15 01:24:00.000   67.857347808   20.968472326   387.0315   6   7   0.2002   0.1607   0.4687  -0.0887  -0.1172   0.1967   0.00    0.0
2026/01/15 01:24:30.000   67.857347970   20.968472118   387.0645   6   7   0.1996   0.1601   0.4669  -0.0881  -0.1156   0.1960   0.00    0.0
2026/01/15 01:25:00.000   67.857348126   20.968471876   387.1039   6   6   0.1992   0.1595   0.4652  -0.0875  -0.1142   0.1953   0.00    0.0
2026/01/15 01:25:30.000   67.857348266   20.968471695   387.1387   6   6   0.1987   0.1589   0.4636  -0.0869  -0.1128   0.1945   0.00    0.0
2026/01/15 01:26:00.000   67.857348422   20.968471452   387.1799   6   6   0.1982   0.1584   0.4620  -0.0863  -0.1114   0.1937   0.00    0.0
2026/01/15 01:26:30.000   67.857348564   20.968471264   387.2155   6   6   0.1978   0.1578   0.4603  -0.0857  -0.1100   0.1930   0.00    0.0
2026/01/15 01:27:00.000   67.857348714   20.968471064   387.2538   6   6   0.1973   0.1573   0.4587  -0.0851  -0.1086   0.1922   0.00    0.0
2026/01/15 01:27:30.000   67.857348847   20.968470875   387.2892   6   6   0.1969   0.1568   0.4571  -0.0846  -0.1072   0.1915   0.00    0.0
2026/01/15 01:28:00.000   67.857348995   20.968470647   387.3265   6   6   0.1964   0.1562   0.4555  -0.0840  -0.1058   0.1907   0.00    0.0
2026/01/15 01:28:30.000   67.857349130   20.968470456   387.3618   6   6   0.1959   0.1557   0.4540  -0.0834  -0.1044   0.1900   0.00    0.0
2026/01/15 01:29:00.000   67.857349273   20.968470240   387.3998   6   6   0.1955   0.1552   0.4524  -0.0828  -0.1030   0.1892   0.00    0.0
2026/01/15 01:29:30.000   67.857349410   20.968470036   387.4371   6   6   0.1950   0.1547   0.4508  -0.0823  -0.1016   0.1885   0.00    0.0
2026/01/15 01:30:00.000   67.857349546   20.968469842   387.4738   6   6   0.1946   0.1542   0.4492  -0.0817  -0.1003   0.1877   0.00    0.0
2026/01/15 01:30:30.000   67.857349687   20.968469638   387.5099   6   6   0.1941   0.1537   0.4477  -0.0812  -0.0989   0.1870   0.00    0.0
2026/01/15 01:31:00.000   67.857349802   20.968469556   387.5362   6   6   0.1937   0.1532   0.4461  -0.0807  -0.0975   0.1862   0.00    0.0
2026/01/15 01:31:30.000   67.857349932   20.968469384   387.5672   6   6   0.1932   0.1527   0.4446  -0.0801  -0.0962   0.1855   0.00    0.0
2026/01/15 01:32:00.000   67.857350075   20.968469180   387.6045   6   6   0.1928   0.1522   0.4431  -0.0796  -0.0948   0.1848   0.00    0.0
2026/01/15 01:32:30.000   67.857350205   20.968469029   387.6365   6   6   0.1923   0.1517   0.4415  -0.0791  -0.0935   0.1840   0.00    0.0
2026/01/15 01:33:00.000   67.857350333   20.968468880   387.6666   6   6   0.1919   0.1513   0.4400  -0.0786  -0.0922   0.1833   0.00    0.0
2026/01/15 01:33:30.000   67.857350477   20.968468697   387.7003   6   6   0.1914   0.1508   0.4385  -0.0781  -0.0908   0.1825   0.00    0.0
2026/01/15 01:34:00.000   67.857350617   20.968468525   387.7344   6   6   0.1910   0.1503   0.4370  -0.0776  -0.0895   0.1818   0.00    0.0
2026/01/15 01:34:30.000   67.857350741   20.968468416   387.7653   6   6   0.1906   0.1499   0.4355  -0.0771  -0.0882   0.1811   0.00    0.0
2026/01/15 01:35:00.000   67.857350864   20.968468246   387.7973   6   6   0.1901   0.1494   0.4340  -0.0766  -0.0869   0.1803   0.00    0.0
2026/01/15 01:35:30.000   67.857350974   20.968468154   387.8248   6   6   0.1897   0.1490   0.4325  -0.0761  -0.0855   0.1796   0.00    0.0
2026/01/15 01:36:00.000   67.857351102   20.968467980   387.8576   6   6   0.1893   0.1486   0.4310  -0.0756  -0.0842   0.1789   0.00    0.0
2026/01/15 01:36:30.000   67.857351224   20.968467812   387.8902   6   6   0.1888   0.1481   0.4295  -0.0752  -0.0829   0.1781   0.00    0.0
2026/01/15 01:37:00.000   67.857351352   20.968467647   387.9214   6   6   0.1884   0.1477   0.4281  -0.0747  -0.0816   0.1774   0.00    0.0
2026/01/15 01:37:30.000   67.857351474   20.968467477   387.9541   6   6   0.1880   0.1473   0.4266  -0.0743  -0.0803   0.1767   0.00    0.0
2026/01/15 01:38:00.000   67.857351591   20.968467359   387.9861   6   6   0.1875   0.1469   0.4251  -0.0738  -0.0790   0.1759   0.00    0.0
2026/01/15 01:38:30.000   67.857351709   20.968467205   388.0179   6   6   0.1871   0.1465   0.4237  -0.0734  -0.0777   0.1752   0.00    0.0
2026/01/15 01:39:00.000   67.857351817   20.968467061   388.0508   6   6   0.1867   0.1461   0.4222  -0.0729  -0.0764   0.1745   0.00    0.0
2026/01/15 01:39:30.000   67.857351930   20.968466903   388.0806   6   6   0.1863   0.1457   0.4208  -0.0725  -0.0751   0.1738   0.00    0.0
2026/01/15 01:40:00.000   67.857352059   20.968466779   388.1100   6   6   0.1858   0.1453   0.4194  -0.0721  -0.0738   0.1730   0.00    0.0
2026/01/15 01:40:30.000   67.857352181   20.968466601   388.1404   6   6   0.1854   0.1449   0.4179  -0.0717  -0.0725   0.1723   0.00    0.0
2026/01/15 01:41:00.000   67.857352288   20.968466491   388.1667   6   6   0.1850   0.1445   0.4165  -0.0713  -0.0712   0.1716   0.00    0.0
2026/01/15 01:41:30.000   67.857352394   20.968466366   388.1977   6   6   0.1846   0.1441   0.4151  -0.0709  -0.0699   0.1708   0.00    0.0
2026/01/15 01:42:00.000   67.857352508   20.968466227   388.2266   6   6   0.1842   0.1437   0.4137  -0.0705  -0.0686   0.1701   0.00    0.0
2026/01/15 01:42:30.000   67.857352602   20.968466109   388.2520   6   6   0.1837   0.1433   0.4122  -0.0701  -0.0674   0.1694   0.00    0.0
2026/01/15 01:43:00.000   67.857352709   20.968465981   388.2827   6   6   0.1833   0.1430   0.4108  -0.0697  -0.0661   0.1687   0.00    0.0
2026/01/15 01:43:30.000   67.857352809   20.968465883   388.3099   6   6   0.1829   0.1426   0.4094  -0.0693  -0.0648   0.1679   0.00    0.0
2026/01/15 01:44:00.000   67.857352893   20.968465775   388.3351   6   6   0.1825   0.1423   0.4080  -0.0689  -0.0635   0.1672   0.00    0.0
2026/01/15 01:44:30.000   67.857353007   20.968465653   388.3641   6   6   0.1821   0.1419   0.4066  -0.0686  -0.0622   0.1665   0.00    0.0
2026/01/15 01:45:00.000   67.857353107   20.968465546   388.3895   6   6   0.1817   0.1415   0.4052  -0.0682  -0.0609   0.1658   0.00    0.0
2026/01/15 01:45:30.000   67.857353213   20.968465442   388.4170   6   6   0.1813   0.1412   0.4038  -0.0679  -0.0596   0.1651   0.00    0.0
2026/01/15 01:46:00.000   67.857353313   20.968465334   388.4450   6   6   0.1809   0.1408   0.4025  -0.0675  -0.0584   0.1643   0.00    0.0
2026/01/15 01:46:30.000   67.857353404   20.968465225   388.4700   6   6   0.1805   0.1405   0.4011  -0.0672  -0.0571   0.1636   0.00    0.0
2026/01/15 01:47:00.000   67.857353500   20.968465121   388.4942   6   6   0.1801   0.1402   0.3997  -0.0669  -0.0558   0.1629   0.00    0.0
2026/01/15 01:47:30.000   67.857353601   20.968465029   388.5198   6   6   0.1797   0.1398   0.3983  -0.0665  -0.0545   0.1622   0.00    0.0
2026/01/15 01:48:00.000   67.857353689   20.968464925   388.5462   6   6   0.1793   0.1395   0.3970  -0.0662  -0.0532   0.1615   0.00    0.0
2026/01/15 01:48:30.000   67.857353784   20.968464812   388.5691   6   6   0.1789   0.1392   0.3956  -0.0659  -0.0519   0.1608   0.00    0.0
2026/01/15 01:49:00.000   67.857353867   20.968464734   388.5918   6   6   0.1785   0.1388   0.3943  -0.0656  -0.0506   0.1601   0.00    0.0
2026/01/15 01:49:30.000   67.857353965   20.968464663   388.6137   6   6   0.1780   0.1385   0.3929  -0.0652  -0.0493   0.1595   0.00    0.0
2026/01/15 01:50:00.000   67.857354076   20.968464571   388.6363   6   7   0.1775   0.1382   0.3914  -0.0649  -0.0481   0.1589   0.00    0.0
2026/01/15 01:50:30.000   67.857354171   20.968464511   388.6560   6   7   0.1771   0.1379   0.3901  -0.0646  -0.0468   0.1583   0.00    0.0
2026/01/15 01:51:00.000   67.857354274   20.968464408   388.6794   6   7   0.1766   0.1376   0.3887  -0.0642  -0.0456   0.1576   0.00    0.0
2026/01/15 01:51:30.000   67.857354376   20.968464298   388.7021   6   7   0.1762   0.1373   0.3873  -0.0639  -0.0443   0.1570   0.00    0.0
2026/01/15 01:52:00.000   67.857354493   20.968464178   388.7253   6   7   0.1757   0.1370   0.3859  -0.0636  -0.0431   0.1564   0.00    0.0
2026/01/15 01:52:30.000   67.857354595   20.968464099   388.7499   6   7   0.1752   0.1366   0.3845  -0.0633  -0.0418   0.1558   0.00    0.0
2026/01/15 01:53:00.000   67.857354692   20.968464013   388.7703   6   7   0.1748   0.1363   0.3832  -0.0630  -0.0405   0.1552   0.00    0.0
2026/01/15 01:53:30.000   67.857354785   20.968463915   388.7901   6   7   0.1743   0.1360   0.3818  -0.0627  -0.0393   0.1546   0.00    0.0
2026/01/15 01:54:00.000   67.857354886   20.968463830   388.8081   6   7   0.1739   0.1357   0.3804  -0.0624  -0.0380   0.1540   0.00    0.0
2026/01/15 01:54:30.000   67.857354964   20.968463727   388.8259   6   7   0.1734   0.1355   0.3791  -0.0621  -0.0367   0.1534   0.00    0.0
2026/01/15 01:55:00.000   67.857355060   20.968463652   388.8457   6   7   0.1730   0.1352   0.3777  -0.0618  -0.0354   0.1528   0.00    0.0
2026/01/15 01:55:30.000   67.857355157   20.968463541   388.8654   6   7   0.1725   0.1349   0.3764  -0.0615  -0.0340   0.1522   0.00    0.0
2026/01/15 01:56:00.000   67.857355246   20.968463442   388.8852   6   7   0.1721   0.1346   0.3751  -0.0612  -0.0327   0.1516   0.00    0.0
2026/01/15 01:56:30.000   67.857355346   20.968463341   388.9055   6   7   0.1716   0.1343   0.3738  -0.0610  -0.0313   0.1510   0.00    0.0
2026/01/15 01:57:00.000   67.857355444   20.968463254   388.9253   6   7   0.1712   0.1340   0.3724  -0.0607  -0.0299   0.1504   0.00    0.0
2026/01/15 01:57:30.000   67.857355546   20.968463105   388.9349   6   8   0.1708   0.1337   0.3710  -0.0604  -0.0291   0.1499   0.00    0.0
2026/01/15 01:58:00.000   67.857355642   20.968462964   388.9490   6   8   0.1703   0.1333   0.3696  -0.0601  -0.0283   0.1493   0.00    0.0
2026/01/15 01:58:30.000   67.857355737   20.968462820   388.9604   6   7   0.1699   0.1330   0.3682  -0.0598  -0.0275   0.1488   0.00    0.0
2026/01/15 01:59:00.000   67.857355822   20.968462688   388.9737   6   8   0.1694   0.1327   0.3669  -0.0595  -0.0266   0.1482   0.00    0.0
2026/01/15 01:59:30.000   67.857355921   20.968462535   388.9845   6   8   0.1690   0.1323   0.3655  -0.0592  -0.0258   0.1477   0.00    0.0
2026/01/15 02:00:00.000   67.857355992   20.968462382   388.9998   6   8   0.1686   0.1320   0.3641  -0.0588  -0.0251   0.1472   0.00    0.0
2026/01/15 02:00:30.000   67.857356082   20.968462232   389.0135   6   8   0.1681   0.1317   0.3628  -0.0585  -0.0243   0.1466   0.00    0.0
2026/01/15 02:01:00.000   67.857356163   20.968462066   389.0269   6   8   0.1677   0.1314   0.3615  -0.0582  -0.0235   0.1461   0.00    0.0
2026/01/15 02:01:30.000   67.857356252   20.968461935   389.0409   6   8   0.1673   0.1311   0.3601  -0.0579  -0.0227   0.1456   0.00    0.0
2026/01/15 02:02:00.000   67.857356337   20.968461780   389.0541   6   8   0.1669   0.1308   0.3588  -0.0576  -0.0219   0.1451   0.00    0.0
2026/01/15 02:02:30.000   67.857356415   20.968461657   389.0627   6   9   0.1665   0.1305   0.3574  -0.0572  -0.0206   0.1445   0.00    0.0
2026/01/15 02:03:00.000   67.857356482   20.968461527   389.0692   6   9   0.1660   0.1301   0.3560  -0.0569  -0.0191   0.1439   0.00    0.0
2026/01/15 02:03:30.000   67.857356549   20.968461414   389.0769   6   9   0.1656   0.1298   0.3546  -0.0565  -0.0177   0.1433   0.00    0.0
2026/01/15 02:04:00.000   67.857356607   20.968461309   389.0813   6   9   0.1652   0.1295   0.3532  -0.0562  -0.0161   0.1427   0.00    0.0
2026/01/15 02:04:30.000   67.857356683   20.968461184   389.0917   6   9   0.1648   0.1292   0.3519  -0.0558  -0.0144   0.1421   0.00    0.0
2026/01/15 02:05:00.000   67.857356751   20.968461063   389.1030   6   9   0.1643   0.1288   0.3505  -0.0555  -0.0126   0.1416   0.00    0.0
2026/01/15 02:05:30.000   67.857356822   20.968460958   389.1101   6   9   0.1639   0.1285   0.3492  -0.0551  -0.0106   0.1410   0.00    0.0
2026/01/15 02:06:00.000   67.857356882   20.968460858   389.1183   6   9   0.1635   0.1282   0.3478  -0.0548  -0.0081   0.1404   0.00    0.0
2026/01/15 02:06:30.000   67.857356944   20.968460745   389.1250   6   9   0.1631   0.1279   0.3465  -0.0545  -0.0046   0.1399   0.00    0.0
2026/01/15 02:07:00.000   67.857357003   20.968460625   389.1345   6   9   0.1627   0.1276   0.3452  -0.0542   0.0047   0.1393   0.00    0.0
2026/01/15 02:07:30.000   67.857357070   20.968460502   389.1447   6   9   0.1623   0.1272   0.3439  -0.0538   0.0080   0.1388   0.00    0.0
2026/01/15 02:08:00.000   67.857357126   20.968460372   389.1533   6   9   0.1619   0.1269   0.3426  -0.0535   0.0102   0.1382   0.00    0.0
2026/01/15 02:08:30.000   67.857357148   20.968460254   389.1558   6  10   0.1614   0.1266   0.3412  -0.0532   0.0118   0.1375   0.00    0.0
2026/01/15 02:09:00.000   67.857357158   20.968460153   389.1562   6  10   0.1609   0.1263   0.3398  -0.0530   0.0132   0.1367   0.00    0.0
2026/01/15 02:09:30.000   67.857357156   20.968460030   389.1509   6  10   0.1604   0.1260   0.3384  -0.0527   0.0144   0.1360   0.00    0.0
2026/01/15 02:10:00.000   67.857357165   20.968459931   389.1518   6  10   0.1599   0.1257   0.3370  -0.0524   0.0154   0.1352   0.00    0.0
2026/01/15 02:10:30.000   67.857357148   20.968459841   389.1447   6  10   0.1594   0.1254   0.3356  -0.0521   0.0164   0.1345   0.00    0.0
2026/01/15 02:11:00.000   67.857357132   20.968459769   389.1408   6  10   0.1590   0.1251   0.3343  -0.0519   0.0172   0.1337   0.00    0.0
2026/01/15 02:11:30.000   67.857357160   20.968459646   389.1449   6  10   0.1585   0.1248   0.3329  -0.0516   0.0180   0.1330   0.00    0.0
2026/01/15 02:12:00.000   67.857357157   20.968459532   389.1358   6   9   0.1582   0.1245   0.3322  -0.0515   0.0178   0.1328   0.00    0.0
2026/01/15 02:12:30.000   67.857357160   20.968459411   389.1290   6   9   0.1578   0.1243   0.3314  -0.0514   0.0175   0.1326   0.00    0.0
2026/01/15 02:13:00.000   67.857357150   20.968459298   389.1245   6   9   0.1575   0.1240   0.3306  -0.0513   0.0172   0.1324   0.00    0.0
2026/01/15 02:13:30.000   67.857357144   20.968459212   389.1179   6   9   0.1572   0.1237   0.3299  -0.0512   0.0169   0.1322   0.00    0.0
2026/01/15 02:14:00.000   67.857357128   20.968459137   389.1095   6   9   0.1569   0.1235   0.3292  -0.0511   0.0166   0.1319   0.00    0.0
2026/01/15 02:14:30.000   67.857357107   20.968459031   389.0985   6   9   0.1566   0.1232   0.3284  -0.0510   0.0163   0.1317   0.00    0.0
2026/01/15 02:15:00.000   67.857357086   20.968458967   389.0880   6   9   0.1563   0.1229   0.3277  -0.0509   0.0159   0.1315   0.00    0.0
2026/01/15 02:15:30.000   67.857357061   20.968458886   389.0795   6   9   0.1559   0.1227   0.3270  -0.0507   0.0156   0.1313   0.00    0.0
2026/01/15 02:16:00.000   67.857357022   20.968458808   389.0679   6   9   0.1556   0.1224   0.3263  -0.0506   0.0153   0.1311   0.00    0.0
2026/01/15 02:16:30.000   67.857357003   20.968458712   389.0580   6   9   0.1553   0.1221   0.3256  -0.0505   0.0150   0.1308   0.00    0.0
2026/01/15 02:17:00.000   67.857356992   20.968458621   389.0487   6   9   0.1550   0.1219   0.3249  -0.0504   0.0146   0.1306   0.00    0.0
2026/01/15 02:17:30.000   67.857356988   20.968458536   389.0420   6   9   0.1547   0.1216   0.3242  -0.0503   0.0143   0.1304   0.00    0.0
2026/01/15 02:18:00.000   67.857356972   20.968458455   389.0374   6   9   0.1544   0.1214   0.3235  -0.0502   0.0139   0.1302   0.00    0.0
2026/01/15 02:18:30.000   67.857356962   20.968458344   389.0303   6   9   0.1541   0.1211   0.3228  -0.0501   0.0135   0.1300   0.00    0.0
2026/01/15 02:19:00.000   67.857356943   20.968458270   389.0218   6   9   0.1538   0.1208   0.3222  -0.0500   0.0132   0.1297   0.00    0.0
2026/01/15 02:19:30.000   67.857356924   20.968458178   389.0124   6   9   0.1535   0.1206   0.3215  -0.0499   0.0128   0.1295   0.00    0.0
2026/01/15 02:20:00.000   67.857356901   20.968458079   389.0033   6   9   0.1532   0.1203   0.3208  -0.0499   0.0124   0.1293   0.00    0.0
2026/01/15 02:20:30.000   67.857356870   20.968457972   388.9931   6   9   0.1528   0.1201   0.3202  -0.0498   0.0120   0.1291   0.00    0.0
2026/01/15 02:21:00.000   67.857356828   20.968457866   388.9817   6   8   0.1525   0.1198   0.3195  -0.0497   0.0116   0.1289   0.00    0.0
2026/01/15 02:21:30.000   67.857356795   20.968457755   388.9734   6   9   0.1522   0.1196   0.3189  -0.0496   0.0112   0.1286   0.00    0.0
2026/01/15 02:22:00.000   67.857356782   20.968457661   388.9663   6   9   0.1519   0.1193   0.3182  -0.0495   0.0107   0.1284   0.00    0.0
2026/01/15 02:22:30.000   67.857356757   20.968457573   388.9580   6   9   0.1516   0.1191   0.3176  -0.0494   0.0103   0.1282   0.00    0.0
2026/01/15 02:23:00.000   67.857356720   20.968457482   388.9483   6   9   0.1513   0.1188   0.3170  -0.0493   0.0098   0.1280   0.00    0.0
2026/01/15 02:23:30.000   67.857356690   20.968457385   388.9412   6   9   0.1510   0.1186   0.3163  -0.0492   0.0093   0.1277   0.00    0.0
2026/01/15 02:24:00.000   67.857356655   20.968457283   388.9343   6   9   0.1507   0.1183   0.3157  -0.0491   0.0088   0.1275   0.00    0.0
2026/01/15 02:24:30.000   67.857356623   20.968457191   388.9282   6   9   0.1504   0.1181   0.3151  -0.0490   0.0083   0.1273   0.00    0.0
2026/01/15 02:25:00.000   67.857356598   20.968457076   388.9231   6   9   0.1501   0.1178   0.3145  -0.0489   0.0077   0.1271   0.00    0.0
2026/01/15 02:25:30.000   67.857356569   20.968456992   388.9173   6   9   0.1498   0.1176   0.3139  -0.0488   0.0071   0.1268   0.00    0.0
2026/01/15 02:26:00.000   67.857356550   20.968456898   388.9118   6   9   0.1495   0.1174   0.3132  -0.0487   0.0065   0.1266   0.00    0.0
2026/01/15 02:26:30.000   67.857356531   20.968456801   388.9055   6   9   0.1492   0.1171   0.3126  -0.0486   0.0057   0.1264   0.00    0.0
2026/01/15 02:27:00.000   67.857356507   20.968456682   388.9017   6   8   0.1489   0.1169   0.3121  -0.0485   0.0042   0.1261   0.00    0.0
2026/01/15 02:27:30.000   67.857356485   20.968456570   388.8976   6   8   0.1487   0.1166   0.3115  -0.0484   0.0015   0.1259   0.00    0.0
2026/01/15 02:28:00.000   67.857356454   20.968456457   388.8934   6   8   0.1484   0.1164   0.3110  -0.0483  -0.0036   0.1256   0.00    0.0
2026/01/15 02:28:30.000   67.857356421   20.968456332   388.8884   6   8   0.1481   0.1162   0.3105  -0.0482  -0.0053   0.1254   0.00    0.0
2026/01/15 02:29:00.000   67.857356397   20.968456227   388.8837   6   8   0.1478   0.1160   0.3099  -0.0481  -0.0065   0.1251   0.00    0.0
2026/01/15 02:29:30.000   67.857356366   20.968456108   388.8804   6   8   0.1475   0.1157   0.3094  -0.0480  -0.0075   0.1249   0.00    0.0
2026/01/15 02:30:00.000   67.857356339   20.968455996   388.8778   6   8   0.1473   0.1155   0.3088  -0.0479  -0.0084   0.1246   0.00    0.0
2026/01/15 02:30:30.000   67.857356317   20.968455883   388.8737   6   8   0.1470   0.1153   0.3083  -0.0477  -0.0092   0.1243   0.00    0.0
2026/01/15 02:31:00.000   67.857356295   20.968455768   388.8721   6   8   0.1467   0.1151   0.3078  -0.0476  -0.0099   0.1241   0.00    0.0
2026/01/15 02:31:30.000   67.857356279   20.968455667   388.8701   6   8   0.1464   0.1148   0.3073  -0.0475  -0.0106   0.1238   0.00    0.0
2026/01/15 02:32:00.000   67.857356252   20.968455550   388.8681   6   8   0.1461   0.1146   0.3068  -0.0474  -0.0112   0.1236   0.00    0.0
2026/01/15 02:32:30.000   67.857356219   20.968455452   388.8653   6   8   0.1459   0.1144   0.3062  -0.0473  -0.0118   0.1233   0.00    0.0
2026/01/15 02:33:00.000   67.857356195   20.968455348   388.8636   6   8   0.1456   0.1142   0.3057  -0.0472  -0.0123   0.1231   0.00    0.0
2026/01/15 02:33:30.000   67.857356169   20.968455244   388.8619   6   8   0.1453   0.1139   0.3052  -0.0471  -0.0128   0.1228   0.00    0.0
2026/01/15 02:34:00.000   67.857356144   20.968455159   388.8627   6   8   0.1450   0.1137   0.3047  -0.0470  -0.0133   0.1226   0.00    0.0
2026/01/15 02:34:30.000   67.857356118   20.968455046   388.8617   6   8   0.1448   0.1135   0.3042  -0.0469  -0.0137   0.1223   0.00    0.0
2026/01/15 02:35:00.000   67.857356094   20.968454929   388.8614   6   8   0.1445   0.1133   0.3037  -0.0468  -0.0142   0.1220   0.00    0.0
2026/01/15 02:35:30.000   67.857356074   20.968454825   388.8608   6   8   0.1442   0.1131   0.3032  -0.0467  -0.0146   0.1218   0.00    0.0
2026/01/15 02:36:00.000   67.857356051   20.968454733   388.8599   6   8   0.1439   0.1129   0.3027  -0.0466  -0.0150   0.1215   0.00    0.0
2026/01/15 02:36:30.000   67.857356022   20.968454621   388.8597   6   8   0.1437   0.1126   0.3022  -0.0465  -0.0153   0.1213   0.00    0.0
2026/01/15 02:37:00.000   67.857356001   20.968454527   388.8590   6   8   0.1434   0.1124   0.3017  -0.0464  -0.0157   0.1210   0.00    0.0
2026/01/15 02:37:30.000   67.857355980   20.968454432   388.8596   6   8   0.1431   0.1122   0.3012  -0.0463  -0.0160   0.1208   0.00    0.0
2026/01/15 02:38:00.000   67.857355964   20.968454326   388.8609   6   8   0.1429   0.1120   0.3007  -0.0462  -0.0164   0.1205   0.00    0.0
2026/01/15 02:38:30.000   67.857355939   20.968454229   388.8617   6   8   0.1426   0.1118   0.3002  -0.0462  -0.0167   0.1203   0.00    0.0
2026/01/15 02:39:00.000   67.857355918   20.968454138   388.8625   6   8   0.1423   0.1116   0.2998  -0.0461  -0.0170   0.1200   0.00    0.0
2026/01/15 02:39:30.000   67.857355900   20.968454038   388.8634   6   8   0.1421   0.1114   0.2993  -0.0460  -0.0173   0.1198   0.00    0.0
2026/01/15 02:40:00.000   67.857355876   20.968453936   388.8645   6   8   0.1418   0.1112   0.2988  -0.0459  -0.0176   0.1195   0.00    0.0
2026/01/15 02:40:30.000   67.857355863   20.968453835   388.8660   6   8   0.1415   0.1109   0.2983  -0.0458  -0.0178   0.1193   0.00    0.0
2026/01/15 02:41:00.000   67.857355849   20.968453736   388.8677   6   8   0.1413   0.1107   0.2978  -0.0457  -0.0181   0.1190   0.00    0.0
2026/01/15 02:41:30.000   67.857355828   20.968453627   388.8688   6   8   0.1410   0.1105   0.2974  -0.0456  -0.0183   0.1188   0.00    0.0
2026/01/15 02:42:00.000   67.857355812   20.968453520   388.8696   6   8   0.1408   0.1103   0.2969  -0.0455  -0.0186   0.1185   0.00    0.0
2026/01/15 02:42:30.000   67.857355794   20.968453408   388.8703   6   8   0.1405   0.1101   0.2964  -0.0454  -0.0188   0.1183   0.00    0.0
2026/01/15 02:43:00.000   67.857355775   20.968453291   388.8717   6   8   0.1402   0.1099   0.2959  -0.0453  -0.0190   0.1180   0.00    0.0
2026/01/15 02:43:30.000   67.857355757   20.968453194   388.8737   6   8   0.1400   0.1097   0.2955  -0.0452  -0.0192   0.1178   0.00    0.0
2026/01/15 02:44:00.000   67.857355739   20.968453101   388.8762   6   8   0.1397   0.1095   0.2950  -0.0452  -0.0194   0.1175   0.00    0.0
2026/01/15 02:44:30.000   67.857355721   20.968452999   388.8779   6   8   0.1395   0.1093   0.2945  -0.0451  -0.0196   0.1173   0.00    0.0
2026/01/15 02:45:00.000   67.857355696   20.968452908   388.8802   6   8   0.1392   0.1091   0.2941  -0.0450  -0.0198   0.1170   0.00    0.0
2026/01/15 02:45:30.000   67.857355680   20.968452812   388.8841   6   8   0.1390   0.1089   0.2936  -0.0449  -0.0200   0.1168   0.00    0.0
2026/01/15 02:46:00.000   67.857355670   20.968452715   388.8881   6   8   0.1387   0.1087   0.2931  -0.0448  -0.0202   0.1165   0.00    0.0
2026/01/15 02:46:30.000   67.857355659   20.968452604   388.8930   6   8   0.1385   0.1085   0.2926  -0.0447  -0.0203   0.1163   0.00    0.0
2026/01/15 02:47:00.000   67.857355651   20.968452505   388.8974   6   8   0.1382   0.1083   0.2922  -0.0447  -0.0205   0.1160   0.00    0.0
2026/01/15 02:47:30.000   67.857355638   20.968452412   388.9008   6   8   0.1379   0.1081   0.2917  -0.0446  -0.0206   0.1158   0.00    0.0
2026/01/15 02:48:00.000   67.857355623   20.968452297   388.9046   6   8   0.1377   0.1079   0.2912  -0.0445  -0.0208   0.1155   0.00    0.0
2026/01/15 02:48:30.000   67.857355603   20.968452191   388.9089   6   8   0.1374   0.1077   0.2908  -0.0444  -0.0209   0.1153   0.00    0.0
2026/01/15 02:49:00.000   67.857355595   20.968452078   388.9123   6   8   0.1372   0.1075   0.2903  -0.0443  -0.0211   0.1150   0.00    0.0
2026/01/15 02:49:30.000   67.857355579   20.968451970   388.9172   6   8   0.1370   0.1073   0.2899  -0.0442  -0.0212   0.1148   0.00    0.0
2026/01/15 02:50:00.000   67.857355569   20.968451859   388.9203   6   8   0.1367   0.1071   0.2894  -0.0442  -0.0213   0.1145   0.00    0.0
2026/01/15 02:50:30.000   67.857355547   20.968451766   388.9238   6   8   0.1365   0.1070   0.2889  -0.0441  -0.0214   0.1143   0.00    0.0
2026/01/15 02:51:00.000   67.857355526   20.968451665   388.9290   6   7   0.1362   0.1068   0.2885  -0.0440  -0.0215   0.1140   0.00    0.0
2026/01/15 02:51:30.000   67.857355514   20.968451569   388.9347   6   7   0.1360   0.1066   0.2880  -0.0439  -0.0216   0.1138   0.00    0.0
2026/01/15 02:52:00.000   67.857355500   20.968451461   388.9395   6   7   0.1357   0.1064   0.2875  -0.0438  -0.0217   0.1135   0.00    0.0
2026/01/15 02:52:30.000   67.857355488   20.968451350   388.9450   6   7   0.1355   0.1062   0.2871  -0.0438  -0.0218   0.1133   0.00    0.0
2026/01/15 02:53:00.000   67.857355475   20.968451246   388.9508   6   7   0.1353   0.1060   0.2866  -0.0437  -0.0219   0.1130   0.00    0.0
2026/01/15 02:53:30.000   67.857355472   20.968451138   388.9568   6   7   0.1350   0.1058   0.2861  -0.0436  -0.0220   0.1128   0.00    0.0
2026/01/15 02:54:00.000   67.857355468   20.968451036   388.9633   6   8   0.1348   0.1056   0.2857  -0.0435  -0.0221   0.1125   0.00    0.0
2026/01/15 02:54:30.000   67.857355464   20.968450940   388.9681   6   7   0.1345   0.1054   0.2852  -0.0434  -0.0221   0.1123   0.00    0.0
2026/01/15 02:55:00.000   67.857355451   20.968450852   388.9737   6   8   0.1343   0.1053   0.2847  -0.0434  -0.0222   0.1120   0.00    0.0
2026/01/15 02:55:30.000   67.857355447   20.968450754   388.9807   6   8   0.1341   0.1051   0.2843  -0.0433  -0.0222   0.1118   0.00    0.0
2026/01/15 02:56:00.000   67.857355445   20.968450665   388.9869   6   8   0.1338   0.1049   0.2838  -0.0432  -0.0223   0.1115   0.00    0.0
2026/01/15 02:56:30.000   67.857355442   20.968450558   388.9933   6   8   0.1336   0.1047   0.2833  -0.0431  -0.0224   0.1113   0.00    0.0
2026/01/15 02:57:00.000   67.857355438   20.968450462   389.0005   6   8   0.1334   0.1045   0.2829  -0.0431  -0.0224   0.1110   0.00    0.0
2026/01/15 02:57:30.000   67.857355425   20.968450374   389.0075   6   8   0.1331   0.1043   0.2824  -0.0430  -0.0224   0.1107   0.00    0.0
2026/01/15 02:58:00.000   67.857355412   20.968450274   389.0137   6   8   0.1329   0.1042   0.2819  -0.0429  -0.0225   0.1105   0.00    0.0
2026/01/15 02:58:30.000   67.857355413   20.968450184   389.0210   6   9   0.1327   0.1040   0.2814  -0.0428  -0.0227   0.1103   0.00    0.0
2026/01/15 02:59:00.000   67.857355406   20.968450090   389.0282   6   9   0.1324   0.1038   0.2809  -0.0427  -0.0228   0.1100   0.00    0.0
2026/01/15 02:59:30.000   67.857355415   20.968449977   389.0359   6   9   0.1322   0.1036   0.2805  -0.0426  -0.0230   0.1098   0.00    0.0
2026/01/15 03:00:00.000   67.857355431   20.968449895   389.0508   6   9   0.1319   0.1034   0.2798  -0.0425  -0.0232   0.1094   0.00    0.0
2026/01/15 03:00:30.000   67.857355455   20.968449788   389.0654   6   9   0.1316   0.1032   0.2792  -0.0424  -0.0234   0.1091   0.00    0.0
2026/01/15 03:01:00.000   67.857355465   20.968449679   389.0773   6   8   0.1313   0.1029   0.2786  -0.0423  -0.0236   0.1087   0.00    0.0
2026/01/15 03:01:30.000   67.857355475   20.968449578   389.0898   6   8   0.1310   0.1027   0.2779  -0.0422  -0.0238   0.1084   0.00    0.0
2026/01/15 03:02:00.000   67.857355498   20.968449471   389.1024   6   9   0.1307   0.1025   0.2773  -0.0421  -0.0239   0.1080   0.00    0.0
2026/01/15 03:02:30.000   67.857355524   20.968449378   389.1167   6   9   0.1304   0.1023   0.2767  -0.0419  -0.0241   0.1077   0.00    0.0
2026/01/15 03:03:00.000   67.857355549   20.968449289   389.1300   6   9   0.1301   0.1021   0.2761  -0.0418  -0.0242   0.1073   0.00    0.0
2026/01/15 03:03:30.000   67.857355560   20.968449194   389.1420   6   9   0.1298   0.1019   0.2755  -0.0417  -0.0244   0.1070   0.00    0.0
2026/01/15 03:04:00.000   67.857355571   20.968449107   389.1558   6   8   0.1295   0.1017   0.2749  -0.0416  -0.0245   0.1067   0.00    0.0
2026/01/15 03:04:30.000   67.857355588   20.968449039   389.1712   6   9   0.1293   0.1015   0.2743  -0.0415  -0.0246   0.1063   0.00    0.0
2026/01/15 03:05:00.000   67.857355609   20.968448953   389.1864   6   9   0.1290   0.1013   0.2737  -0.0414  -0.0247   0.1060   0.00    0.0
2026/01/15 03:05:30.000   67.857355633   20.968448843   389.2005   6   9   0.1287   0.1011   0.2731  -0.0413  -0.0248   0.1057   0.00    0.0
2026/01/15 03:06:00.000   67.857355646   20.968448745   389.2138   6   9   0.1284   0.1009   0.2725  -0.0412  -0.0249   0.1053   0.00    0.0
2026/01/15 03:06:30.000   67.857355670   20.968448650   389.2287   6   9   0.1281   0.1007   0.2718  -0.0411  -0.0251   0.1049   0.00    0.0
2026/01/15 03:07:00.000   67.857355697   20.968448552   389.2426   6   9   0.1278   0.1005   0.2711  -0.0410  -0.0253   0.1044   0.00    0.0
2026/01/15 03:07:30.000   67.857355730   20.968448469   389.2604   6   9   0.1275   0.1003   0.2704  -0.0409  -0.0254   0.1040   0.00    0.0
2026/01/15 03:08:00.000   67.857355761   20.968448381   389.2781   6   9   0.1271   0.1001   0.2697  -0.0409  -0.0256   0.1036   0.00    0.0
2026/01/15 03:08:30.000   67.857355791   20.968448309   389.2947   6   9   0.1268   0.0999   0.2691  -0.0408  -0.0257   0.1031   0.00    0.0
2026/01/15 03:09:00.000   67.857355819   20.968448219   389.3099   6   9   0.1265   0.0997   0.2684  -0.0407  -0.0259   0.1027   0.00    0.0
2026/01/15 03:09:30.000   67.857355849   20.968448126   389.3254   6   9   0.1262   0.0995   0.2677  -0.0406  -0.0260   0.1023   0.00    0.0
2026/01/15 03:10:00.000   67.857355875   20.968448035   389.3393   6   9   0.1259   0.0993   0.2671  -0.0405  -0.0261   0.1019   0.00    0.0
2026/01/15 03:10:30.000   67.857355866   20.968447940   389.3447   6   8   0.1257   0.0991   0.2667  -0.0404  -0.0261   0.1017   0.00    0.0
2026/01/15 03:11:00.000   67.857355862   20.968447833   389.3501   6   8   0.1254   0.0990   0.2662  -0.0403  -0.0261   0.1015   0.00    0.0
2026/01/15 03:11:30.000   67.857355856   20.968447749   389.3559   6   8   0.1252   0.0988   0.2658  -0.0402  -0.0261   0.1013   0.00    0.0
2026/01/15 03:12:00.000   67.857355853   20.968447668   389.3625   6   8   0.1250   0.0986   0.2654  -0.0401  -0.0261   0.1012   0.00    0.0
2026/01/15 03:12:30.000   67.857355857   20.968447571   389.3692   6   8   0.1247   0.0984   0.2650  -0.0400  -0.0261   0.1010   0.00    0.0
2026/01/15 03:13:00.000   67.857355856   20.968447495   389.3766   6   8   0.1245   0.0982   0.2646  -0.0398  -0.0261   0.1008   0.00    0.0
2026/01/15 03:13:30.000   67.857355858   20.968447413   389.3837   6   8   0.1243   0.0980   0.2642  -0.0397  -0.0261   0.1006   0.00    0.0
2026/01/15 03:14:00.000   67.857355856   20.968447313   389.3914   6   8   0.1241   0.0979   0.2638  -0.0396  -0.0261   0.1005   0.00    0.0
2026/01/15 03:14:30.000   67.857355861   20.968447228   389.3998   6   8   0.1238   0.0977   0.2634  -0.0395  -0.0261   0.1003   0.00    0.0
2026/01/15 03:15:00.000   67.857355866   20.968447127   389.4082   6   8   0.1236   0.0975   0.2630  -0.0394  -0.0261   0.1001   0.00    0.0
2026/01/15 03:15:30.000   67.857355865   20.968447038   389.4143   6   8   0.1234   0.0973   0.2625  -0.0393  -0.0260   0.0999   0.00    0.0
2026/01/15 03:16:00.000   67.857355863   20.968446946   389.4214   6   8   0.1232   0.0971   0.2621  -0.0392  -0.0260   0.0997   0.00    0.0
2026/01/15 03:16:30.000   67.857355865   20.968446851   389.4305   6   8   0.1229   0.0970   0.2617  -0.0391  -0.0260   0.0996   0.00    0.0
2026/01/15 03:17:00.000   67.857355872   20.968446756   389.4387   6   8   0.1227   0.0968   0.2613  -0.0390  -0.0259   0.0994   0.00    0.0
2026/01/15 03:17:30.000   67.857355882   20.968446663   389.4454   6   8   0.1225   0.0966   0.2609  -0.0389  -0.0259   0.0992   0.00    0.0
2026/01/15 03:18:00.000   67.857355886   20.968446585   389.4547   6   8   0.1223   0.0964   0.2605  -0.0388  -0.0258   0.0990   0.00    0.0
2026/01/15 03:18:30.000   67.857355894   20.968446497   389.4612   6   7   0.1221   0.0963   0.2601  -0.0387  -0.0258   0.0989   0.00    0.0
2026/01/15 03:19:00.000   67.857355902   20.968446417   389.4691   6   8   0.1219   0.0961   0.2597  -0.0386  -0.0257   0.0987   0.00    0.0
2026/01/15 03:19:30.000   67.857355903   20.968446337   389.4773   6   8   0.1216   0.0959   0.2593  -0.0384  -0.0256   0.0985   0.00    0.0
2026/01/15 03:20:00.000   67.857355915   20.968446260   389.4855   6   8   0.1214   0.0957   0.2589  -0.0383  -0.0256   0.0983   0.00    0.0
2026/01/15 03:20:30.000   67.857355933   20.968446179   389.4941   6   8   0.1212   0.0956   0.2584  -0.0382  -0.0255   0.0981   0.00    0.0
2026/01/15 03:21:00.000   67.857355939   20.968446108   389.5038   6   8   0.1210   0.0954   0.2580  -0.0381  -0.0254   0.0980   0.00    0.0
2026/01/15 03:21:30.000   67.857355953   20.968446021   389.5122   6   8   0.1208   0.0952   0.2576  -0.0380  -0.0253   0.0978   0.00    0.0
2026/01/15 03:22:00.000   67.857355964   20.968445932   389.5206   6   8   0.1206   0.0951   0.2572  -0.0379  -0.0252   0.0976   0.00    0.0
2026/01/15 03:22:30.000   67.857355982   20.968445831   389.5287   6   8   0.1204   0.0949   0.2568  -0.0378  -0.0251   0.0974   0.00    0.0
2026/01/15 03:23:00.000   67.857355990   20.968445738   389.5387   6   8   0.1201   0.0947   0.2564  -0.0377  -0.0251   0.0972   0.00    0.0
2026/01/15 03:23:30.000   67.857356008   20.968445646   389.5483   6   8   0.1199   0.0946   0.2560  -0.0376  -0.0249   0.0971   0.00    0.0
2026/01/15 03:24:00.000   67.857356031   20.968445540   389.5581   6   8   0.1197   0.0944   0.2556  -0.0375  -0.0248   0.0969   0.00    0.0
2026/01/15 03:24:30.000   67.857356044   20.968445478   389.5657   6   8   0.1195   0.0942   0.2551  -0.0374  -0.0247   0.0967   0.00    0.0
2026/01/15 03:25:00.000   67.857356063   20.968445395   389.5754   6   7   0.1193   0.0941   0.2547  -0.0373  -0.0246   0.0965   0.00    0.0
2026/01/15 03:25:30.000   67.857356082   20.968445321   389.5842   6   7   0.1191   0.0939   0.2543  -0.0372  -0.0245   0.0963   0.00    0.0
2026/01/15 03:26:00.000   67.857356092   20.968445250   389.5945   6   7   0.1189   0.0938   0.2539  -0.0371  -0.0244   0.0962   0.00    0.0
2026/01/15 03:26:30.000   67.857356104   20.968445183   389.6052   6   7   0.1187   0.0936   0.2535  -0.0370  -0.0242   0.0960   0.00    0.0
2026/01/15 03:27:00.000   67.857356117   20.968445112   389.6142   6   7   0.1185   0.0934   0.2531  -0.0369  -0.0241   0.0958   0.00    0.0
2026/01/15 03:27:30.000   67.857356128   20.968445026   389.6249   6   7   0.1183   0.0933   0.2527  -0.0368  -0.0239   0.0956   0.00    0.0
2026/01/15 03:28:00.000   67.857356149   20.968444959   389.6344   6   7   0.1181   0.0931   0.2522  -0.0367  -0.0238   0.0954   0.00    0.0
2026/01/15 03:28:30.000   67.857356174   20.968444870   389.6445   6   8   0.1179   0.0930   0.2518  -0.0366  -0.0236   0.0952   0.00    0.0
2026/01/15 03:29:00.000   67.857356187   20.968444784   389.6545   6   8   0.1177   0.0928   0.2514  -0.0365  -0.0235   0.0950   0.00    0.0
2026/01/15 03:29:30.000   67.857356204   20.968444710   389.6657   6   8   0.1175   0.0926   0.2510  -0.0364  -0.0233   0.0949   0.00    0.0
2026/01/15 03:30:00.000   67.857356229   20.968444640   389.6769   6   8   0.1173   0.0925   0.2505  -0.0363  -0.0232   0.0947   0.00    0.0
2026/01/15 03:30:30.000   67.857356244   20.968444569   389.6887   6   7   0.1171   0.0924   0.2501  -0.0363  -0.0229   0.0945   0.00    0.0
2026/01/15 03:31:00.000   67.857356257   20.968444485   389.7010   6   7   0.1169   0.0922   0.2497  -0.0362  -0.0226   0.0942   0.00    0.0
