% program   : RTKLIB ver.EX 2.5.0
% inp file  : C:\PPP_PROJECT\New_Data\obs\RNXDATA\WUH200CHN_R_20260150000_01D_30S_MO.rnx
% inp file  : C:\PPP_PROJECT\New_Data\nav\BRDC00IGS_R_20260150000_01D_MN.rnx
% inp file  : .
% inp file  : .
% inp file  : .
% inp file  : .
% obs start : 2026/01/15 00:00:00.0 GPST (week2401 345600.0s)
% obs end   : 2026/01/15 23:59:30.0 GPST (week2401 431970.0s)
% pos mode  : PPP Static
% freqs     : L1
% solution  : Forward
% elev mask : 15.0 deg
% dynamics  : on
% tidecorr  :
% ionos opt : Broadcast
% tropo opt : Saastamoinen
% ephemeris : Broadcast
% navi sys  : GPS
% antenna1  :                       ( 0.0000  0.0000  0.0000)
%
% (lat/lon/height=WGS84/ellipsoidal,Q=1:fix,2:float,3:sbas,4:dgps,5:single,6:ppp,ns=# of satellites)
%  GPST                  latitude(deg) longitude(deg)  height(m)   Q  ns   sdn(m)   sde(m)   sdu(m)  sdne(m)  sdeu(m)  sdun(m) age(s)  ratio
2026/01/15 00:01:00.000   30.531707977  114.357246456    24.3869   6   4   1.7011   1.8502   4.8428  -0.9628   2.0441  -1.6892   0.00    0.0
2026/01/15 00:01:30.000   30.531707972  114.357246288    24.4541   6   4   1.4732   1.6046   4.1913  -0.8330   1.7731  -1.4578   0.00    0.0
2026/01/15 00:02:00.000   30.531707655  114.357247097    24.5636   6   4   1.3175   1.4371   3.7451  -0.7440   1.5877  -1.2987   0.00    0.0
2026/01/15 00:02:30.000   30.531707368  114.357247108    24.4308   6   4   1.2025   1.3135   3.4147  -0.6781   1.4507  -1.1805   0.00    0.0
2026/01/15 00:03:00.000   30.531707525  114.357247341    24.3880   6   4   1.1131   1.2175   3.1572  -0.6268   1.3442  -1.0882   0.00    0.0
2026/01/15 00:03:30.000   30.531707577  114.357248159    24.4571   6   4   1.0410   1.1401   2.9493  -0.5853   1.2582  -1.0134   0.00    0.0
2026/01/15 00:04:00.000   30.531707622  114.357248514    24.5360   6   4   0.9813   1.0761   2.7767  -0.5508   1.1870  -0.9512   0.00    0.0
2026/01/15 00:04:30.000   30.531707717  114.357248200    24.4675   6   4   0.9307   1.0221   2.6304  -0.5216   1.1268  -0.8982   0.00    0.0
2026/01/15 00:05:00.000   30.531708105  114.357248284    24.5147   6   4   0.8873   0.9756   2.5044  -0.4964   1.0750  -0.8525   0.00    0.0
2026/01/15 00:05:30.000   30.531707942  114.357248478    24.5613   6   4   0.8494   0.9351   2.3942  -0.4744   1.0298  -0.8125   0.00    0.0
2026/01/15 00:06:00.000   30.531708027  114.357248612    24.6582   6   4   0.8159   0.8994   2.2969  -0.4549   0.9899  -0.7770   0.00    0.0
2026/01/15 00:06:30.000   30.531707997  114.357248531    24.6475   6   4   0.7862   0.8677   2.2101  -0.4375   0.9544  -0.7452   0.00    0.0
2026/01/15 00:07:00.000   30.531707970  114.357248430    24.6851   6   4   0.7594   0.8392   2.1320  -0.4219   0.9226  -0.7166   0.00    0.0
2026/01/15 00:07:30.000   30.531707789  114.357248653    24.7793   6   4   0.7353   0.8134   2.0613  -0.4077   0.8937  -0.6905   0.00    0.0
2026/01/15 00:08:00.000   30.531707555  114.357248307    24.6692   6   4   0.7124   0.7839   1.9710  -0.3991   0.8492  -0.6752   0.00    0.0
2026/01/15 00:08:30.000   30.531707432  114.357248183    24.5859   6   4   0.6915   0.7577   1.8921  -0.3907   0.8108  -0.6600   0.00    0.0
2026/01/15 00:09:00.000   30.531707343  114.357248059    24.4034   6   4   0.6724   0.7342   1.8221  -0.3826   0.7773  -0.6452   0.00    0.0
2026/01/15 00:09:30.000   30.531707268  114.357248108    24.3398   6   4   0.6548   0.7129   1.7594  -0.3748   0.7477  -0.6309   0.00    0.0
2026/01/15 00:10:00.000   30.531707247  114.357247952    24.2973   6   4   0.6385   0.6936   1.7028  -0.3673   0.7213  -0.6172   0.00    0.0
2026/01/15 00:10:30.000   30.531707263  114.357247598    24.1520   6   4   0.6233   0.6758   1.6513  -0.3603   0.6975  -0.6041   0.00    0.0
2026/01/15 00:11:00.000   30.531707208  114.357247331    24.0539   6   4   0.6092   0.6595   1.6043  -0.3535   0.6760  -0.5915   0.00    0.0
2026/01/15 00:11:30.000   30.531707008  114.357247466    24.0414   6   4   0.5960   0.6444   1.5609  -0.3471   0.6564  -0.5795   0.00    0.0
2026/01/15 00:12:00.000   30.531706985  114.357247389    23.9621   6   4   0.5836   0.6303   1.5209  -0.3410   0.6385  -0.5681   0.00    0.0
2026/01/15 00:12:30.000   30.531706944  114.357247321    23.9376   6   4   0.5719   0.6172   1.4838  -0.3351   0.6220  -0.5571   0.00    0.0
2026/01/15 00:13:00.000   30.531707005  114.357247114    23.9353   6   4   0.5609   0.6050   1.4491  -0.3296   0.6068  -0.5466   0.00    0.0
2026/01/15 00:13:30.000   30.531707078  114.357246927    23.8579   6   4   0.5505   0.5935   1.4168  -0.3243   0.5926  -0.5366   0.00    0.0
2026/01/15 00:14:00.000   30.531707058  114.357246844    23.8303   6   4   0.5407   0.5827   1.3864  -0.3192   0.5795  -0.5270   0.00    0.0
2026/01/15 00:14:30.000   30.531707105  114.357246864    23.8303   6   4   0.5314   0.5725   1.3579  -0.3144   0.5672  -0.5178   0.00    0.0
2026/01/15 00:15:00.000   30.531707206  114.357246723    23.7821   6   4   0.5225   0.5628   1.3310  -0.3097   0.5557  -0.5090   0.00    0.0
2026/01/15 00:15:30.000   30.531707304  114.357246756    23.7647   6   4   0.5141   0.5537   1.3056  -0.3053   0.5449  -0.5006   0.00    0.0
2026/01/15 00:16:00.000   30.531707236  114.357246694    23.7342   6   4   0.5060   0.5450   1.2816  -0.3010   0.5348  -0.4925   0.00    0.0
2026/01/15 00:16:30.000   30.531707198  114.357246603    23.7216   6   4   0.4984   0.5368   1.2588  -0.2970   0.5252  -0.4846   0.00    0.0
2026/01/15 00:17:00.000   30.531707242  114.357246552    23.7136   6   4   0.4910   0.5290   1.2371  -0.2930   0.5161  -0.4771   0.00    0.0
2026/01/15 00:17:30.000   30.531707186  114.357246557    23.7083   6   4   0.4840   0.5215   1.2164  -0.2893   0.5076  -0.4699   0.00    0.0
2026/01/15 00:18:00.000   30.531707085  114.357246629    23.7184   6   4   0.4773   0.5144   1.1968  -0.2856   0.4994  -0.4629   0.00    0.0
2026/01/15 00:18:30.000   30.531707166  114.357246658    23.7027   6   4   0.4708   0.5075   1.1780  -0.2822   0.4917  -0.4562   0.00    0.0
2026/01/15 00:19:00.000   30.531707216  114.357246684    23.7093   6   4   0.4646   0.5010   1.1600  -0.2788   0.4844  -0.4497   0.00    0.0
2026/01/15 00:19:30.000   30.531707165  114.357246773    23.6967   6   4   0.4587   0.4947   1.1428  -0.2756   0.4774  -0.4434   0.00    0.0
2026/01/15 00:20:00.000   30.531707173  114.357246950    23.6831   6   4   0.4529   0.4887   1.1264  -0.2724   0.4707  -0.4374   0.00    0.0
2026/01/15 00:20:30.000   30.531707218  114.357246986    23.6885   6   4   0.4474   0.4830   1.1106  -0.2694   0.4643  -0.4315   0.00    0.0
2026/01/15 00:21:00.000   30.531707232  114.357246975    23.6977   6   4   0.4421   0.4774   1.0954  -0.2665   0.4582  -0.4259   0.00    0.0
2026/01/15 00:21:30.000   30.531707234  114.357247008    23.6958   6   4   0.4370   0.4721   1.0808  -0.2637   0.4524  -0.4204   0.00    0.0
2026/01/15 00:22:00.000   30.531707256  114.357247093    23.6758   6   4   0.4320   0.4669   1.0668  -0.2610   0.4468  -0.4151   0.00    0.0
2026/01/15 00:22:30.000   30.531707258  114.357247121    23.6373   6   4   0.4272   0.4620   1.0532  -0.2583   0.4414  -0.4099   0.00    0.0
2026/01/15 00:23:00.000   30.531707329  114.357247151    23.6085   6   4   0.4226   0.4572   1.0402  -0.2558   0.4362  -0.4049   0.00    0.0
2026/01/15 00:23:30.000   30.531707326  114.357247084    23.5945   6   4   0.4182   0.4526   1.0276  -0.2533   0.4313  -0.4001   0.00    0.0
2026/01/15 00:24:00.000   30.531707317  114.357247086    23.5932   6   4   0.4138   0.4481   1.0155  -0.2509   0.4265  -0.3954   0.00    0.0
2026/01/15 00:24:30.000   30.531707274  114.357247068    23.5776   6   4   0.4096   0.4438   1.0038  -0.2486   0.4219  -0.3908   0.00    0.0
2026/01/15 00:25:00.000   30.531707232  114.357247084    23.5857   6   4   0.4056   0.4396   0.9924  -0.2463   0.4175  -0.3864   0.00    0.0
2026/01/15 00:25:30.000   30.531707140  114.357247141    23.5993   6   4   0.4016   0.4356   0.9815  -0.2441   0.4133  -0.3821   0.00    0.0
2026/01/15 00:26:00.000   30.531706699  114.357247691    23.7268   6   4   0.3955   0.4284   0.9635  -0.2373   0.4014  -0.3711   0.00    0.0
2026/01/15 00:26:30.000   30.531706432  114.357248117    23.8068   6   4   0.3897   0.4217   0.9466  -0.2309   0.3903  -0.3608   0.00    0.0
2026/01/15 00:27:00.000   30.531706123  114.357248526    23.8914   6   4   0.3842   0.4153   0.9307  -0.2249   0.3800  -0.3511   0.00    0.0
2026/01/15 00:27:30.000   30.531705920  114.357248936    23.9597   6   4   0.3790   0.4093   0.9157  -0.2193   0.3703  -0.3420   0.00    0.0
2026/01/15 00:28:00.000   30.531705613  114.357249331    24.0473   6   4   0.3744   0.4036   0.9024  -0.2140   0.3613  -0.3325   0.00    0.0
2026/01/15 00:28:30.000   30.531705363  114.357249785    24.1356   6   4   0.3700   0.3981   0.8898  -0.2090   0.3528  -0.3235   0.00    0.0
2026/01/15 00:29:00.000   30.531705093  114.357250210    24.2120   6   4   0.3659   0.3929   0.8778  -0.2042   0.3449  -0.3149   0.00    0.0
2026/01/15 00:29:30.000   30.531704748  114.357250748    24.3070   6   4   0.3619   0.3880   0.8664  -0.1998   0.3373  -0.3068   0.00    0.0
2026/01/15 00:30:00.000   30.531704464  114.357251220    24.3990   6   4   0.3581   0.3832   0.8556  -0.1956   0.3302  -0.2991   0.00    0.0
2026/01/15 00:30:30.000   30.531704301  114.357251511    24.4550   6   4   0.3545   0.3787   0.8452  -0.1916   0.3235  -0.2917   0.00    0.0
2026/01/15 00:31:00.000   30.531704064  114.357251930    24.5278   6   4   0.3510   0.3743   0.8354  -0.1878   0.3171  -0.2846   0.00    0.0
2026/01/15 00:31:30.000   30.531703829  114.357252254    24.5858   6   4   0.3477   0.3702   0.8259  -0.1842   0.3111  -0.2779   0.00    0.0
2026/01/15 00:32:00.000   30.531703658  114.357252659    24.6440   6   4   0.3444   0.3661   0.8169  -0.1807   0.3053  -0.2714   0.00    0.0
2026/01/15 00:32:30.000   30.531703440  114.357253027    24.7047   6   4   0.3413   0.3623   0.8082  -0.1774   0.2999  -0.2652   0.00    0.0
2026/01/15 00:33:00.000   30.531703363  114.357253250    24.7213   6   4   0.3383   0.3585   0.7998  -0.1743   0.2947  -0.2593   0.00    0.0
2026/01/15 00:33:30.000   30.531703226  114.357253471    24.7492   6   4   0.3354   0.3549   0.7918  -0.1713   0.2897  -0.2536   0.00    0.0
2026/01/15 00:34:00.000   30.531703132  114.357253661    24.7783   6   4   0.3326   0.3514   0.7840  -0.1685   0.2850  -0.2481   0.00    0.0
2026/01/15 00:34:30.000   30.531702978  114.357253966    24.8156   6   4   0.3299   0.3481   0.7766  -0.1657   0.2805  -0.2429   0.00    0.0
2026/01/15 00:35:00.000   30.531702835  114.357254220    24.8586   6   4   0.3273   0.3448   0.7694  -0.1631   0.2762  -0.2378   0.00    0.0
2026/01/15 00:35:30.000   30.531702665  114.357254570    24.8985   6   4   0.3248   0.3417   0.7624  -0.1606   0.2720  -0.2329   0.00    0.0
2026/01/15 00:36:00.000   30.531702514  114.357254794    24.9349   6   4   0.3223   0.3386   0.7557  -0.1582   0.2681  -0.2282   0.00    0.0
2026/01/15 00:36:30.000   30.531702486  114.357254975    24.9465   6   4   0.3199   0.3356   0.7492  -0.1558   0.2643  -0.2236   0.00    0.0
2026/01/15 00:37:00.000   30.531702285  114.357255223    24.9933   6   4   0.3176   0.3328   0.7429  -0.1536   0.2607  -0.2193   0.00    0.0
2026/01/15 00:37:30.000   30.531702143  114.357255396    25.0314   6   4   0.3153   0.3300   0.7368  -0.1514   0.2572  -0.2150   0.00    0.0
2026/01/15 00:38:00.000   30.531702041  114.357255547    25.0575   6   4   0.3131   0.3273   0.7309  -0.1494   0.2538  -0.2109   0.00    0.0
2026/01/15 00:38:30.000   30.531701911  114.357255763    25.0904   6   4   0.3110   0.3246   0.7252  -0.1474   0.2506  -0.2070   0.00    0.0
2026/01/15 00:39:00.000   30.531701803  114.357256004    25.1107   6   4   0.3089   0.3221   0.7197  -0.1455   0.2475  -0.2032   0.00    0.0
2026/01/15 00:39:30.000   30.531701729  114.357256184    25.1237   6   4   0.3069   0.3196   0.7143  -0.1436   0.2445  -0.1995   0.00    0.0
2026/01/15 00:40:00.000   30.531701649  114.357256387    25.1445   6   4   0.3049   0.3171   0.7090  -0.1418   0.2417  -0.1959   0.00    0.0
2026/01/15 00:40:30.000   30.531701559  114.357256588    25.1578   6   4   0.3030   0.3147   0.7039  -0.1401   0.2389  -0.1924   0.00    0.0
2026/01/15 00:41:00.000   30.531701467  114.357256820    25.1722   6   4   0.3011   0.3124   0.6989  -0.1384   0.2362  -0.1891   0.00    0.0
2026/01/15 00:41:30.000   30.531701468  114.357257022    25.1665   6   4   0.2994   0.3102   0.6950  -0.1366   0.2334  -0.1868   0.00    0.0
2026/01/15 00:42:00.000   30.531701450  114.357257242    25.1669   6   4   0.2978   0.3080   0.6912  -0.1349   0.2306  -0.1847   0.00    0.0
2026/01/15 00:42:30.000   30.531701452  114.357257447    25.1511   6   4   0.2962   0.3059   0.6875  -0.1332   0.2279  -0.1826   0.00    0.0
2026/01/15 00:43:00.000   30.531701447  114.357257626    25.1411   6   4   0.2947   0.3038   0.6839  -0.1316   0.2253  -0.1806   0.00    0.0
2026/01/15 00:43:30.000   30.531701412  114.357257789    25.1284   6   4   0.2931   0.3018   0.6803  -0.1301   0.2228  -0.1786   0.00    0.0
2026/01/15 00:44:00.000   30.531701400  114.357258013    25.1228   6   4   0.2916   0.2998   0.6768  -0.1285   0.2204  -0.1767   0.00    0.0
2026/01/15 00:44:30.000   30.531701388  114.357258195    25.1154   6   4   0.2902   0.2979   0.6734  -0.1271   0.2180  -0.1749   0.00    0.0
2026/01/15 00:45:00.000   30.531701400  114.357258331    25.1071   6   4   0.2887   0.2960   0.6701  -0.1256   0.2157  -0.1731   0.00    0.0
2026/01/15 00:45:30.000   30.531701368  114.357258473    25.0965   6   4   0.2873   0.2941   0.6669  -0.1242   0.2135  -0.1714   0.00    0.0
2026/01/15 00:46:00.000   30.531701340  114.357258602    25.0914   6   4   0.2859   0.2923   0.6637  -0.1229   0.2114  -0.1698   0.00    0.0
2026/01/15 00:46:30.000   30.531701330  114.357258791    25.0917   6   4   0.2845   0.2906   0.6605  -0.1216   0.2093  -0.1681   0.00    0.0
2026/01/15 00:47:00.000   30.531701318  114.357258970    25.0924   6   4   0.2832   0.2888   0.6575  -0.1203   0.2073  -0.1666   0.00    0.0
2026/01/15 00:47:30.000   30.531701327  114.357259064    25.0777   6   4   0.2819   0.2871   0.6544  -0.1191   0.2053  -0.1651   0.00    0.0
2026/01/15 00:48:00.000   30.531701329  114.357259182    25.0653   6   4   0.2806   0.2854   0.6515  -0.1179   0.2035  -0.1636   0.00    0.0
2026/01/15 00:48:30.000   30.531701342  114.357259325    25.0551   6   4   0.2793   0.2838   0.6486  -0.1167   0.2016  -0.1622   0.00    0.0
2026/01/15 00:49:00.000   30.531701310  114.357259521    25.0572   6   4   0.2780   0.2822   0.6457  -0.1156   0.1998  -0.1608   0.00    0.0
2026/01/15 00:49:30.000   30.531701316  114.357259683    25.0539   6   4   0.2768   0.2806   0.6429  -0.1145   0.1981  -0.1595   0.00    0.0
2026/01/15 00:50:00.000   30.531701327  114.357259821    25.0476   6   4   0.2756   0.2791   0.6402  -0.1135   0.1964  -0.1582   0.00    0.0
2026/01/15 00:50:30.000   30.531701321  114.357259985    25.0336   6   4   0.2744   0.2776   0.6375  -0.1124   0.1948  -0.1569   0.00    0.0
2026/01/15 00:51:00.000   30.531701324  114.357260119    25.0251   6   4   0.2732   0.2761   0.6348  -0.1114   0.1932  -0.1557   0.00    0.0
2026/01/15 00:51:30.000   30.531701300  114.357260280    25.0224   6   4   0.2720   0.2746   0.6322  -0.1104   0.1917  -0.1545   0.00    0.0
2026/01/15 00:52:00.000   30.531701292  114.357260435    25.0126   6   4   0.2709   0.2732   0.6296  -0.1095   0.1902  -0.1534   0.00    0.0
2026/01/15 00:52:30.000   30.531701282  114.357260593    24.9997   6   4   0.2698   0.2718   0.6271  -0.1086   0.1887  -0.1523   0.00    0.0
2026/01/15 00:53:00.000   30.531701275  114.357260694    24.9876   6   4   0.2687   0.2704   0.6246  -0.1077   0.1873  -0.1512   0.00    0.0
2026/01/15 00:53:30.000   30.531701258  114.357260769    24.9799   6   5   0.2676   0.2690   0.6221  -0.1068   0.1860  -0.1502   0.00    0.0
2026/01/15 00:54:00.000   30.531701260  114.357260910    24.9637   6   5   0.2665   0.2677   0.6197  -0.1059   0.1846  -0.1492   0.00    0.0
2026/01/15 00:54:30.000   30.531701234  114.357261075    24.9536   6   5   0.2654   0.2664   0.6173  -0.1051   0.1834  -0.1482   0.00    0.0
2026/01/15 00:55:00.000   30.531701230  114.357261183    24.9431   6   5   0.2644   0.2651   0.6150  -0.1043   0.1821  -0.1473   0.00    0.0
2026/01/15 00:55:30.000   30.531701233  114.357261288    24.9398   6   5   0.2634   0.2638   0.6126  -0.1035   0.1809  -0.1463   0.00    0.0
2026/01/15 00:56:00.000   30.531701229  114.357261404    24.9263   6   5   0.2623   0.2625   0.6104  -0.1028   0.1797  -0.1455   0.00    0.0
2026/01/15 00:56:30.000   30.531701250  114.357261535    24.9138   6   5   0.2613   0.2613   0.6081  -0.1020   0.1785  -0.1446   0.00    0.0
2026/01/15 00:57:00.000   30.531701262  114.357261643    24.9038   6   5   0.2603   0.2601   0.6059  -0.1013   0.1774  -0.1438   0.00    0.0
2026/01/15 00:57:30.000   30.531701234  114.357261765    24.8986   6   5   0.2594   0.2589   0.6037  -0.1006   0.1763  -0.1430   0.00    0.0
2026/01/15 00:58:00.000   30.531701248  114.357261901    24.8911   6   5   0.2584   0.2577   0.6015  -0.0999   0.1753  -0.1422   0.00    0.0
2026/01/15 00:58:30.000   30.531701273  114.357262006    24.8814   6   5   0.2575   0.2566   0.5994  -0.0993   0.1742  -0.1415   0.00    0.0
2026/01/15 00:59:00.000   30.531701297  114.357262110    24.8729   6   5   0.2565   0.2554   0.5973  -0.0986   0.1732  -0.1408   0.00    0.0
2026/01/15 00:59:30.000   30.531701286  114.357262227    24.8651   6   5   0.2556   0.2543   0.5952  -0.0980   0.1723  -0.1401   0.00    0.0
2026/01/15 01:00:00.000   30.531701293  114.357262319    24.8490   6   5   0.2547   0.2532   0.5931  -0.0974   0.1713  -0.1394   0.00    0.0
2026/01/15 01:00:30.000   30.531701277  114.357262382    24.8340   6   5   0.2538   0.2521   0.5911  -0.0968   0.1704  -0.1387   0.00    0.0
2026/01/15 01:01:00.000   30.531701275  114.357262433    24.8238   6   5   0.2529   0.2510   0.5890  -0.0963   0.1695  -0.1381   0.00    0.0
2026/01/15 01:01:30.000   30.531701282  114.357262497    24.8109   6   5   0.2520   0.2500   0.5870  -0.0957   0.1686  -0.1375   0.00    0.0
2026/01/15 01:02:00.000   30.531701283  114.357262593    24.7983   6   5   0.2512   0.2489   0.5851  -0.0952   0.1677  -0.1369   0.00    0.0
2026/01/15 01:02:30.000   30.531701257  114.357262703    24.7901   6   5   0.2503   0.2479   0.5831  -0.0946   0.1669  -0.1364   0.00    0.0
2026/01/15 01:03:00.000   30.531701247  114.357262783    24.7856   6   5   0.2495   0.2469   0.5812  -0.0941   0.1661  -0.1358   0.00    0.0
2026/01/15 01:03:30.000   30.531701237  114.357262875    24.7765   6   5   0.2486   0.2459   0.5793  -0.0936   0.1653  -0.1353   0.00    0.0
2026/01/15 01:04:00.000   30.531701223  114.357262949    24.7681   6   5   0.2478   0.2449   0.5774  -0.0931   0.1645  -0.1348   0.00    0.0
2026/01/15 01:04:30.000   30.531701210  114.357263010    24.7629   6   5   0.2470   0.2439   0.5755  -0.0927   0.1638  -0.1343   0.00    0.0
2026/01/15 01:05:00.000   30.531701195  114.357263086    24.7579   6   5   0.2462   0.2430   0.5737  -0.0922   0.1631  -0.1339   0.00    0.0
2026/01/15 01:05:30.000   30.531701184  114.357263186    24.7539   6   5   0.2454   0.2420   0.5718  -0.0918   0.1624  -0.1334   0.00    0.0
2026/01/15 01:06:00.000   30.531701182  114.357263257    24.7433   6   5   0.2446   0.2411   0.5700  -0.0913   0.1617  -0.1330   0.00    0.0
2026/01/15 01:06:30.000   30.531701190  114.357263341    24.7339   6   5   0.2439   0.2401   0.5682  -0.0909   0.1610  -0.1326   0.00    0.0
2026/01/15 01:07:00.000   30.531701190  114.357263402    24.7258   6   5   0.2431   0.2392   0.5664  -0.0905   0.1603  -0.1322   0.00    0.0
2026/01/15 01:07:30.000   30.531701190  114.357263486    24.7161   6   5   0.2424   0.2383   0.5646  -0.0901   0.1597  -0.1319   0.00    0.0
2026/01/15 01:08:00.000   30.531701184  114.357263537    24.7101   6   5   0.2416   0.2374   0.5629  -0.0897   0.1590  -0.1315   0.00    0.0
2026/01/15 01:08:30.000   30.531701173  114.357263580    24.6985   6   5   0.2409   0.2366   0.5611  -0.0894   0.1584  -0.1312   0.00    0.0
2026/01/15 01:09:00.000   30.531701172  114.357263647    24.6912   6   5   0.2402   0.2357   0.5594  -0.0890   0.1578  -0.1308   0.00    0.0
2026/01/15 01:09:30.000   30.531701157  114.357263729    24.6834   6   5   0.2394   0.2348   0.5577  -0.0887   0.1572  -0.1305   0.00    0.0
2026/01/15 01:10:00.000   30.531701143  114.357263779    24.6739   6   5   0.2387   0.2340   0.5560  -0.0883   0.1567  -0.1302   0.00    0.0
2026/01/15 01:10:30.000   30.531701134  114.357263850    24.6758   6   5   0.2380   0.2332   0.5543  -0.0880   0.1561  -0.1300   0.00    0.0
2026/01/15 01:11:00.000   30.531701129  114.357263917    24.6690   6   5   0.2373   0.2323   0.5526  -0.0877   0.1556  -0.1297   0.00    0.0
2026/01/15 01:11:30.000   30.531701130  114.357263992    24.6626   6   5   0.2367   0.2315   0.5510  -0.0874   0.1550  -0.1294   0.00    0.0
2026/01/15 01:12:00.000   30.531701126  114.357264056    24.6573   6   5   0.2360   0.2307   0.5493  -0.0871   0.1545  -0.1292   0.00    0.0
2026/01/15 01:12:30.000   30.531701120  114.357264117    24.6523   6   5   0.2353   0.2299   0.5477  -0.0868   0.1540  -0.1290   0.00    0.0
2026/01/15 01:13:00.000   30.531701095  114.357264214    24.6535   6   5   0.2347   0.2291   0.5461  -0.0865   0.1535  -0.1288   0.00    0.0
2026/01/15 01:13:30.000   30.531701086  114.357264266    24.6478   6   5   0.2340   0.2284   0.5444  -0.0862   0.1530  -0.1286   0.00    0.0
2026/01/15 01:14:00.000   30.531701060  114.357264350    24.6419   6   5   0.2334   0.2276   0.5428  -0.0859   0.1525  -0.1284   0.00    0.0
2026/01/15 01:14:30.000   30.531701052  114.357264410    24.6357   6   5   0.2327   0.2268   0.5412  -0.0857   0.1521  -0.1282   0.00    0.0
2026/01/15 01:15:00.000   30.531701046  114.357264444    24.6286   6   5   0.2321   0.2261   0.5397  -0.0854   0.1516  -0.1280   0.00    0.0
2026/01/15 01:15:30.000   30.531701026  114.357264489    24.6227   6   5   0.2315   0.2253   0.5381  -0.0852   0.1512  -0.1279   0.00    0.0
2026/01/15 01:16:00.000   30.531701029  114.357264541    24.6175   6   5   0.2309   0.2246   0.5365  -0.0850   0.1507  -0.1277   0.00    0.0
2026/01/15 01:16:30.000   30.531701013  114.357264586    24.6142   6   5   0.2302   0.2239   0.5350  -0.0847   0.1503  -0.1276   0.00    0.0
2026/01/15 01:17:00.000   30.531701005  114.357264629    24.6044   6   5   0.2296   0.2231   0.5334  -0.0845   0.1499  -0.1275   0.00    0.0
2026/01/15 01:17:30.000   30.531700992  114.357264688    24.5968   6   5   0.2291   0.2224   0.5319  -0.0843   0.1494  -0.1273   0.00    0.0
2026/01/15 01:18:00.000   30.531700976  114.357264782    24.5943   6   5   0.2285   0.2217   0.5304  -0.0841   0.1490  -0.1272   0.00    0.0
2026/01/15 01:18:30.000   30.531700966  114.357264823    24.5925   6   5   0.2279   0.2210   0.5289  -0.0839   0.1486  -0.1271   0.00    0.0
2026/01/15 01:19:00.000   30.531700965  114.357264888    24.5909   6   5   0.2273   0.2203   0.5274  -0.0837   0.1482  -0.1270   0.00    0.0
2026/01/15 01:19:30.000   30.531700952  114.357264944    24.5845   6   5   0.2267   0.2197   0.5259  -0.0835   0.1479  -0.1270   0.00    0.0
2026/01/15 01:20:00.000   30.531700938  114.357264991    24.5831   6   5   0.2262   0.2190   0.5244  -0.0833   0.1475  -0.1269   0.00    0.0
2026/01/15 01:20:30.000   30.531700931  114.357265038    24.5787   6   5   0.2256   0.2183   0.5229  -0.0831   0.1471  -0.1268   0.00    0.0
2026/01/15 01:21:00.000   30.531700927  114.357265121    24.5723   6   5   0.2251   0.2177   0.5214  -0.0830   0.1467  -0.1268   0.00    0.0
2026/01/15 01:21:30.000   30.531700900  114.357265182    24.5675   6   5   0.2245   0.2170   0.5200  -0.0828   0.1464  -0.1267   0.00    0.0
2026/01/15 01:22:00.000   30.531700888  114.357265243    24.5634   6   5   0.2240   0.2164   0.5185  -0.0827   0.1460  -0.1267   0.00    0.0
2026/01/15 01:22:30.000   30.531700882  114.357265296    24.5571   6   5   0.2234   0.2157   0.5171  -0.0825   0.1457  -0.1266   0.00    0.0
2026/01/15 01:23:00.000   30.531700888  114.357265338    24.5521   6   5   0.2229   0.2151   0.5156  -0.0824   0.1453  -0.1266   0.00    0.0
2026/01/15 01:23:30.000   30.531700857  114.357265375    24.5487   6   5   0.2224   0.2145   0.5142  -0.0822   0.1450  -0.1266   0.00    0.0
2026/01/15 01:24:00.000   30.531700851  114.357265402    24.5420   6   5   0.2219   0.2138   0.5128  -0.0821   0.1446  -0.1266   0.00    0.0
2026/01/15 01:24:30.000   30.531700844  114.357265392    24.5339   6   5   0.2214   0.2132   0.5114  -0.0819   0.1443  -0.1266   0.00    0.0
2026/01/15 01:25:00.000   30.531700835  114.357265424    24.5310   6   5   0.2209   0.2126   0.5100  -0.0818   0.1440  -0.1265   0.00    0.0
2026/01/15 01:25:30.000   30.531700818  114.357265458    24.5241   6   5   0.2204   0.2120   0.5086  -0.0817   0.1437  -0.1265   0.00    0.0
2026/01/15 01:26:00.000   30.531700800  114.357265478    24.5227   6   5   0.2199   0.2114   0.5072  -0.0816   0.1434  -0.1266   0.00    0.0
2026/01/15 01:26:30.000   30.531700790  114.357265500    24.5173   6   5   0.2194   0.2108   0.5058  -0.0814   0.1430  -0.1266   0.00    0.0
2026/01/15 01:27:00.000   30.531700782  114.357265512    24.5145   6   5   0.2189   0.2102   0.5044  -0.0813   0.1427  -0.1266   0.00    0.0
2026/01/15 01:27:30.000   30.531700770  114.357265552    24.5145   6   5   0.2184   0.2097   0.5030  -0.0812   0.1424  -0.1266   0.00    0.0
2026/01/15 01:28:00.000   30.531700754  114.357265554    24.5124   6   5   0.2180   0.2091   0.5016  -0.0811   0.1421  -0.1266   0.00    0.0
2026/01/15 01:28:30.000   30.531700735  114.357265597    24.5100   6   5   0.2175   0.2085   0.5003  -0.0810   0.1418  -0.1267   0.00    0.0
2026/01/15 01:29:00.000   30.531700727  114.357265615    24.5055   6   5   0.2170   0.2080   0.4989  -0.0809   0.1415  -0.1267   0.00    0.0
2026/01/15 01:29:30.000   30.531700724  114.357265646    24.5038   6   5   0.2166   0.2074   0.4976  -0.0808   0.1412  -0.1267   0.00    0.0
2026/01/15 01:30:00.000   30.531700711  114.357265685    24.5008   6   5   0.2161   0.2068   0.4962  -0.0807   0.1409  -0.1268   0.00    0.0
2026/01/15 01:30:30.000   30.531700706  114.357265728    24.5018   6   5   0.2157   0.2063   0.4949  -0.0807   0.1407  -0.1268   0.00    0.0
2026/01/15 01:31:00.000   30.531700701  114.357265748    24.5004   6   5   0.2152   0.2058   0.4936  -0.0806   0.1404  -0.1269   0.00    0.0
2026/01/15 01:31:30.000   30.531700690  114.357265776    24.4983   6   5   0.2148   0.2052   0.4922  -0.0805   0.1401  -0.1269   0.00    0.0
2026/01/15 01:32:00.000   30.531700669  114.357265799    24.4934   6   5   0.2144   0.2047   0.4909  -0.0804   0.1398  -0.1270   0.00    0.0
2026/01/15 01:32:30.000   30.531700650  114.357265834    24.4934   6   5   0.2139   0.2042   0.4896  -0.0803   0.1395  -0.1270   0.00    0.0
2026/01/15 01:33:00.000   30.531700637  114.357265839    24.4824   6   5   0.2135   0.2036   0.4883  -0.0803   0.1393  -0.1271   0.00    0.0
2026/01/15 01:33:30.000   30.531700619  114.357265891    24.4796   6   5   0.2131   0.2031   0.4870  -0.0802   0.1390  -0.1271   0.00    0.0
2026/01/15 01:34:00.000   30.531700603  114.357265917    24.4794   6   5   0.2127   0.2026   0.4857  -0.0801   0.1387  -0.1272   0.00    0.0
2026/01/15 01:34:30.000   30.531700592  114.357265932    24.4748   6   5   0.2122   0.2021   0.4844  -0.0801   0.1385  -0.1273   0.00    0.0
2026/01/15 01:35:00.000   30.531700563  114.357265944    24.4697   6   5   0.2118   0.2016   0.4831  -0.0800   0.1382  -0.1274   0.00    0.0
2026/01/15 01:35:30.000   30.531700547  114.357265969    24.4680   6   5   0.2114   0.2011   0.4819  -0.0799   0.1379  -0.1274   0.00    0.0
2026/01/15 01:36:00.000   30.531700551  114.357266002    24.4734   6   5   0.2109   0.2006   0.4804  -0.0799   0.1376  -0.1279   0.00    0.0
2026/01/15 01:36:30.000   30.531700549  114.357266025    24.4769   6   5   0.2104   0.2001   0.4789  -0.0799   0.1373  -0.1283   0.00    0.0
2026/01/15 01:37:00.000   30.531700553  114.357266041    24.4821   6   5   0.2100   0.1996   0.4775  -0.0799   0.1370  -0.1287   0.00    0.0
2026/01/15 01:37:30.000   30.531700547  114.357266049    24.4806   6   5   0.2095   0.1991   0.4760  -0.0799   0.1366  -0.1291   0.00    0.0
2026/01/15 01:38:00.000   30.531700536  114.357266060    24.4807   6   5   0.2090   0.1986   0.4746  -0.0799   0.1363  -0.1295   0.00    0.0
2026/01/15 01:38:30.000   30.531700532  114.357266077    24.4862   6   5   0.2085   0.1981   0.4732  -0.0799   0.1360  -0.1298   0.00    0.0
2026/01/15 01:39:00.000   30.531700524  114.357266108    24.4892   6   5   0.2081   0.1977   0.4718  -0.0799   0.1357  -0.1302   0.00    0.0
2026/01/15 01:39:30.000   30.531700485  114.357266173    24.5009   6   5   0.2075   0.1970   0.4700  -0.0795   0.1349  -0.1301   0.00    0.0
2026/01/15 01:40:00.000   30.531700504  114.357266203    24.5044   6   5   0.2069   0.1964   0.4682  -0.0792   0.1340  -0.1299   0.00    0.0
2026/01/15 01:40:30.000   30.531700501  114.357266213    24.5076   6   5   0.2063   0.1958   0.4665  -0.0789   0.1332  -0.1298   0.00    0.0
2026/01/15 01:41:00.000   30.531700512  114.357266239    24.5137   6   5   0.2057   0.1952   0.4648  -0.0785   0.1324  -0.1296   0.00    0.0
2026/01/15 01:41:30.000   30.531700522  114.357266241    24.5160   6   5   0.2052   0.1946   0.4631  -0.0782   0.1316  -0.1295   0.00    0.0
2026/01/15 01:42:00.000   30.531700531  114.357266268    24.5252   6   5   0.2046   0.1940   0.4614  -0.0779   0.1308  -0.1294   0.00    0.0
2026/01/15 01:42:30.000   30.531700519  114.357266309    24.5296   6   5   0.2041   0.1934   0.4598  -0.0775   0.1300  -0.1292   0.00    0.0
2026/01/15 01:43:00.000   30.531700522  114.357266306    24.5305   6   5   0.2035   0.1928   0.4581  -0.0772   0.1293  -0.1291   0.00    0.0
2026/01/15 01:43:30.000   30.531700524  114.357266330    24.5355   6   5   0.2030   0.1923   0.4565  -0.0769   0.1285  -0.1290   0.00    0.0
2026/01/15 01:44:00.000   30.531700526  114.357266353    24.5404   6   5   0.2024   0.1917   0.4549  -0.0766   0.1278  -0.1289   0.00    0.0
2026/01/15 01:44:30.000   30.531700521  114.357266383    24.5467   6   5   0.2019   0.1911   0.4534  -0.0763   0.1271  -0.1288   0.00    0.0
2026/01/15 01:45:00.000   30.531700511  114.357266416    24.5536   6   5   0.2014   0.1906   0.4518  -0.0760   0.1264  -0.1287   0.00    0.0
2026/01/15 01:45:30.000   30.531700515  114.357266429    24.5596   6   5   0.2008   0.1900   0.4503  -0.0757   0.1257  -0.1286   0.00    0.0
2026/01/15 01:46:00.000   30.531700490  114.357266451    24.5633   6   5   0.2003   0.1895   0.4488  -0.0754   0.1250  -0.1285   0.00    0.0
2026/01/15 01:46:30.000   30.531700490  114.357266479    24.5619   6   5   0.1998   0.1889   0.4473  -0.0751   0.1243  -0.1285   0.00    0.0
2026/01/15 01:47:00.000   30.531700480  114.357266499    24.5664   6   5   0.1993   0.1884   0.4458  -0.0748   0.1237  -0.1284   0.00    0.0
2026/01/15 01:47:30.000   30.531700458  114.357266521    24.5743   6   5   0.1988   0.1879   0.4444  -0.0746   0.1230  -0.1283   0.00    0.0
2026/01/15 01:48:00.000   30.531700463  114.357266534    24.5817   6   5   0.1983   0.1873   0.4429  -0.0743   0.1224  -0.1283   0.00    0.0
2026/01/15 01:48:30.000   30.531700472  114.357266544    24.5913   6   5   0.1978   0.1868   0.4417  -0.0740   0.1216  -0.1284   0.00    0.0
2026/01/15 01:49:00.000   30.531700471  114.357266537    24.5966   6   5   0.1974   0.1863   0.4405  -0.0737   0.1209  -0.1285   0.00    0.0
2026/01/15 01:49:30.000   30.531700471  114.357266552    24.6055   6   5   0.1969   0.1858   0.4393  -0.0734   0.1202  -0.1287   0.00    0.0
2026/01/15 01:50:00.000   30.531700459  114.357266566    24.6112   6   5   0.1965   0.1853   0.4381  -0.0731   0.1195  -0.1288   0.00    0.0
2026/01/15 01:50:30.000   30.531700457  114.357266567    24.6181   6   5   0.1960   0.1848   0.4370  -0.0728   0.1188  -0.1290   0.00    0.0
2026/01/15 01:51:00.000   30.531700456  114.357266588    24.6298   6   5   0.1956   0.1843   0.4358  -0.0725   0.1182  -0.1291   0.00    0.0
2026/01/15 01:51:30.000   30.531700463  114.357266606    24.6396   6   5   0.1952   0.1839   0.4347  -0.0722   0.1175  -0.1293   0.00    0.0
2026/01/15 01:52:00.000   30.531700454  114.357266612    24.6471   6   5   0.1947   0.1834   0.4336  -0.0719   0.1168  -0.1294   0.00    0.0
2026/01/15 01:52:30.000   30.531700439  114.357266638    24.6536   6   5   0.1943   0.1829   0.4325  -0.0716   0.1162  -0.1296   0.00    0.0
2026/01/15 01:53:00.000   30.531700416  114.357266666    24.6612   6   5   0.1939   0.1824   0.4314  -0.0713   0.1156  -0.1297   0.00    0.0
2026/01/15 01:53:30.000   30.531700404  114.357266679    24.6673   6   5   0.1935   0.1820   0.4303  -0.0710   0.1149  -0.1299   0.00    0.0
2026/01/15 01:54:00.000   30.531700399  114.357266694    24.6727   6   5   0.1931   0.1815   0.4292  -0.0708   0.1143  -0.1300   0.00    0.0
2026/01/15 01:54:30.000   30.531700399  114.357266708    24.6805   6   5   0.1927   0.1810   0.4282  -0.0705   0.1137  -0.1301   0.00    0.0
2026/01/15 01:55:00.000   30.531700389  114.357266722    24.6858   6   5   0.1923   0.1806   0.4271  -0.0702   0.1131  -0.1303   0.00    0.0
2026/01/15 01:55:30.000   30.531700380  114.357266734    24.6882   6   5   0.1919   0.1801   0.4261  -0.0700   0.1125  -0.1304   0.00    0.0
2026/01/15 01:56:00.000   30.531700366  114.357266756    24.6909   6   5   0.1915   0.1797   0.4251  -0.0697   0.1120  -0.1306   0.00    0.0
2026/01/15 01:56:30.000   30.531700358  114.357266772    24.6956   6   5   0.1911   0.1792   0.4241  -0.0694   0.1114  -0.1307   0.00    0.0
2026/01/15 01:57:00.000   30.531700345  114.357266793    24.7013   6   5   0.1907   0.1788   0.4231  -0.0692   0.1108  -0.1308   0.00    0.0
2026/01/15 01:57:30.000   30.531700339  114.357266806    24.7078   6   5   0.1903   0.1784   0.4221  -0.0689   0.1103  -0.1310   0.00    0.0
2026/01/15 01:58:00.000   30.531700319  114.357266819    24.7114   6   5   0.1899   0.1779   0.4211  -0.0687   0.1097  -0.1311   0.00    0.0
2026/01/15 01:58:30.000   30.531700292  114.357266841    24.7176   6   5   0.1895   0.1775   0.4201  -0.0685   0.1092  -0.1313   0.00    0.0
2026/01/15 01:59:00.000   30.531700278  114.357266856    24.7251   6   5   0.1891   0.1771   0.4192  -0.0682   0.1087  -0.1314   0.00    0.0
2026/01/15 01:59:30.000   30.531700276  114.357266854    24.7277   6   5   0.1888   0.1767   0.4182  -0.0680   0.1081  -0.1315   0.00    0.0
2026/01/15 02:00:00.000   30.531700258  114.357266886    24.7286   6   5   0.1884   0.1763   0.4174  -0.0677   0.1076  -0.1317   0.00    0.0
2026/01/15 02:00:30.000   30.531700239  114.357266907    24.7289   6   5   0.1880   0.1758   0.4165  -0.0674   0.1070  -0.1318   0.00    0.0
2026/01/15 02:01:00.000   30.531700215  114.357266938    24.7318   6   5   0.1877   0.1754   0.4157  -0.0672   0.1065  -0.1320   0.00    0.0
2026/01/15 02:01:30.000   30.531700196  114.357266950    24.7326   6   5   0.1873   0.1750   0.4148  -0.0669   0.1059  -0.1321   0.00    0.0
2026/01/15 02:02:00.000   30.531700181  114.357266984    24.7353   6   5   0.1870   0.1747   0.4140  -0.0667   0.1054  -0.1323   0.00    0.0
2026/01/15 02:02:30.000   30.531700168  114.357267016    24.7374   6   5   0.1866   0.1743   0.4132  -0.0664   0.1049  -0.1324   0.00    0.0
2026/01/15 02:03:00.000   30.531700162  114.357267019    24.7389   6   4   0.1863   0.1739   0.4125  -0.0662   0.1044  -0.1325   0.00    0.0
2026/01/15 02:03:30.000   30.531700139  114.357267061    24.7423   6   4   0.1860   0.1735   0.4118  -0.0659   0.1039  -0.1326   0.00    0.0
2026/01/15 02:04:00.000   30.531700114  114.357267097    24.7468   6   4   0.1856   0.1731   0.4112  -0.0657   0.1035  -0.1326   0.00    0.0
2026/01/15 02:04:30.000   30.531700093  114.357267106    24.7466   6   4   0.1853   0.1727   0.4105  -0.0654   0.1030  -0.1327   0.00    0.0
2026/01/15 02:05:00.000   30.531700061  114.357267124    24.7478   6   4   0.1850   0.1724   0.4099  -0.0652   0.1026  -0.1328   0.00    0.0
2026/01/15 02:05:30.000   30.531700044  114.357267144    24.7485   6   4   0.1847   0.1720   0.4092  -0.0649   0.1022  -0.1328   0.00    0.0
2026/01/15 02:06:00.000   30.531700009  114.357267163    24.7457   6   4   0.1844   0.1716   0.4086  -0.0647   0.1018  -0.1329   0.00    0.0
2026/01/15 02:06:30.000   30.531699993  114.357267177    24.7483   6   4   0.1840   0.1713   0.4080  -0.0644   0.1013  -0.1330   0.00    0.0
2026/01/15 02:07:00.000   30.531699965  114.357267202    24.7485   6   4   0.1837   0.1709   0.4074  -0.0642   0.1009  -0.1330   0.00    0.0
2026/01/15 02:07:30.000   30.531699944  114.357267210    24.7510   6   4   0.1834   0.1706   0.4068  -0.0640   0.1005  -0.1331   0.00    0.0
2026/01/15 02:08:00.000   30.531699914  114.357267226    24.7520   6   4   0.1831   0.1702   0.4062  -0.0637   0.1001  -0.1332   0.00    0.0
2026/01/15 02:08:30.000   30.531699892  114.357267260    24.7551   6   4   0.1828   0.1698   0.4056  -0.0635   0.0997  -0.1332   0.00    0.0
2026/01/15 02:09:00.000   30.531699866  114.357267274    24.7554   6   4   0.1825   0.1695   0.4050  -0.0633   0.0993  -0.1332   0.00    0.0
2026/01/15 02:09:30.000   30.531699840  114.357267293    24.7561   6   4   0.1823   0.1692   0.4045  -0.0632   0.0989  -0.1331   0.00    0.0
2026/01/15 02:10:00.000   30.531699819  114.357267321    24.7607   6   4   0.1820   0.1688   0.4040  -0.0630   0.0984  -0.1331   0.00    0.0
2026/01/15 02:10:30.000   30.531699788  114.357267336    24.7611   6   4   0.1817   0.1685   0.4035  -0.0628   0.0980  -0.1331   0.00    0.0
2026/01/15 02:11:00.000   30.531699762  114.357267367    24.7624   6   4   0.1815   0.1682   0.4030  -0.0626   0.0976  -0.1330   0.00    0.0
2026/01/15 02:11:30.000   30.531699734  114.357267398    24.7651   6   4   0.1812   0.1678   0.4025  -0.0625   0.0972  -0.1330   0.00    0.0
2026/01/15 02:12:00.000   30.531699705  114.357267402    24.7657   6   4   0.1810   0.1675   0.4020  -0.0623   0.0968  -0.1329   0.00    0.0
2026/01/15 02:12:30.000   30.531699679  114.357267416    24.7681   6   4   0.1807   0.1672   0.4015  -0.0621   0.0964  -0.1329   0.00    0.0
2026/01/15 02:13:00.000   30.531699651  114.357267431    24.7695   6   4   0.1804   0.1668   0.4010  -0.0620   0.0960  -0.1329   0.00    0.0
2026/01/15 02:13:30.000   30.531699626  114.357267454    24.7724   6   4   0.1802   0.1665   0.4006  -0.0618   0.0956  -0.1328   0.00    0.0
2026/01/15 02:14:00.000   30.531699595  114.357267481    24.7751   6   4   0.1799   0.1662   0.4001  -0.0616   0.0952  -0.1328   0.00    0.0
2026/01/15 02:14:30.000   30.531699575  114.357267499    24.7756   6   4   0.1797   0.1659   0.3996  -0.0615   0.0948  -0.1328   0.00    0.0
2026/01/15 02:15:00.000   30.531699555  114.357267517    24.7779   6   4   0.1794   0.1656   0.3991  -0.0613   0.0945  -0.1327   0.00    0.0
2026/01/15 02:15:30.000   30.531699539  114.357267535    24.7800   6   4   0.1791   0.1653   0.3987  -0.0612   0.0941  -0.1327   0.00    0.0
2026/01/15 02:16:00.000   30.531699507  114.357267545    24.7822   6   4   0.1789   0.1649   0.3982  -0.0610   0.0937  -0.1327   0.00    0.0
2026/01/15 02:16:30.000   30.531699478  114.357267556    24.7838   6   4   0.1786   0.1646   0.3978  -0.0608   0.0934  -0.1326   0.00    0.0
2026/01/15 02:17:00.000   30.531699451  114.357267570    24.7854   6   4   0.1784   0.1643   0.3973  -0.0607   0.0931  -0.1326   0.00    0.0
2026/01/15 02:17:30.000   30.531699419  114.357267606    24.7895   6   4   0.1781   0.1640   0.3969  -0.0605   0.0927  -0.1326   0.00    0.0
2026/01/15 02:18:00.000   30.531699391  114.357267632    24.7935   6   4   0.1779   0.1637   0.3965  -0.0604   0.0924  -0.1326   0.00    0.0
2026/01/15 02:18:30.000   30.531699363  114.357267649    24.7974   6   4   0.1776   0.1634   0.3960  -0.0602   0.0921  -0.1325   0.00    0.0
2026/01/15 02:19:00.000   30.531699344  114.357267661    24.7993   6   4   0.1774   0.1631   0.3956  -0.0601   0.0917  -0.1325   0.00    0.0
2026/01/15 02:19:30.000   30.531699320  114.357267673    24.8027   6   4   0.1771   0.1628   0.3952  -0.0599   0.0914  -0.1325   0.00    0.0
2026/01/15 02:20:00.000   30.531699294  114.357267691    24.8051   6   4   0.1769   0.1625   0.3947  -0.0598   0.0911  -0.1324   0.00    0.0
2026/01/15 02:20:30.000   30.531699265  114.357267712    24.8092   6   4   0.1766   0.1622   0.3943  -0.0596   0.0908  -0.1324   0.00    0.0
2026/01/15 02:21:00.000   30.531699233  114.357267745    24.8143   6   4   0.1764   0.1619   0.3939  -0.0595   0.0905  -0.1324   0.00    0.0
2026/01/15 02:21:30.000   30.531699192  114.357267761    24.8161   6   4   0.1761   0.1616   0.3935  -0.0593   0.0902  -0.1324   0.00    0.0
2026/01/15 02:22:00.000   30.531699160  114.357267780    24.8193   6   4   0.1759   0.1614   0.3931  -0.0592   0.0899  -0.1323   0.00    0.0
2026/01/15 02:22:30.000   30.531699127  114.357267791    24.8218   6   4   0.1756   0.1611   0.3927  -0.0590   0.0897  -0.1323   0.00    0.0
2026/01/15 02:23:00.000   30.531699093  114.357267807    24.8258   6   4   0.1754   0.1608   0.3923  -0.0589   0.0894  -0.1323   0.00    0.0
2026/01/15 02:23:30.000   30.531699050  114.357267815    24.8281   6   4   0.1751   0.1605   0.3919  -0.0588   0.0891  -0.1322   0.00    0.0
2026/01/15 02:24:00.000   30.531699018  114.357267831    24.8321   6   4   0.1749   0.1602   0.3915  -0.0586   0.0889  -0.1322   0.00    0.0
2026/01/15 02:24:30.000   30.531698985  114.357267832    24.8328   6   4   0.1747   0.1600   0.3911  -0.0585   0.0886  -0.1322   0.00    0.0
2026/01/15 02:25:00.000   30.531698942  114.357267841    24.8347   6   4   0.1744   0.1597   0.3907  -0.0583   0.0883  -0.1321   0.00    0.0
2026/01/15 02:25:30.000   30.531698902  114.357267850    24.8361   6   4   0.1742   0.1594   0.3903  -0.0582   0.0881  -0.1321   0.00    0.0
2026/01/15 02:26:00.000   30.531698860  114.357267853    24.8373   6   4   0.1739   0.1591   0.3899  -0.0581   0.0879  -0.1321   0.00    0.0
2026/01/15 02:26:30.000   30.531698830  114.357267864    24.8398   6   4   0.1737   0.1589   0.3895  -0.0579   0.0876  -0.1321   0.00    0.0
2026/01/15 02:27:00.000   30.531698788  114.357267878    24.8437   6   4   0.1734   0.1586   0.3891  -0.0578   0.0874  -0.1320   0.00    0.0
2026/01/15 02:27:30.000   30.531698753  114.357267895    24.8458   6   4   0.1732   0.1583   0.3887  -0.0577   0.0872  -0.1320   0.00    0.0
2026/01/15 02:28:00.000   30.531698719  114.357267910    24.8497   6   4   0.1730   0.1581   0.3884  -0.0575   0.0869  -0.1320   0.00    0.0
2026/01/15 02:28:30.000   30.531698687  114.357267919    24.8543   6   4   0.1727   0.1578   0.3880  -0.0574   0.0867  -0.1319   0.00    0.0
2026/01/15 02:29:00.000   30.531698646  114.357267941    24.8581   6   4   0.1725   0.1575   0.3876  -0.0573   0.0865  -0.1319   0.00    0.0
2026/01/15 02:29:30.000   30.531698601  114.357267958    24.8618   6   4   0.1723   0.1573   0.3872  -0.0571   0.0863  -0.1318   0.00    0.0
2026/01/15 02:30:00.000   30.531698556  114.357267968    24.8658   6   4   0.1720   0.1570   0.3869  -0.0570   0.0861  -0.1318   0.00    0.0
2026/01/15 02:30:30.000   30.531698513  114.357267981    24.8697   6   4   0.1718   0.1568   0.3865  -0.0569   0.0859  -0.1318   0.00    0.0
2026/01/15 02:31:00.000   30.531698476  114.357268001    24.8754   6   4   0.1715   0.1565   0.3861  -0.0568   0.0857  -0.1317   0.00    0.0
2026/01/15 02:31:30.000   30.531698441  114.357268024    24.8807   6   4   0.1713   0.1563   0.3857  -0.0566   0.0855  -0.1317   0.00    0.0
2026/01/15 02:32:00.000   30.531698406  114.357268025    24.8847   6   4   0.1710   0.1560   0.3853  -0.0566   0.0853  -0.1317   0.00    0.0
2026/01/15 02:32:30.000   30.531698374  114.357268040    24.8902   6   4   0.1708   0.1557   0.3849  -0.0565   0.0850  -0.1318   0.00    0.0
2026/01/15 02:33:00.000   30.531698338  114.357268056    24.8960   6   4   0.1705   0.1555   0.3844  -0.0564   0.0848  -0.1318   0.00    0.0
2026/01/15 02:33:30.000   30.531698305  114.357268067    24.9014   6   4   0.1702   0.1552   0.3840  -0.0564   0.0846  -0.1319   0.00    0.0
2026/01/15 02:34:00.000   30.531698272  114.357268075    24.9069   6   4   0.1700   0.1550   0.3836  -0.0563   0.0843  -0.1319   0.00    0.0
2026/01/15 02:34:30.000   30.531698237  114.357268095    24.9138   6   4   0.1697   0.1547   0.3832  -0.0562   0.0841  -0.1319   0.00    0.0
2026/01/15 02:35:00.000   30.531698204  114.357268103    24.9200   6   4   0.1695   0.1545   0.3827  -0.0562   0.0839  -0.1320   0.00    0.0
2026/01/15 02:35:30.000   30.531698169  114.357268117    24.9257   6   4   0.1692   0.1542   0.3823  -0.0561   0.0837  -0.1320   0.00    0.0
2026/01/15 02:36:00.000   30.531698136  114.357268135    24.9328   6   4   0.1689   0.1540   0.3819  -0.0560   0.0835  -0.1320   0.00    0.0
2026/01/15 02:36:30.000   30.531698109  114.357268150    24.9392   6   4   0.1687   0.1537   0.3815  -0.0560   0.0833  -0.1321   0.00    0.0
2026/01/15 02:37:00.000   30.531698078  114.357268150    24.9437   6   4   0.1684   0.1535   0.3811  -0.0559   0.0831  -0.1321   0.00    0.0
2026/01/15 02:37:30.000   30.531698045  114.357268159    24.9505   6   4   0.1682   0.1533   0.3807  -0.0558   0.0829  -0.1321   0.00    0.0
2026/01/15 02:38:00.000   30.531698006  114.357268162    24.9565   6   4   0.1679   0.1530   0.3802  -0.0558   0.0827  -0.1321   0.00    0.0
2026/01/15 02:38:30.000   30.531697970  114.357268175    24.9628   6   4   0.1676   0.1528   0.3798  -0.0557   0.0825  -0.1321   0.00    0.0
2026/01/15 02:39:00.000   30.531697939  114.357268186    24.9702   6   4   0.1674   0.1525   0.3794  -0.0557   0.0823  -0.1322   0.00    0.0
2026/01/15 02:39:30.000   30.531697901  114.357268197    24.9760   6   4   0.1671   0.1523   0.3790  -0.0556   0.0822  -0.1322   0.00    0.0
2026/01/15 02:40:00.000   30.531697862  114.357268204    24.9817   6   4   0.1669   0.1521   0.3786  -0.0555   0.0820  -0.1322   0.00    0.0
2026/01/15 02:40:30.000   30.531697824  114.357268201    24.9875   6   4   0.1666   0.1518   0.3782  -0.0555   0.0818  -0.1322   0.00    0.0
2026/01/15 02:41:00.000   30.531697788  114.357268213    24.9939   6   4   0.1664   0.1516   0.3778  -0.0554   0.0817  -0.1322   0.00    0.0
2026/01/15 02:41:30.000   30.531697751  114.357268228    25.0001   6   4   0.1661   0.1514   0.3774  -0.0554   0.0815  -0.1322   0.00    0.0
2026/01/15 02:42:00.000   30.531697715  114.357268241    25.0061   6   4   0.1659   0.1512   0.3770  -0.0553   0.0814  -0.1322   0.00    0.0
2026/01/15 02:42:30.000   30.531697684  114.357268255    25.0132   6   4   0.1656   0.1509   0.3766  -0.0553   0.0813  -0.1322   0.00    0.0
2026/01/15 02:43:00.000   30.531697647  114.357268261    25.0178   6   4   0.1654   0.1507   0.3762  -0.0552   0.0811  -0.1322   0.00    0.0
2026/01/15 02:43:30.000   30.531697613  114.357268268    25.0247   6   4   0.1651   0.1505   0.3758  -0.0552   0.0810  -0.1322   0.00    0.0
2026/01/15 02:44:00.000   30.531697577  114.357268275    25.0313   6   4   0.1649   0.1503   0.3754  -0.0551   0.0809  -0.1322   0.00    0.0
2026/01/15 02:44:30.000   30.531697541  114.357268285    25.0394   6   4   0.1646   0.1500   0.3750  -0.0551   0.0807  -0.1321   0.00    0.0
2026/01/15 02:45:00.000   30.531697503  114.357268285    25.0451   6   4   0.1644   0.1498   0.3746  -0.0551   0.0806  -0.1321   0.00    0.0
2026/01/15 02:45:30.000   30.531697460  114.357268288    25.0511   6   4   0.1641   0.1496   0.3742  -0.0550   0.0805  -0.1321   0.00    0.0
2026/01/15 02:46:00.000   30.531697420  114.357268291    25.0558   6   4   0.1639   0.1494   0.3739  -0.0550   0.0804  -0.1321   0.00    0.0
2026/01/15 02:46:30.000   30.531697373  114.357268295    25.0613   6   4   0.1636   0.1492   0.3735  -0.0549   0.0803  -0.1321   0.00    0.0
2026/01/15 02:47:00.000   30.531697332  114.357268302    25.0664   6   4   0.1634   0.1490   0.3731  -0.0549   0.0802  -0.1320   0.00    0.0
2026/01/15 02:47:30.000   30.531697296  114.357268303    25.0730   6   4   0.1632   0.1488   0.3727  -0.0548   0.0801  -0.1320   0.00    0.0
2026/01/15 02:48:00.000   30.531697256  114.357268314    25.0800   6   4   0.1629   0.1485   0.3723  -0.0548   0.0800  -0.1320   0.00    0.0
2026/01/15 02:48:30.000   30.531697223  114.357268326    25.0878   6   4   0.1627   0.1483   0.3719  -0.0548   0.0800  -0.1319   0.00    0.0
2026/01/15 02:49:00.000   30.531697184  114.357268335    25.0945   6   4   0.1624   0.1481   0.3715  -0.0547   0.0799  -0.1319   0.00    0.0
2026/01/15 02:49:30.000   30.531697140  114.357268339    25.0990   6   4   0.1622   0.1479   0.3711  -0.0547   0.0798  -0.1318   0.00    0.0
2026/01/15 02:50:00.000   30.531697098  114.357268346    25.1064   6   4   0.1620   0.1477   0.3707  -0.0547   0.0797  -0.1318   0.00    0.0
2026/01/15 02:50:30.000   30.531697062  114.357268353    25.1139   6   4   0.1617   0.1475   0.3703  -0.0546   0.0797  -0.1318   0.00    0.0
2026/01/15 02:51:00.000   30.531697022  114.357268349    25.1189   6   4   0.1615   0.1473   0.3699  -0.0546   0.0796  -0.1317   0.00    0.0
2026/01/15 02:51:30.000   30.531696983  114.357268355    25.1262   6   4   0.1612   0.1471   0.3696  -0.0546   0.0796  -0.1317   0.00    0.0
2026/01/15 02:52:00.000   30.531696941  114.357268358    25.1333   6   4   0.1610   0.1469   0.3692  -0.0546   0.0795  -0.1316   0.00    0.0
2026/01/15 02:52:30.000   30.531696904  114.357268367    25.1395   6   4   0.1608   0.1467   0.3688  -0.0545   0.0795  -0.1315   0.00    0.0
2026/01/15 02:53:00.000   30.531696872  114.357268378    25.1444   6   4   0.1605   0.1465   0.3684  -0.0545   0.0794  -0.1315   0.00    0.0
2026/01/15 02:53:30.000   30.531696818  114.357268400    25.1543   6   4   0.1602   0.1463   0.3678  -0.0543   0.0791  -0.1313   0.00    0.0
2026/01/15 02:54:00.000   30.531696764  114.357268410    25.1637   6   4   0.1600   0.1460   0.3673  -0.0542   0.0788  -0.1310   0.00    0.0
2026/01/15 02:54:30.000   30.531696715  114.357268427    25.1719   6   4   0.1597   0.1458   0.3668  -0.0540   0.0786  -0.1308   0.00    0.0
2026/01/15 02:55:00.000   30.531696661  114.357268446    25.1828   6   4   0.1594   0.1456   0.3662  -0.0538   0.0783  -0.1306   0.00    0.0
2026/01/15 02:55:30.000   30.531696611  114.357268468    25.1936   6   4   0.1591   0.1454   0.3658  -0.0536   0.0782  -0.1303   0.00    0.0
2026/01/15 02:56:00.000   30.531696558  114.357268483    25.2042   6   4   0.1588   0.1452   0.3653  -0.0534   0.0781  -0.1301   0.00    0.0
2026/01/15 02:56:30.000   30.531696509  114.357268490    25.2133   6   4   0.1585   0.1450   0.3649  -0.0533   0.0780  -0.1298   0.00    0.0
2026/01/15 02:57:00.000   30.531696459  114.357268505    25.2228   6   4   0.1583   0.1448   0.3645  -0.0531   0.0779  -0.1296   0.00    0.0
2026/01/15 02:57:30.000   30.531696404  114.357268534    25.2351   6   4   0.1580   0.1446   0.3640  -0.0529   0.0779  -0.1293   0.00    0.0
2026/01/15 02:58:00.000   30.531696363  114.357268548    25.2436   6   4   0.1577   0.1444   0.3636  -0.0527   0.0778  -0.1291   0.00    0.0
2026/01/15 02:58:30.000   30.531696309  114.357268573    25.2533   6   4   0.1574   0.1442   0.3631  -0.0526   0.0777  -0.1288   0.00    0.0
2026/01/15 02:59:00.000   30.531696256  114.357268599    25.2616   6   4   0.1572   0.1440   0.3627  -0.0524   0.0777  -0.1286   0.00    0.0
2026/01/15 02:59:30.000   30.531696211  114.357268619    25.2698   6   4   0.1569   0.1438   0.3623  -0.0522   0.0776  -0.1283   0.00    0.0
2026/01/15 03:00:00.000   30.531696169  114.357268632    25.2792   6   4   0.1566   0.1436   0.3618  -0.0520   0.0776  -0.1281   0.00    0.0
2026/01/15 03:00:30.000   30.531696116  114.357268648    25.2920   6   4   0.1563   0.1434   0.3613  -0.0519   0.0775  -0.1279   0.00    0.0
2026/01/15 03:01:00.000   30.531696068  114.357268663    25.3035   6   4   0.1561   0.1432   0.3609  -0.0517   0.0775  -0.1276   0.00    0.0
2026/01/15 03:01:30.000   30.531696015  114.357268676    25.3151   6   4   0.1558   0.1430   0.3604  -0.0516   0.0775  -0.1274   0.00    0.0
2026/01/15 03:02:00.000   30.531695970  114.357268694    25.3260   6   4   0.1555   0.1428   0.3599  -0.0514   0.0775  -0.1271   0.00    0.0
2026/01/15 03:02:30.000   30.531695916  114.357268706    25.3383   6   4   0.1552   0.1426   0.3595  -0.0513   0.0775  -0.1269   0.00    0.0
2026/01/15 03:03:00.000   30.531695860  114.357268721    25.3508   6   4   0.1550   0.1425   0.3590  -0.0511   0.0775  -0.1267   0.00    0.0
2026/01/15 03:03:30.000   30.531695812  114.357268730    25.3609   6   4   0.1547   0.1423   0.3586  -0.0510   0.0774  -0.1264   0.00    0.0
2026/01/15 03:04:00.000   30.531695764  114.357268738    25.3708   6   4   0.1544   0.1421   0.3581  -0.0508   0.0774  -0.1262   0.00    0.0
2026/01/15 03:04:30.000   30.531695720  114.357268746    25.3805   6   4   0.1541   0.1419   0.3577  -0.0507   0.0774  -0.1260   0.00    0.0
2026/01/15 03:05:00.000   30.531695681  114.357268756    25.3909   6   4   0.1539   0.1417   0.3572  -0.0505   0.0774  -0.1257   0.00    0.0
2026/01/15 03:05:30.000   30.531695635  114.357268762    25.4011   6   4   0.1536   0.1415   0.3568  -0.0504   0.0775  -0.1255   0.00    0.0
2026/01/15 03:06:00.000   30.531695590  114.357268781    25.4106   6   4   0.1534   0.1413   0.3563  -0.0502   0.0775  -0.1252   0.00    0.0
2026/01/15 03:06:30.000   30.531695547  114.357268790    25.4204   6   4   0.1531   0.1412   0.3559  -0.0501   0.0775  -0.1250   0.00    0.0
2026/01/15 03:07:00.000   30.531695496  114.357268811    25.4314   6   4   0.1528   0.1410   0.3554  -0.0500   0.0775  -0.1248   0.00    0.0
2026/01/15 03:07:30.000   30.531695446  114.357268830    25.4431   6   4   0.1526   0.1408   0.3550  -0.0498   0.0775  -0.1245   0.00    0.0
2026/01/15 03:08:00.000   30.531695399  114.357268845    25.4540   6   4   0.1523   0.1406   0.3545  -0.0497   0.0775  -0.1243   0.00    0.0
2026/01/15 03:08:30.000   30.531695353  114.357268861    25.4644   6   4   0.1521   0.1404   0.3541  -0.0496   0.0776  -0.1240   0.00    0.0
2026/01/15 03:09:00.000   30.531695315  114.357268865    25.4728   6   4   0.1518   0.1402   0.3537  -0.0495   0.0776  -0.1238   0.00    0.0
2026/01/15 03:09:30.000   30.531695275  114.357268873    25.4829   6   4   0.1515   0.1401   0.3532  -0.0493   0.0776  -0.1236   0.00    0.0
2026/01/15 03:10:00.000   30.531695235  114.357268884    25.4935   6   4   0.1513   0.1399   0.3528  -0.0492   0.0776  -0.1233   0.00    0.0
2026/01/15 03:10:30.000   30.531695191  114.357268893    25.5039   6   4   0.1510   0.1397   0.3523  -0.0491   0.0777  -0.1231   0.00    0.0
2026/01/15 03:11:00.000   30.531695156  114.357268911    25.5127   6   4   0.1508   0.1395   0.3519  -0.0490   0.0777  -0.1228   0.00    0.0
2026/01/15 03:11:30.000   30.531695119  114.357268923    25.5227   6   4   0.1505   0.1394   0.3515  -0.0489   0.0778  -0.1226   0.00    0.0
2026/01/15 03:12:00.000   30.531695083  114.357268934    25.5334   6   4   0.1503   0.1392   0.3510  -0.0488   0.0778  -0.1223   0.00    0.0
2026/01/15 03:12:30.000   30.531695043  114.357268940    25.5416   6   4   0.1500   0.1390   0.3506  -0.0486   0.0779  -0.1221   0.00    0.0
2026/01/15 03:13:00.000   30.531695009  114.357268945    25.5500   6   4   0.1498   0.1388   0.3502  -0.0485   0.0779  -0.1219   0.00    0.0
2026/01/15 03:13:30.000   30.531694979  114.357268946    25.5556   6   4   0.1496   0.1387   0.3497  -0.0484   0.0780  -0.1216   0.00    0.0
2026/01/15 03:14:00.000   30.531694940  114.357268947    25.5652   6   4   0.1493   0.1385   0.3493  -0.0483   0.0780  -0.1214   0.00    0.0
2026/01/15 03:14:30.000   30.531694902  114.357268947    25.5740   6   4   0.1491   0.1383   0.3489  -0.0482   0.0781  -0.1211   0.00    0.0
2026/01/15 03:15:00.000   30.531694862  114.357268948    25.5847   6   4   0.1488   0.1381   0.3484  -0.0481   0.0781  -0.1209   0.00    0.0
2026/01/15 03:15:30.000   30.531694826  114.357268961    25.5945   6   4   0.1486   0.1380   0.3480  -0.0480   0.0782  -0.1207   0.00    0.0
2026/01/15 03:16:00.000   30.531694787  114.357268966    25.6042   6   4   0.1484   0.1378   0.3476  -0.0479   0.0783  -0.1204   0.00    0.0
2026/01/15 03:16:30.000   30.531694750  114.357268978    25.6124   6   4   0.1481   0.1376   0.3471  -0.0478   0.0783  -0.1202   0.00    0.0
2026/01/15 03:17:00.000   30.531694710  114.357268981    25.6204   6   4   0.1479   0.1375   0.3467  -0.0477   0.0784  -0.1199   0.00    0.0
2026/01/15 03:17:30.000   30.531694679  114.357268984    25.6280   6   4   0.1477   0.1373   0.3463  -0.0476   0.0785  -0.1197   0.00    0.0
2026/01/15 03:18:00.000   30.531694649  114.357268994    25.6352   6   4   0.1474   0.1371   0.3459  -0.0476   0.0785  -0.1194   0.00    0.0
2026/01/15 03:18:30.000   30.531694619  114.357269000    25.6426   6   4   0.1472   0.1370   0.3454  -0.0475   0.0786  -0.1192   0.00    0.0
2026/01/15 03:19:00.000   30.531694589  114.357269013    25.6494   6   4   0.1470   0.1368   0.3450  -0.0474   0.0787  -0.1190   0.00    0.0
2026/01/15 03:19:30.000   30.531694559  114.357269014    25.6575   6   4   0.1467   0.1366   0.3446  -0.0473   0.0788  -0.1187   0.00    0.0
2026/01/15 03:20:00.000   30.531694527  114.357269014    25.6652   6   4   0.1465   0.1365   0.3442  -0.0472   0.0788  -0.1185   0.00    0.0
2026/01/15 03:20:30.000   30.531694501  114.357269011    25.6732   6   4   0.1463   0.1363   0.3437  -0.0471   0.0789  -0.1182   0.00    0.0
2026/01/15 03:21:00.000   30.531694466  114.357269012    25.6831   6   4   0.1461   0.1361   0.3433  -0.0471   0.0790  -0.1180   0.00    0.0
2026/01/15 03:21:30.000   30.531694430  114.357269019    25.6916   6   4   0.1458   0.1360   0.3429  -0.0470   0.0791  -0.1177   0.00    0.0
2026/01/15 03:22:00.000   30.531694406  114.357269011    25.6990   6   4   0.1456   0.1358   0.3425  -0.0469   0.0792  -0.1175   0.00    0.0
2026/01/15 03:22:30.000   30.531694378  114.357269016    25.7062   6   4   0.1454   0.1357   0.3421  -0.0468   0.0793  -0.1173   0.00    0.0
2026/01/15 03:23:00.000   30.531694354  114.357269017    25.7135   6   4   0.1452   0.1355   0.3416  -0.0468   0.0794  -0.1170   0.00    0.0
2026/01/15 03:23:30.000   30.531694323  114.357269024    25.7204   6   4   0.1450   0.1353   0.3412  -0.0467   0.0795  -0.1168   0.00    0.0
2026/01/15 03:24:00.000   30.531694301  114.357269030    25.7261   6   4   0.1448   0.1352   0.3408  -0.0466   0.0795  -0.1165   0.00    0.0
2026/01/15 03:24:30.000   30.531694271  114.357269040    25.7324   6   4   0.1445   0.1350   0.3404  -0.0466   0.0796  -0.1163   0.00    0.0
2026/01/15 12:25:00.000   30.531688238  114.357270256    25.9048   6   4   0.0843   0.0790   0.1991  -0.0280   0.0418  -0.0527   0.00    0.0
2026/01/15 12:25:30.000   30.531688225  114.357270243    25.9043   6   4   0.0843   0.0789   0.1990  -0.0279   0.0418  -0.0527   0.00    0.0
2026/01/15 12:26:00.000   30.531688206  114.357270231    25.9047   6   4   0.0842   0.0789   0.1989  -0.0279   0.0417  -0.0527   0.00    0.0
2026/01/15 12:26:30.000   30.531688186  114.357270225    25.9045   6   4   0.0842   0.0788   0.1989  -0.0278   0.0416  -0.0527   0.00    0.0
2026/01/15 12:27:00.000   30.531688165  114.357270221    25.9042   6   4   0.0842   0.0788   0.1988  -0.0278   0.0416  -0.0527   0.00    0.0
2026/01/15 12:27:30.000   30.531688147  114.357270211    25.9047   6   4   0.0841   0.0787   0.1987  -0.0277   0.0415  -0.0527   0.00    0.0
2026/01/15 12:28:00.000   30.531688128  114.357270202    25.9043   6   4   0.0841   0.0787   0.1987  -0.0277   0.0415  -0.0527   0.00    0.0
2026/01/15 12:28:30.000   30.531688110  114.357270191    25.9043   6   4   0.0840   0.0786   0.1986  -0.0276   0.0414  -0.0527   0.00    0.0
2026/01/15 12:29:00.000   30.531688091  114.357270178    25.9042   6   4   0.0840   0.0786   0.1986  -0.0276   0.0413  -0.0527   0.00    0.0
2026/01/15 12:29:30.000   30.531688076  114.357270162    25.9037   6   4   0.0840   0.0785   0.1985  -0.0275   0.0413  -0.0527   0.00    0.0
2026/01/15 12:30:00.000   30.531688060  114.357270147    25.9036   6   4   0.0839   0.0785   0.1984  -0.0275   0.0412  -0.0527   0.00    0.0
