% program   : RTKLIB ver.EX 2.5.0
% inp file  : C:\PPP_PROJECT\RTKLIB_work\runs\ZIM2_4A_20260508_102536\ZIM200CHE_R_20260150000_01D_30S_MO.rnx
% inp file  : C:\PPP_PROJECT\RTKLIB_work\runs\ZIM2_4A_20260508_102536\BRDC00IGS_R_20260150000_01D_MN.rnx
% inp file  : C:\PPP_PROJECT\RTKLIB_work\runs\ZIM2_4A_20260508_102536
% inp file  : C:\PPP_PROJECT\RTKLIB_work\runs\ZIM2_4A_20260508_102536
% inp file  : C:\PPP_PROJECT\RTKLIB_work\runs\ZIM2_4A_20260508_102536
% inp file  : C:\PPP_PROJECT\RTKLIB_work\runs\ZIM2_4A_20260508_102536
% obs start : 2026/01/15 00:00:00.0 GPST (week2401 345600.0s)
% obs end   : 2026/01/15 23:59:30.0 GPST (week2401 431970.0s)
% pos mode  : PPP Static
% freqs     : L1
% solution  : Forward
% elev mask : 15.0 deg
% dynamics  : on
% tidecorr  :
% ionos opt : Broadcast
% tropo opt : Saastamoinen
% ephemeris : Broadcast
% navi sys  : GPS
% antenna1  :                       ( 0.0000  0.0000  0.0000)
%
% (lat/lon/height=WGS84/ellipsoidal,Q=1:fix,2:float,3:sbas,4:dgps,5:single,6:ppp,ns=# of satellites)
%  GPST                  latitude(deg) longitude(deg)  height(m)   Q  ns   sdn(m)   sde(m)   sdu(m)  sdne(m)  sdeu(m)  sdun(m) age(s)  ratio
2026/01/15 00:00:00.000   46.877100018    7.465045893   951.2489   6   9   2.4503   1.8692   5.1608  -0.2192   0.9909   1.4721   0.00    0.0
2026/01/15 00:03:30.000   46.877098063    7.465045874   951.1730   6   7   0.8713   0.6631   1.8375  -0.1130   0.3470   0.5254   0.00    0.0
2026/01/15 00:04:30.000   46.877098138    7.465045736   951.1214   6   9   0.7878   0.5949   1.6644  -0.1278   0.2917   0.4991   0.00    0.0
2026/01/15 00:05:00.000   46.877098203    7.465045745   951.0951   6   9   0.7580   0.5686   1.6043  -0.1387   0.2616   0.4995   0.00    0.0
2026/01/15 00:05:30.000   46.877098259    7.465045724   951.0829   6   9   0.7316   0.5456   1.5509  -0.1460   0.2353   0.4976   0.00    0.0
2026/01/15 00:06:00.000   46.877098280    7.465045641   951.0776   6   9   0.7080   0.5252   1.5029  -0.1510   0.2120   0.4943   0.00    0.0
2026/01/15 00:06:30.000   46.877098256    7.465045551   951.0691   6   9   0.6866   0.5070   1.4594  -0.1544   0.1911   0.4900   0.00    0.0
2026/01/15 00:07:00.000   46.877098208    7.465045478   951.0591   6   9   0.6672   0.4907   1.4196  -0.1567   0.1721   0.4851   0.00    0.0
2026/01/15 00:07:30.000   46.877098153    7.465045452   951.0479   6   9   0.6495   0.4758   1.3831  -0.1582   0.1548   0.4797   0.00    0.0
2026/01/15 00:08:00.000   46.877098122    7.465045444   951.0294   6   9   0.6331   0.4623   1.3493  -0.1592   0.1386   0.4741   0.00    0.0
2026/01/15 00:08:30.000   46.877098094    7.465045413   951.0174   6   8   0.6180   0.4499   1.3180  -0.1597   0.1235   0.4683   0.00    0.0
2026/01/15 00:09:00.000   46.877098063    7.465045363   951.0059   6   7   0.6039   0.4384   1.2889  -0.1599   0.1091   0.4624   0.00    0.0
2026/01/15 00:19:30.000   46.877096437    7.465044706   950.5995   6   6   0.4455   0.3116   0.9754  -0.1283  -0.1512   0.3168   0.00    0.0
2026/01/15 00:30:00.000   46.877095547    7.465044312   950.2872   6   6   0.3686   0.2558   0.8039  -0.1160  -0.1419   0.2338   0.00    0.0
2026/01/15 00:40:30.000   46.877095501    7.465043950   950.1876   6   6   0.3211   0.2228   0.6834  -0.1090  -0.1211   0.1690   0.00    0.0
2026/01/15 00:51:00.000   46.877096013    7.465043323   950.1904   6   6   0.2889   0.2008   0.5916  -0.1045  -0.0998   0.1107   0.00    0.0
2026/01/15 00:59:30.000   46.877096656    7.465042764   950.2156   6   4   0.2700   0.1878   0.5323  -0.1021  -0.0837   0.0603   0.00    0.0
2026/01/15 01:03:00.000   46.877096835    7.465042742   950.2133   6   4   0.2629   0.1830   0.5108  -0.1004  -0.0761   0.0250   0.00    0.0
2026/01/15 01:08:30.000   46.877097217    7.465042735   950.2465   6   4   0.2535   0.1764   0.4805  -0.0982  -0.0647  -0.0558   0.00    0.0
2026/01/15 01:09:00.000   46.877097251    7.465042733   950.2474   6   5   0.2527   0.1759   0.4779  -0.0981  -0.0637  -0.0583   0.00    0.0
2026/01/15 01:09:30.000   46.877097286    7.465042726   950.2498   6   5   0.2520   0.1753   0.4754  -0.0979  -0.0627  -0.0607   0.00    0.0
2026/01/15 01:12:00.000   46.877097380    7.465042716   950.2558   6   4   0.2494   0.1731   0.4648  -0.0985  -0.0614  -0.0640   0.00    0.0
2026/01/15 01:12:30.000   46.877097427    7.465042707   950.2517   6   8   0.2487   0.1726   0.4624  -0.0983  -0.0620  -0.0628   0.00    0.0
2026/01/15 01:13:00.000   46.877097483    7.465042694   950.2473   6   8   0.2480   0.1721   0.4600  -0.0982  -0.0626  -0.0615   0.00    0.0
2026/01/15 01:13:30.000   46.877097531    7.465042673   950.2420   6   8   0.2473   0.1716   0.4577  -0.0981  -0.0631  -0.0603   0.00    0.0
2026/01/15 01:14:00.000   46.877097577    7.465042652   950.2362   6   8   0.2466   0.1711   0.4553  -0.0979  -0.0636  -0.0591   0.00    0.0
2026/01/15 01:14:30.000   46.877097629    7.465042634   950.2321   6   8   0.2460   0.1706   0.4530  -0.0978  -0.0641  -0.0579   0.00    0.0
2026/01/15 01:15:00.000   46.877097676    7.465042620   950.2298   6   8   0.2453   0.1702   0.4508  -0.0977  -0.0646  -0.0568   0.00    0.0
2026/01/15 01:15:30.000   46.877097720    7.465042608   950.2270   6   8   0.2447   0.1697   0.4485  -0.0975  -0.0650  -0.0556   0.00    0.0
2026/01/15 01:16:00.000   46.877097769    7.465042599   950.2252   6   8   0.2440   0.1693   0.4463  -0.0974  -0.0654  -0.0545   0.00    0.0
2026/01/15 01:16:30.000   46.877097818    7.465042584   950.2237   6   9   0.2431   0.1688   0.4438  -0.0970  -0.0654  -0.0553   0.00    0.0
2026/01/15 01:17:00.000   46.877097872    7.465042561   950.2223   6   9   0.2421   0.1683   0.4413  -0.0967  -0.0653  -0.0561   0.00    0.0
2026/01/15 01:17:30.000   46.877097925    7.465042531   950.2200   6   8   0.2413   0.1678   0.4392  -0.0962  -0.0650  -0.0559   0.00    0.0
2026/01/15 01:18:00.000   46.877097984    7.465042501   950.2179   6   8   0.2405   0.1673   0.4371  -0.0958  -0.0647  -0.0557   0.00    0.0
2026/01/15 01:18:30.000   46.877098040    7.465042476   950.2169   6   8   0.2396   0.1669   0.4350  -0.0954  -0.0644  -0.0555   0.00    0.0
2026/01/15 01:19:00.000   46.877098097    7.465042446   950.2151   6   8   0.2388   0.1664   0.4329  -0.0949  -0.0641  -0.0554   0.00    0.0
2026/01/15 01:19:30.000   46.877098156    7.465042415   950.2137   6   8   0.2380   0.1660   0.4309  -0.0945  -0.0638  -0.0552   0.00    0.0
2026/01/15 01:20:00.000   46.877098210    7.465042390   950.2134   6   8   0.2372   0.1655   0.4289  -0.0941  -0.0635  -0.0551   0.00    0.0
2026/01/15 01:20:30.000   46.877098264    7.465042360   950.2139   6   7   0.2363   0.1651   0.4269  -0.0936  -0.0632  -0.0551   0.00    0.0
2026/01/15 01:21:00.000   46.877098321    7.465042330   950.2138   6   7   0.2355   0.1646   0.4249  -0.0932  -0.0629  -0.0550   0.00    0.0
2026/01/15 01:21:30.000   46.877098385    7.465042296   950.2127   6   7   0.2347   0.1642   0.4230  -0.0927  -0.0626  -0.0550   0.00    0.0
2026/01/15 01:22:00.000   46.877098446    7.465042268   950.2109   6   8   0.2339   0.1637   0.4210  -0.0923  -0.0623  -0.0550   0.00    0.0
2026/01/15 01:22:30.000   46.877098501    7.465042240   950.2082   6   8   0.2331   0.1633   0.4191  -0.0919  -0.0620  -0.0550   0.00    0.0
2026/01/15 01:23:00.000   46.877098558    7.465042209   950.2048   6   8   0.2323   0.1629   0.4173  -0.0914  -0.0616  -0.0551   0.00    0.0
2026/01/15 01:23:30.000   46.877098619    7.465042182   950.2028   6   8   0.2315   0.1624   0.4154  -0.0910  -0.0613  -0.0551   0.00    0.0
2026/01/15 01:24:00.000   46.877098673    7.465042154   950.2013   6   8   0.2307   0.1620   0.4136  -0.0905  -0.0610  -0.0552   0.00    0.0
2026/01/15 01:24:30.000   46.877098707    7.465042114   950.2047   6   7   0.2301   0.1616   0.4121  -0.0900  -0.0610  -0.0564   0.00    0.0
2026/01/15 01:25:00.000   46.877098746    7.465042073   950.2088   6   7   0.2294   0.1612   0.4106  -0.0894  -0.0610  -0.0576   0.00    0.0
2026/01/15 01:25:30.000   46.877098787    7.465042024   950.2118   6   7   0.2287   0.1608   0.4092  -0.0889  -0.0610  -0.0587   0.00    0.0
2026/01/15 01:26:00.000   46.877098829    7.465041974   950.2148   6   7   0.2281   0.1604   0.4077  -0.0883  -0.0610  -0.0598   0.00    0.0
2026/01/15 01:26:30.000   46.877098873    7.465041929   950.2186   6   7   0.2274   0.1600   0.4063  -0.0878  -0.0610  -0.0609   0.00    0.0
2026/01/15 01:27:00.000   46.877098917    7.465041886   950.2229   6   7   0.2268   0.1596   0.4049  -0.0873  -0.0610  -0.0619   0.00    0.0
2026/01/15 01:27:30.000   46.877098962    7.465041830   950.2256   6   7   0.2261   0.1593   0.4035  -0.0867  -0.0610  -0.0630   0.00    0.0
2026/01/15 01:28:00.000   46.877098998    7.465041787   950.2291   6   7   0.2255   0.1589   0.4021  -0.0862  -0.0609  -0.0639   0.00    0.0
2026/01/15 01:28:30.000   46.877099033    7.465041754   950.2329   6   7   0.2249   0.1585   0.4007  -0.0857  -0.0609  -0.0649   0.00    0.0
2026/01/15 01:29:00.000   46.877099068    7.465041714   950.2352   6   7   0.2242   0.1581   0.3994  -0.0851  -0.0608  -0.0658   0.00    0.0
2026/01/15 01:29:30.000   46.877099104    7.465041673   950.2375   6   7   0.2236   0.1577   0.3981  -0.0846  -0.0608  -0.0667   0.00    0.0
2026/01/15 01:30:00.000   46.877099143    7.465041639   950.2406   6   7   0.2230   0.1574   0.3967  -0.0841  -0.0607  -0.0676   0.00    0.0
2026/01/15 01:30:30.000   46.877099180    7.465041606   950.2433   6   7   0.2223   0.1570   0.3954  -0.0836  -0.0606  -0.0685   0.00    0.0
2026/01/15 01:31:00.000   46.877099212    7.465041570   950.2469   6   7   0.2217   0.1566   0.3941  -0.0830  -0.0605  -0.0693   0.00    0.0
2026/01/15 01:31:30.000   46.877099242    7.465041536   950.2500   6   6   0.2211   0.1562   0.3928  -0.0825  -0.0604  -0.0701   0.00    0.0
2026/01/15 01:32:00.000   46.877099276    7.465041494   950.2527   6   7   0.2204   0.1559   0.3916  -0.0820  -0.0603  -0.0709   0.00    0.0
2026/01/15 01:32:30.000   46.877099314    7.465041452   950.2555   6   7   0.2198   0.1555   0.3903  -0.0815  -0.0602  -0.0717   0.00    0.0
2026/01/15 01:33:00.000   46.877099356    7.465041409   950.2591   6   6   0.2192   0.1552   0.3891  -0.0810  -0.0601  -0.0725   0.00    0.0
2026/01/15 01:33:30.000   46.877099401    7.465041356   950.2618   6   6   0.2186   0.1548   0.3878  -0.0805  -0.0600  -0.0732   0.00    0.0
2026/01/15 01:34:00.000   46.877099444    7.465041305   950.2650   6   6   0.2180   0.1545   0.3866  -0.0800  -0.0599  -0.0739   0.00    0.0
2026/01/15 01:34:30.000   46.877099485    7.465041257   950.2689   6   6   0.2174   0.1541   0.3854  -0.0795  -0.0598  -0.0746   0.00    0.0
2026/01/15 01:35:00.000   46.877099527    7.465041209   950.2727   6   6   0.2168   0.1538   0.3842  -0.0790  -0.0596  -0.0753   0.00    0.0
2026/01/15 01:35:30.000   46.877099570    7.465041158   950.2755   6   6   0.2162   0.1534   0.3831  -0.0785  -0.0595  -0.0759   0.00    0.0
2026/01/15 01:36:00.000   46.877099603    7.465041116   950.2785   6   6   0.2156   0.1531   0.3819  -0.0780  -0.0594  -0.0766   0.00    0.0
2026/01/15 01:36:30.000   46.877099638    7.465041074   950.2814   6   6   0.2150   0.1527   0.3808  -0.0775  -0.0592  -0.0772   0.00    0.0
2026/01/15 01:37:00.000   46.877099674    7.465041030   950.2843   6   6   0.2144   0.1524   0.3796  -0.0770  -0.0591  -0.0778   0.00    0.0
2026/01/15 01:37:30.000   46.877099702    7.465040989   950.2875   6   6   0.2138   0.1520   0.3785  -0.0765  -0.0589  -0.0784   0.00    0.0
2026/01/15 01:38:00.000   46.877099730    7.465040949   950.2907   6   6   0.2132   0.1517   0.3774  -0.0761  -0.0587  -0.0790   0.00    0.0
2026/01/15 01:38:30.000   46.877099763    7.465040901   950.2927   6   6   0.2127   0.1514   0.3763  -0.0756  -0.0586  -0.0796   0.00    0.0
2026/01/15 01:39:00.000   46.877099797    7.465040861   950.2957   6   6   0.2121   0.1511   0.3752  -0.0751  -0.0584  -0.0801   0.00    0.0
2026/01/15 01:39:30.000   46.877099829    7.465040822   950.2983   6   5   0.2115   0.1507   0.3741  -0.0747  -0.0582  -0.0806   0.00    0.0
2026/01/15 01:40:00.000   46.877099869    7.465040776   950.3010   6   5   0.2109   0.1504   0.3730  -0.0742  -0.0581  -0.0811   0.00    0.0
2026/01/15 01:40:30.000   46.877099900    7.465040727   950.3036   6   5   0.2104   0.1501   0.3720  -0.0737  -0.0579  -0.0816   0.00    0.0
2026/01/15 01:41:00.000   46.877099932    7.465040677   950.3068   6   5   0.2098   0.1498   0.3710  -0.0733  -0.0577  -0.0821   0.00    0.0
2026/01/15 01:41:30.000   46.877099963    7.465040629   950.3104   6   5   0.2092   0.1494   0.3700  -0.0728  -0.0575  -0.0825   0.00    0.0
2026/01/15 01:42:00.000   46.877099994    7.465040579   950.3139   6   5   0.2087   0.1491   0.3690  -0.0724  -0.0573  -0.0830   0.00    0.0
2026/01/15 01:42:30.000   46.877100035    7.465040540   950.3185   6   4   0.2081   0.1488   0.3680  -0.0719  -0.0571  -0.0834   0.00    0.0
2026/01/15 01:43:00.000   46.877100065    7.465040500   950.3199   6   6   0.2076   0.1485   0.3670  -0.0715  -0.0569  -0.0838   0.00    0.0
2026/01/15 01:43:30.000   46.877100091    7.465040462   950.3204   6   6   0.2070   0.1482   0.3660  -0.0711  -0.0567  -0.0842   0.00    0.0
2026/01/15 01:44:00.000   46.877100119    7.465040426   950.3242   6   6   0.2065   0.1479   0.3652  -0.0706  -0.0562  -0.0844   0.00    0.0
2026/01/15 01:44:30.000   46.877100149    7.465040387   950.3284   6   6   0.2060   0.1476   0.3644  -0.0701  -0.0557  -0.0845   0.00    0.0
2026/01/15 01:45:00.000   46.877100180    7.465040346   950.3331   6   6   0.2055   0.1474   0.3636  -0.0696  -0.0552  -0.0847   0.00    0.0
2026/01/15 01:45:30.000   46.877100215    7.465040301   950.3383   6   6   0.2050   0.1471   0.3628  -0.0691  -0.0547  -0.0849   0.00    0.0
2026/01/15 01:46:00.000   46.877100247    7.465040253   950.3433   6   6   0.2045   0.1468   0.3620  -0.0686  -0.0542  -0.0850   0.00    0.0
2026/01/15 01:46:30.000   46.877100279    7.465040201   950.3481   6   6   0.2040   0.1465   0.3613  -0.0681  -0.0536  -0.0851   0.00    0.0
2026/01/15 01:47:00.000   46.877100308    7.465040155   950.3530   6   6   0.2035   0.1463   0.3605  -0.0676  -0.0531  -0.0853   0.00    0.0
2026/01/15 01:47:30.000   46.877100340    7.465040109   950.3583   6   6   0.2030   0.1460   0.3597  -0.0672  -0.0526  -0.0854   0.00    0.0
2026/01/15 01:48:00.000   46.877100371    7.465040064   950.3625   6   5   0.2025   0.1457   0.3590  -0.0667  -0.0521  -0.0855   0.00    0.0
2026/01/15 01:48:30.000   46.877100400    7.465040021   950.3666   6   5   0.2020   0.1455   0.3583  -0.0663  -0.0516  -0.0856   0.00    0.0
2026/01/15 01:49:00.000   46.877100427    7.465039982   950.3723   6   6   0.2015   0.1452   0.3575  -0.0658  -0.0510  -0.0857   0.00    0.0
2026/01/15 01:49:30.000   46.877100454    7.465039943   950.3779   6   6   0.2010   0.1449   0.3568  -0.0653  -0.0505  -0.0858   0.00    0.0
2026/01/15 01:50:00.000   46.877100485    7.465039897   950.3835   6   6   0.2005   0.1447   0.3561  -0.0649  -0.0499  -0.0859   0.00    0.0
2026/01/15 01:50:30.000   46.877100510    7.465039855   950.3872   6   5   0.2001   0.1444   0.3554  -0.0645  -0.0494  -0.0860   0.00    0.0
2026/01/15 01:51:00.000   46.877100531    7.465039816   950.3907   6   5   0.1996   0.1442   0.3547  -0.0640  -0.0489  -0.0861   0.00    0.0
2026/01/15 01:51:30.000   46.877100555    7.465039773   950.3962   6   6   0.1991   0.1439   0.3539  -0.0636  -0.0483  -0.0862   0.00    0.0
2026/01/15 01:52:00.000   46.877100577    7.465039731   950.3998   6   5   0.1986   0.1437   0.3533  -0.0632  -0.0478  -0.0862   0.00    0.0
2026/01/15 01:52:30.000   46.877100602    7.465039685   950.4041   6   5   0.1982   0.1434   0.3526  -0.0627  -0.0472  -0.0863   0.00    0.0
2026/01/15 01:53:00.000   46.877100627    7.465039642   950.4082   6   5   0.1977   0.1432   0.3519  -0.0623  -0.0467  -0.0864   0.00    0.0
2026/01/15 01:53:30.000   46.877100646    7.465039602   950.4120   6   5   0.1972   0.1429   0.3513  -0.0619  -0.0461  -0.0864   0.00    0.0
2026/01/15 01:54:00.000   46.877100668    7.465039557   950.4159   6   5   0.1968   0.1427   0.3506  -0.0615  -0.0456  -0.0864   0.00    0.0
2026/01/15 01:54:30.000   46.877100691    7.465039512   950.4199   6   5   0.1963   0.1424   0.3500  -0.0611  -0.0450  -0.0865   0.00    0.0
2026/01/15 01:55:00.000   46.877100710    7.465039471   950.4233   6   5   0.1958   0.1422   0.3493  -0.0607  -0.0445  -0.0865   0.00    0.0
2026/01/15 01:55:30.000   46.877100731    7.465039428   950.4268   6   5   0.1954   0.1420   0.3487  -0.0603  -0.0439  -0.0865   0.00    0.0
2026/01/15 01:56:00.000   46.877100753    7.465039385   950.4306   6   5   0.1949   0.1417   0.3481  -0.0600  -0.0433  -0.0865   0.00    0.0
2026/01/15 01:56:30.000   46.877100774    7.465039342   950.4348   6   5   0.1945   0.1415   0.3474  -0.0596  -0.0427  -0.0866   0.00    0.0
2026/01/15 01:57:00.000   46.877100793    7.465039301   950.4391   6   5   0.1940   0.1412   0.3468  -0.0592  -0.0422  -0.0866   0.00    0.0
2026/01/15 01:57:30.000   46.877100811    7.465039257   950.4436   6   5   0.1936   0.1410   0.3462  -0.0588  -0.0416  -0.0866   0.00    0.0
2026/01/15 01:58:00.000   46.877100831    7.465039212   950.4487   6   5   0.1931   0.1408   0.3456  -0.0585  -0.0410  -0.0866   0.00    0.0
2026/01/15 01:58:30.000   46.877100852    7.465039169   950.4538   6   5   0.1927   0.1405   0.3449  -0.0581  -0.0404  -0.0866   0.00    0.0
2026/01/15 01:59:00.000   46.877100874    7.465039128   950.4590   6   5   0.1923   0.1403   0.3443  -0.0578  -0.0398  -0.0866   0.00    0.0
2026/01/15 01:59:30.000   46.877100897    7.465039082   950.4643   6   5   0.1918   0.1401   0.3437  -0.0574  -0.0391  -0.0866   0.00    0.0
2026/01/15 02:00:00.000   46.877100928    7.465039027   950.4716   6   5   0.1915   0.1399   0.3432  -0.0571  -0.0387  -0.0865   0.00    0.0
2026/01/15 02:00:30.000   46.877100955    7.465038976   950.4789   6   5   0.1911   0.1397   0.3426  -0.0568  -0.0382  -0.0865   0.00    0.0
2026/01/15 02:01:00.000   46.877100989    7.465038915   950.4846   6   6   0.1907   0.1394   0.3419  -0.0563  -0.0383  -0.0862   0.00    0.0
2026/01/15 02:01:30.000   46.877101025    7.465038852   950.4901   6   6   0.1903   0.1391   0.3412  -0.0558  -0.0384  -0.0859   0.00    0.0
2026/01/15 02:02:00.000   46.877101060    7.465038792   950.4954   6   7   0.1900   0.1389   0.3405  -0.0554  -0.0385  -0.0856   0.00    0.0
2026/01/15 02:02:30.000   46.877101093    7.465038731   950.5009   6   7   0.1896   0.1386   0.3398  -0.0549  -0.0386  -0.0854   0.00    0.0
2026/01/15 02:03:00.000   46.877101126    7.465038671   950.5073   6   7   0.1892   0.1383   0.3391  -0.0544  -0.0387  -0.0851   0.00    0.0
2026/01/15 02:03:30.000   46.877101158    7.465038610   950.5138   6   7   0.1888   0.1381   0.3384  -0.0540  -0.0388  -0.0848   0.00    0.0
2026/01/15 02:04:00.000   46.877101190    7.465038549   950.5204   6   7   0.1884   0.1378   0.3377  -0.0535  -0.0389  -0.0845   0.00    0.0
2026/01/15 02:04:30.000   46.877101218    7.465038490   950.5277   6   7   0.1880   0.1375   0.3370  -0.0531  -0.0389  -0.0842   0.00    0.0
2026/01/15 02:05:00.000   46.877101247    7.465038430   950.5345   6   7   0.1877   0.1373   0.3364  -0.0526  -0.0390  -0.0839   0.00    0.0
2026/01/15 02:05:30.000   46.877101277    7.465038370   950.5415   6   7   0.1873   0.1370   0.3357  -0.0522  -0.0390  -0.0837   0.00    0.0
2026/01/15 02:06:00.000   46.877101307    7.465038310   950.5485   6   7   0.1869   0.1368   0.3350  -0.0517  -0.0391  -0.0834   0.00    0.0
2026/01/15 02:06:30.000   46.877101335    7.465038252   950.5559   6   7   0.1865   0.1365   0.3343  -0.0513  -0.0391  -0.0831   0.00    0.0
2026/01/15 02:07:00.000   46.877101364    7.465038191   950.5632   6   7   0.1862   0.1363   0.3337  -0.0509  -0.0392  -0.0828   0.00    0.0
2026/01/15 02:07:30.000   46.877101391    7.465038128   950.5705   6   7   0.1858   0.1360   0.3330  -0.0504  -0.0392  -0.0825   0.00    0.0
2026/01/15 02:08:00.000   46.877101417    7.465038067   950.5776   6   7   0.1854   0.1358   0.3324  -0.0500  -0.0392  -0.0823   0.00    0.0
2026/01/15 02:08:30.000   46.877101443    7.465038006   950.5853   6   7   0.1851   0.1355   0.3317  -0.0496  -0.0392  -0.0820   0.00    0.0
2026/01/15 02:09:00.000   46.877101470    7.465037942   950.5929   6   7   0.1847   0.1352   0.3311  -0.0492  -0.0393  -0.0817   0.00    0.0
2026/01/15 02:09:30.000   46.877101496    7.465037880   950.6005   6   7   0.1843   0.1350   0.3304  -0.0487  -0.0393  -0.0814   0.00    0.0
2026/01/15 02:10:00.000   46.877101521    7.465037817   950.6080   6   7   0.1840   0.1348   0.3298  -0.0483  -0.0393  -0.0812   0.00    0.0
2026/01/15 02:10:30.000   46.877101547    7.465037752   950.6158   6   7   0.1836   0.1345   0.3291  -0.0479  -0.0392  -0.0809   0.00    0.0
2026/01/15 02:11:00.000   46.877101575    7.465037686   950.6231   6   7   0.1833   0.1343   0.3285  -0.0475  -0.0392  -0.0806   0.00    0.0
2026/01/15 02:11:30.000   46.877101653    7.465037629   950.6379   6   7   0.1828   0.1340   0.3278  -0.0471  -0.0392  -0.0806   0.00    0.0
2026/01/15 02:12:00.000   46.877101726    7.465037575   950.6523   6   7   0.1823   0.1338   0.3271  -0.0467  -0.0393  -0.0807   0.00    0.0
2026/01/15 02:12:30.000   46.877101799    7.465037519   950.6668   6   7   0.1819   0.1335   0.3264  -0.0464  -0.0393  -0.0807   0.00    0.0
2026/01/15 02:13:00.000   46.877101869    7.465037465   950.6812   6   7   0.1814   0.1333   0.3257  -0.0460  -0.0392  -0.0807   0.00    0.0
2026/01/15 02:13:30.000   46.877101932    7.465037411   950.6949   6   7   0.1810   0.1330   0.3250  -0.0456  -0.0392  -0.0807   0.00    0.0
2026/01/15 02:14:00.000   46.877101999    7.465037357   950.7089   6   7   0.1805   0.1328   0.3243  -0.0453  -0.0392  -0.0808   0.00    0.0
2026/01/15 02:14:30.000   46.877102067    7.465037303   950.7239   6   7   0.1801   0.1326   0.3236  -0.0449  -0.0392  -0.0808   0.00    0.0
2026/01/15 02:15:00.000   46.877102134    7.465037251   950.7389   6   7   0.1796   0.1323   0.3229  -0.0446  -0.0392  -0.0808   0.00    0.0
2026/01/15 02:15:30.000   46.877102203    7.465037198   950.7539   6   7   0.1792   0.1321   0.3222  -0.0442  -0.0391  -0.0808   0.00    0.0
2026/01/15 02:16:00.000   46.877102275    7.465037142   950.7694   6   7   0.1787   0.1318   0.3215  -0.0439  -0.0391  -0.0808   0.00    0.0
2026/01/15 02:16:30.000   46.877102340    7.465037083   950.7844   6   7   0.1783   0.1316   0.3209  -0.0435  -0.0391  -0.0808   0.00    0.0
2026/01/15 02:17:00.000   46.877102405    7.465037025   950.7989   6   7   0.1778   0.1314   0.3202  -0.0432  -0.0390  -0.0808   0.00    0.0
2026/01/15 02:17:30.000   46.877102469    7.465036970   950.8133   6   7   0.1774   0.1311   0.3195  -0.0429  -0.0390  -0.0808   0.00    0.0
2026/01/15 02:18:00.000   46.877102535    7.465036915   950.8278   6   7   0.1769   0.1309   0.3189  -0.0426  -0.0389  -0.0808   0.00    0.0
2026/01/15 02:18:30.000   46.877102601    7.465036860   950.8424   6   7   0.1765   0.1307   0.3182  -0.0422  -0.0389  -0.0808   0.00    0.0
2026/01/15 02:19:00.000   46.877102664    7.465036808   950.8570   6   7   0.1761   0.1304   0.3176  -0.0419  -0.0388  -0.0807   0.00    0.0
2026/01/15 02:19:30.000   46.877102726    7.465036754   950.8719   6   7   0.1756   0.1302   0.3170  -0.0416  -0.0387  -0.0807   0.00    0.0
2026/01/15 02:20:00.000   46.877102783    7.465036700   950.8867   6   7   0.1752   0.1300   0.3163  -0.0413  -0.0387  -0.0807   0.00    0.0
2026/01/15 02:20:30.000   46.877102835    7.465036649   950.9008   6   7   0.1748   0.1298   0.3157  -0.0410  -0.0386  -0.0807   0.00    0.0
2026/01/15 02:21:00.000   46.877102890    7.465036599   950.9156   6   7   0.1743   0.1295   0.3151  -0.0407  -0.0385  -0.0806   0.00    0.0
2026/01/15 02:21:30.000   46.877102944    7.465036546   950.9307   6   7   0.1739   0.1293   0.3144  -0.0405  -0.0384  -0.0806   0.00    0.0
2026/01/15 02:22:00.000   46.877102999    7.465036492   950.9462   6   7   0.1735   0.1291   0.3138  -0.0402  -0.0383  -0.0806   0.00    0.0
2026/01/15 02:22:30.000   46.877103055    7.465036439   950.9612   6   7   0.1730   0.1288   0.3132  -0.0399  -0.0382  -0.0805   0.00    0.0
2026/01/15 02:23:00.000   46.877103109    7.465036386   950.9755   6   7   0.1726   0.1286   0.3126  -0.0397  -0.0381  -0.0805   0.00    0.0
2026/01/15 02:23:30.000   46.877103163    7.465036332   950.9905   6   7   0.1722   0.1284   0.3120  -0.0394  -0.0380  -0.0804   0.00    0.0
2026/01/15 02:24:00.000   46.877103220    7.465036276   951.0053   6   7   0.1718   0.1282   0.3114  -0.0391  -0.0379  -0.0804   0.00    0.0
2026/01/15 02:24:30.000   46.877103273    7.465036222   951.0196   6   7   0.1714   0.1280   0.3108  -0.0389  -0.0378  -0.0803   0.00    0.0
2026/01/15 02:25:00.000   46.877103328    7.465036169   951.0341   6   7   0.1709   0.1277   0.3102  -0.0386  -0.0377  -0.0803   0.00    0.0
2026/01/15 02:25:30.000   46.877103379    7.465036114   951.0485   6   7   0.1705   0.1275   0.3096  -0.0384  -0.0376  -0.0802   0.00    0.0
2026/01/15 02:26:00.000   46.877103411    7.465036090   951.0560   6   6   0.1701   0.1273   0.3092  -0.0383  -0.0378  -0.0800   0.00    0.0
2026/01/15 02:26:30.000   46.877103448    7.465036064   951.0637   6   6   0.1697   0.1272   0.3088  -0.0381  -0.0380  -0.0798   0.00    0.0
2026/01/15 02:27:00.000   46.877103486    7.465036039   951.0716   6   6   0.1694   0.1270   0.3083  -0.0380  -0.0382  -0.0795   0.00    0.0
2026/01/15 02:27:30.000   46.877103525    7.465036013   951.0799   6   6   0.1690   0.1268   0.3079  -0.0378  -0.0384  -0.0793   0.00    0.0
2026/01/15 02:28:00.000   46.877103565    7.465035985   951.0883   6   6   0.1686   0.1266   0.3075  -0.0377  -0.0386  -0.0791   0.00    0.0
2026/01/15 02:28:30.000   46.877103602    7.465035957   951.0966   6   6   0.1682   0.1265   0.3071  -0.0376  -0.0387  -0.0789   0.00    0.0
2026/01/15 02:29:00.000   46.877103639    7.465035932   951.1052   6   6   0.1678   0.1263   0.3067  -0.0375  -0.0389  -0.0786   0.00    0.0
2026/01/15 02:29:30.000   46.877103676    7.465035905   951.1140   6   6   0.1674   0.1261   0.3063  -0.0374  -0.0390  -0.0784   0.00    0.0
2026/01/15 02:30:00.000   46.877103711    7.465035880   951.1231   6   6   0.1670   0.1259   0.3059  -0.0372  -0.0392  -0.0782   0.00    0.0
2026/01/15 02:30:30.000   46.877103748    7.465035854   951.1323   6   6   0.1667   0.1258   0.3054  -0.0371  -0.0393  -0.0779   0.00    0.0
2026/01/15 02:31:00.000   46.877103787    7.465035826   951.1415   6   6   0.1663   0.1256   0.3050  -0.0370  -0.0394  -0.0777   0.00    0.0
2026/01/15 02:31:30.000   46.877103821    7.465035798   951.1510   6   6   0.1659   0.1254   0.3046  -0.0369  -0.0395  -0.0775   0.00    0.0
2026/01/15 02:32:00.000   46.877103859    7.465035769   951.1601   6   6   0.1655   0.1252   0.3042  -0.0368  -0.0396  -0.0772   0.00    0.0
2026/01/15 02:32:30.000   46.877103897    7.465035738   951.1690   6   6   0.1652   0.1251   0.3038  -0.0367  -0.0397  -0.0770   0.00    0.0
2026/01/15 02:33:00.000   46.877103929    7.465035709   951.1781   6   6   0.1648   0.1249   0.3035  -0.0366  -0.0398  -0.0768   0.00    0.0
2026/01/15 02:33:30.000   46.877103963    7.465035679   951.1872   6   6   0.1644   0.1247   0.3031  -0.0365  -0.0399  -0.0765   0.00    0.0
2026/01/15 02:34:00.000   46.877103998    7.465035648   951.1965   6   6   0.1641   0.1245   0.3027  -0.0365  -0.0399  -0.0763   0.00    0.0
2026/01/15 02:34:30.000   46.877104032    7.465035619   951.2059   6   6   0.1637   0.1244   0.3023  -0.0364  -0.0400  -0.0761   0.00    0.0
2026/01/15 02:35:00.000   46.877104068    7.465035588   951.2155   6   6   0.1633   0.1242   0.3019  -0.0363  -0.0400  -0.0758   0.00    0.0
2026/01/15 02:35:30.000   46.877104103    7.465035554   951.2250   6   6   0.1630   0.1240   0.3015  -0.0362  -0.0400  -0.0756   0.00    0.0
2026/01/15 02:36:00.000   46.877104137    7.465035519   951.2344   6   6   0.1626   0.1238   0.3011  -0.0362  -0.0401  -0.0753   0.00    0.0
2026/01/15 02:36:30.000   46.877104172    7.465035488   951.2440   6   6   0.1622   0.1237   0.3007  -0.0361  -0.0401  -0.0751   0.00    0.0
2026/01/15 02:37:00.000   46.877104205    7.465035454   951.2534   6   6   0.1619   0.1235   0.3004  -0.0360  -0.0401  -0.0748   0.00    0.0
2026/01/15 02:37:30.000   46.877104238    7.465035419   951.2633   6   6   0.1615   0.1233   0.3000  -0.0360  -0.0401  -0.0746   0.00    0.0
2026/01/15 02:38:00.000   46.877104270    7.465035383   951.2736   6   6   0.1612   0.1231   0.2996  -0.0359  -0.0401  -0.0743   0.00    0.0
2026/01/15 02:38:30.000   46.877104302    7.465035347   951.2840   6   6   0.1608   0.1230   0.2992  -0.0359  -0.0401  -0.0741   0.00    0.0
2026/01/15 02:39:00.000   46.877104333    7.465035313   951.2947   6   6   0.1605   0.1228   0.2988  -0.0358  -0.0400  -0.0738   0.00    0.0
2026/01/15 02:39:30.000   46.877104365    7.465035275   951.3054   6   6   0.1601   0.1226   0.2985  -0.0358  -0.0400  -0.0736   0.00    0.0
2026/01/15 02:40:00.000   46.877104395    7.465035238   951.3161   6   6   0.1598   0.1224   0.2981  -0.0357  -0.0400  -0.0733   0.00    0.0
2026/01/15 02:40:30.000   46.877104426    7.465035203   951.3269   6   6   0.1594   0.1223   0.2977  -0.0357  -0.0399  -0.0731   0.00    0.0
2026/01/15 02:41:00.000   46.877104456    7.465035166   951.3377   6   6   0.1591   0.1221   0.2973  -0.0356  -0.0399  -0.0728   0.00    0.0
2026/01/15 02:41:30.000   46.877104486    7.465035129   951.3486   6   6   0.1588   0.1219   0.2970  -0.0356  -0.0398  -0.0726   0.00    0.0
2026/01/15 02:42:00.000   46.877104518    7.465035093   951.3594   6   6   0.1584   0.1217   0.2966  -0.0356  -0.0397  -0.0723   0.00    0.0
2026/01/15 02:42:30.000   46.877104549    7.465035053   951.3704   6   6   0.1581   0.1216   0.2962  -0.0355  -0.0397  -0.0721   0.00    0.0
2026/01/15 02:43:00.000   46.877104581    7.465035012   951.3817   6   6   0.1578   0.1214   0.2959  -0.0355  -0.0396  -0.0718   0.00    0.0
2026/01/15 02:43:30.000   46.877104613    7.465034971   951.3929   6   6   0.1574   0.1212   0.2955  -0.0355  -0.0395  -0.0716   0.00    0.0
2026/01/15 02:44:00.000   46.877104645    7.465034931   951.4042   6   6   0.1571   0.1211   0.2951  -0.0355  -0.0394  -0.0713   0.00    0.0
2026/01/15 02:44:30.000   46.877104677    7.465034890   951.4157   6   6   0.1568   0.1209   0.2947  -0.0354  -0.0393  -0.0710   0.00    0.0
2026/01/15 02:45:00.000   46.877104706    7.465034847   951.4274   6   6   0.1564   0.1207   0.2944  -0.0354  -0.0391  -0.0708   0.00    0.0
2026/01/15 02:45:30.000   46.877104735    7.465034805   951.4392   6   6   0.1561   0.1205   0.2940  -0.0354  -0.0390  -0.0705   0.00    0.0
2026/01/15 02:46:00.000   46.877104763    7.465034764   951.4512   6   6   0.1558   0.1204   0.2936  -0.0354  -0.0389  -0.0703   0.00    0.0
2026/01/15 02:46:30.000   46.877104790    7.465034722   951.4633   6   7   0.1555   0.1202   0.2933  -0.0354  -0.0387  -0.0700   0.00    0.0
2026/01/15 02:47:00.000   46.877104818    7.465034678   951.4755   6   7   0.1552   0.1200   0.2929  -0.0354  -0.0386  -0.0697   0.00    0.0
2026/01/15 02:47:30.000   46.877104846    7.465034634   951.4877   6   7   0.1548   0.1199   0.2925  -0.0354  -0.0384  -0.0695   0.00    0.0
2026/01/15 02:48:00.000   46.877104874    7.465034590   951.5001   6   7   0.1545   0.1197   0.2922  -0.0354  -0.0383  -0.0692   0.00    0.0
2026/01/15 02:48:30.000   46.877104902    7.465034545   951.5126   6   7   0.1542   0.1195   0.2918  -0.0354  -0.0381  -0.0689   0.00    0.0
2026/01/15 02:49:00.000   46.877104932    7.465034500   951.5250   6   7   0.1539   0.1193   0.2914  -0.0354  -0.0379  -0.0687   0.00    0.0
2026/01/15 02:49:30.000   46.877104962    7.465034454   951.5376   6   7   0.1536   0.1192   0.2911  -0.0354  -0.0378  -0.0684   0.00    0.0
2026/01/15 02:50:00.000   46.877104990    7.465034408   951.5504   6   7   0.1533   0.1190   0.2907  -0.0354  -0.0376  -0.0682   0.00    0.0
2026/01/15 02:50:30.000   46.877105018    7.465034363   951.5634   6   7   0.1530   0.1188   0.2903  -0.0354  -0.0374  -0.0679   0.00    0.0
2026/01/15 02:51:00.000   46.877105045    7.465034315   951.5766   6   7   0.1527   0.1187   0.2900  -0.0354  -0.0372  -0.0676   0.00    0.0
2026/01/15 02:51:30.000   46.877105073    7.465034267   951.5900   6   7   0.1524   0.1185   0.2896  -0.0354  -0.0370  -0.0674   0.00    0.0
2026/01/15 02:52:00.000   46.877105102    7.465034219   951.6034   6   7   0.1521   0.1183   0.2892  -0.0354  -0.0367  -0.0671   0.00    0.0
2026/01/15 02:52:30.000   46.877105130    7.465034172   951.6165   6   7   0.1518   0.1182   0.2889  -0.0354  -0.0365  -0.0668   0.00    0.0
2026/01/15 02:53:00.000   46.877105156    7.465034124   951.6299   6   7   0.1515   0.1180   0.2885  -0.0355  -0.0363  -0.0666   0.00    0.0
2026/01/15 02:53:30.000   46.877105180    7.465034077   951.6436   6   7   0.1512   0.1178   0.2881  -0.0355  -0.0360  -0.0663   0.00    0.0
2026/01/15 02:54:00.000   46.877105207    7.465034028   951.6576   6   7   0.1509   0.1177   0.2877  -0.0355  -0.0358  -0.0661   0.00    0.0
2026/01/15 02:54:30.000   46.877105231    7.465033981   951.6716   6   7   0.1506   0.1175   0.2874  -0.0355  -0.0355  -0.0658   0.00    0.0
2026/01/15 02:55:00.000   46.877105256    7.465033934   951.6853   6   7   0.1503   0.1173   0.2870  -0.0355  -0.0353  -0.0655   0.00    0.0
2026/01/15 02:55:30.000   46.877105279    7.465033890   951.6993   6   7   0.1500   0.1172   0.2866  -0.0356  -0.0350  -0.0653   0.00    0.0
2026/01/15 02:56:00.000   46.877105303    7.465033843   951.7133   6   7   0.1497   0.1170   0.2862  -0.0356  -0.0347  -0.0650   0.00    0.0
2026/01/15 02:56:30.000   46.877105328    7.465033794   951.7274   6   7   0.1495   0.1168   0.2859  -0.0356  -0.0345  -0.0648   0.00    0.0
2026/01/15 02:57:00.000   46.877105353    7.465033744   951.7416   6   7   0.1492   0.1167   0.2855  -0.0356  -0.0342  -0.0645   0.00    0.0
2026/01/15 02:57:30.000   46.877105379    7.465033695   951.7558   6   7   0.1489   0.1165   0.2851  -0.0357  -0.0339  -0.0642   0.00    0.0
2026/01/15 02:58:00.000   46.877105405    7.465033643   951.7702   6   7   0.1486   0.1164   0.2847  -0.0357  -0.0336  -0.0640   0.00    0.0
2026/01/15 02:58:30.000   46.877105431    7.465033590   951.7849   6   7   0.1484   0.1162   0.2844  -0.0357  -0.0332  -0.0637   0.00    0.0
2026/01/15 02:59:00.000   46.877105456    7.465033538   951.7995   6   7   0.1481   0.1160   0.2840  -0.0358  -0.0329  -0.0635   0.00    0.0
2026/01/15 02:59:30.000   46.877105479    7.465033488   951.8140   6   7   0.1478   0.1159   0.2836  -0.0358  -0.0326  -0.0632   0.00    0.0
2026/01/15 03:00:00.000   46.877105505    7.465033455   951.8312   6   7   0.1475   0.1157   0.2832  -0.0358  -0.0323  -0.0630   0.00    0.0
2026/01/15 03:00:30.000   46.877105531    7.465033423   951.8486   6   7   0.1472   0.1155   0.2827  -0.0359  -0.0319  -0.0627   0.00    0.0
2026/01/15 03:01:00.000   46.877105558    7.465033392   951.8657   6   7   0.1469   0.1154   0.2823  -0.0359  -0.0316  -0.0625   0.00    0.0
2026/01/15 03:01:30.000   46.877105583    7.465033359   951.8831   6   7   0.1465   0.1152   0.2819  -0.0360  -0.0313  -0.0622   0.00    0.0
2026/01/15 03:02:00.000   46.877105607    7.465033327   951.9007   6   7   0.1462   0.1150   0.2814  -0.0360  -0.0309  -0.0620   0.00    0.0
2026/01/15 03:02:30.000   46.877105632    7.465033294   951.9184   6   7   0.1459   0.1149   0.2810  -0.0361  -0.0306  -0.0617   0.00    0.0
2026/01/15 03:03:00.000   46.877105660    7.465033263   951.9358   6   7   0.1456   0.1147   0.2805  -0.0361  -0.0302  -0.0615   0.00    0.0
2026/01/15 03:03:30.000   46.877105688    7.465033231   951.9533   6   7   0.1453   0.1146   0.2801  -0.0362  -0.0298  -0.0612   0.00    0.0
2026/01/15 03:04:00.000   46.877105714    7.465033199   951.9709   6   7   0.1450   0.1144   0.2797  -0.0362  -0.0295  -0.0610   0.00    0.0
2026/01/15 03:04:30.000   46.877105738    7.465033168   951.9888   6   7   0.1447   0.1142   0.2792  -0.0363  -0.0291  -0.0608   0.00    0.0
2026/01/15 03:05:00.000   46.877105764    7.465033136   952.0069   6   7   0.1444   0.1141   0.2788  -0.0363  -0.0287  -0.0605   0.00    0.0
2026/01/15 03:05:30.000   46.877105790    7.465033103   952.0251   6   7   0.1441   0.1139   0.2783  -0.0364  -0.0283  -0.0603   0.00    0.0
2026/01/15 03:06:00.000   46.877105816    7.465033069   952.0437   6   7   0.1438   0.1138   0.2779  -0.0364  -0.0279  -0.0601   0.00    0.0
2026/01/15 03:06:30.000   46.877105841    7.465033034   952.0624   6   7   0.1436   0.1136   0.2774  -0.0365  -0.0275  -0.0599   0.00    0.0
2026/01/15 03:07:00.000   46.877105865    7.465032999   952.0814   6   7   0.1433   0.1134   0.2770  -0.0366  -0.0270  -0.0596   0.00    0.0
2026/01/15 03:07:30.000   46.877105891    7.465032965   952.1003   6   7   0.1430   0.1133   0.2765  -0.0366  -0.0266  -0.0594   0.00    0.0
2026/01/15 03:08:00.000   46.877105918    7.465032932   952.1193   6   7   0.1427   0.1131   0.2761  -0.0367  -0.0262  -0.0592   0.00    0.0
2026/01/15 03:08:30.000   46.877105945    7.465032899   952.1384   6   7   0.1424   0.1130   0.2756  -0.0367  -0.0257  -0.0590   0.00    0.0
2026/01/15 03:09:00.000   46.877105972    7.465032866   952.1576   6   7   0.1422   0.1128   0.2752  -0.0368  -0.0252  -0.0588   0.00    0.0
2026/01/15 03:09:30.000   46.877105999    7.465032832   952.1773   6   7   0.1419   0.1127   0.2747  -0.0368  -0.0248  -0.0586   0.00    0.0
2026/01/15 03:10:00.000   46.877106025    7.465032800   952.1972   6   7   0.1416   0.1125   0.2742  -0.0369  -0.0243  -0.0584   0.00    0.0
2026/01/15 03:10:30.000   46.877106052    7.465032770   952.2167   6   7   0.1414   0.1123   0.2738  -0.0369  -0.0238  -0.0582   0.00    0.0
2026/01/15 03:11:00.000   46.877106080    7.465032739   952.2363   6   7   0.1411   0.1122   0.2733  -0.0370  -0.0233  -0.0580   0.00    0.0
2026/01/15 03:11:30.000   46.877106106    7.465032706   952.2560   6   7   0.1408   0.1120   0.2728  -0.0371  -0.0228  -0.0578   0.00    0.0
2026/01/15 03:12:00.000   46.877106132    7.465032673   952.2759   6   7   0.1406   0.1119   0.2724  -0.0371  -0.0223  -0.0577   0.00    0.0
2026/01/15 03:12:30.000   46.877106157    7.465032639   952.2961   6   7   0.1403   0.1117   0.2719  -0.0372  -0.0217  -0.0575   0.00    0.0
2026/01/15 03:13:00.000   46.877106183    7.465032605   952.3163   6   7   0.1401   0.1116   0.2714  -0.0372  -0.0212  -0.0573   0.00    0.0
2026/01/15 03:13:30.000   46.877106210    7.465032571   952.3364   6   7   0.1398   0.1114   0.2709  -0.0373  -0.0206  -0.0572   0.00    0.0
2026/01/15 03:14:00.000   46.877106238    7.465032538   952.3564   6   7   0.1396   0.1113   0.2705  -0.0373  -0.0200  -0.0570   0.00    0.0
2026/01/15 03:14:30.000   46.877106265    7.465032506   952.3762   6   7   0.1393   0.1111   0.2700  -0.0374  -0.0194  -0.0568   0.00    0.0
2026/01/15 03:15:00.000   46.877106290    7.465032472   952.3966   6   7   0.1391   0.1110   0.2695  -0.0375  -0.0188  -0.0567   0.00    0.0
2026/01/15 03:15:30.000   46.877106320    7.465032434   952.4164   6   8   0.1388   0.1108   0.2689  -0.0374  -0.0186  -0.0563   0.00    0.0
2026/01/15 03:16:00.000   46.877106352    7.465032396   952.4359   6   8   0.1385   0.1107   0.2684  -0.0374  -0.0184  -0.0560   0.00    0.0
2026/01/15 03:16:30.000   46.877106382    7.465032358   952.4556   6   8   0.1382   0.1105   0.2678  -0.0373  -0.0181  -0.0556   0.00    0.0
2026/01/15 03:17:00.000   46.877106412    7.465032318   952.4754   6   8   0.1379   0.1103   0.2672  -0.0373  -0.0179  -0.0553   0.00    0.0
2026/01/15 03:17:30.000   46.877106444    7.465032279   952.4945   6   8   0.1377   0.1101   0.2667  -0.0372  -0.0177  -0.0550   0.00    0.0
2026/01/15 03:18:00.000   46.877106475    7.465032242   952.5138   6   8   0.1374   0.1100   0.2661  -0.0372  -0.0174  -0.0547   0.00    0.0
2026/01/15 03:18:30.000   46.877106505    7.465032202   952.5334   6   8   0.1371   0.1098   0.2655  -0.0371  -0.0172  -0.0543   0.00    0.0
2026/01/15 03:19:00.000   46.877106536    7.465032163   952.5530   6   8   0.1369   0.1096   0.2649  -0.0371  -0.0169  -0.0540   0.00    0.0
2026/01/15 03:19:30.000   46.877106568    7.465032124   952.5725   6   8   0.1366   0.1095   0.2644  -0.0371  -0.0166  -0.0537   0.00    0.0
2026/01/15 03:20:00.000   46.877106598    7.465032087   952.5921   6   8   0.1363   0.1093   0.2638  -0.0370  -0.0164  -0.0534   0.00    0.0
2026/01/15 03:20:30.000   46.877106628    7.465032050   952.6116   6   8   0.1361   0.1091   0.2632  -0.0370  -0.0161  -0.0531   0.00    0.0
2026/01/15 03:21:00.000   46.877106656    7.465032012   952.6311   6   8   0.1358   0.1090   0.2626  -0.0369  -0.0158  -0.0528   0.00    0.0
2026/01/15 03:21:30.000   46.877106686    7.465031971   952.6507   6   8   0.1355   0.1088   0.2621  -0.0369  -0.0155  -0.0525   0.00    0.0
2026/01/15 03:22:00.000   46.877106717    7.465031931   952.6702   6   8   0.1353   0.1087   0.2615  -0.0368  -0.0153  -0.0522   0.00    0.0
2026/01/15 03:22:30.000   46.877106748    7.465031892   952.6898   6   8   0.1350   0.1085   0.2609  -0.0368  -0.0150  -0.0519   0.00    0.0
2026/01/15 03:23:00.000   46.877106779    7.465031854   952.7094   6   8   0.1348   0.1083   0.2603  -0.0367  -0.0147  -0.0517   0.00    0.0
2026/01/15 03:23:30.000   46.877106810    7.465031814   952.7293   6   8   0.1345   0.1082   0.2598  -0.0367  -0.0143  -0.0514   0.00    0.0
2026/01/15 03:24:00.000   46.877106840    7.465031774   952.7492   6   8   0.1342   0.1080   0.2592  -0.0366  -0.0140  -0.0511   0.00    0.0
2026/01/15 03:24:30.000   46.877106869    7.465031734   952.7694   6   8   0.1340   0.1078   0.2586  -0.0366  -0.0137  -0.0509   0.00    0.0
2026/01/15 03:25:00.000   46.877106900    7.465031693   952.7897   6   8   0.1337   0.1077   0.2580  -0.0366  -0.0134  -0.0506   0.00    0.0
2026/01/15 03:25:30.000   46.877106931    7.465031652   952.8095   6   8   0.1335   0.1075   0.2575  -0.0365  -0.0130  -0.0504   0.00    0.0
2026/01/15 03:26:00.000   46.877106961    7.465031611   952.8294   6   8   0.1333   0.1074   0.2569  -0.0365  -0.0127  -0.0502   0.00    0.0
2026/01/15 03:26:30.000   46.877106991    7.465031569   952.8496   6   8   0.1330   0.1072   0.2563  -0.0364  -0.0123  -0.0499   0.00    0.0
2026/01/15 03:27:00.000   46.877107023    7.465031528   952.8694   6   8   0.1328   0.1071   0.2557  -0.0364  -0.0119  -0.0497   0.00    0.0
2026/01/15 03:27:30.000   46.877107056    7.465031486   952.8888   6   8   0.1325   0.1069   0.2551  -0.0363  -0.0115  -0.0495   0.00    0.0
2026/01/15 03:28:00.000   46.877107091    7.465031453   952.9017   6   7   0.1323   0.1068   0.2548  -0.0362  -0.0120  -0.0494   0.00    0.0
2026/01/15 03:28:30.000   46.877107126    7.465031419   952.9147   6   7   0.1321   0.1066   0.2544  -0.0361  -0.0125  -0.0493   0.00    0.0
2026/01/15 03:29:00.000   46.877107161    7.465031386   952.9277   6   7   0.1318   0.1065   0.2540  -0.0361  -0.0130  -0.0492   0.00    0.0
2026/01/15 03:29:30.000   46.877107196    7.465031352   952.9408   6   7   0.1316   0.1064   0.2537  -0.0360  -0.0134  -0.0491   0.00    0.0
2026/01/15 03:30:00.000   46.877107230    7.465031318   952.9541   6   7   0.1314   0.1063   0.2533  -0.0359  -0.0138  -0.0490   0.00    0.0
2026/01/15 03:30:30.000   46.877107264    7.465031284   952.9673   6   7   0.1312   0.1061   0.2529  -0.0358  -0.0142  -0.0490   0.00    0.0
2026/01/15 03:31:00.000   46.877107298    7.465031249   952.9806   6   7   0.1309   0.1060   0.2526  -0.0357  -0.0146  -0.0489   0.00    0.0
2026/01/15 03:31:30.000   46.877107329    7.465031215   952.9943   6   7   0.1307   0.1059   0.2522  -0.0356  -0.0149  -0.0488   0.00    0.0
2026/01/15 03:32:00.000   46.877107361    7.465031182   953.0084   6   7   0.1305   0.1057   0.2518  -0.0355  -0.0153  -0.0488   0.00    0.0
2026/01/15 03:32:30.000   46.877107394    7.465031148   953.0223   6   7   0.1303   0.1056   0.2514  -0.0355  -0.0156  -0.0487   0.00    0.0
2026/01/15 03:33:00.000   46.877107428    7.465031113   953.0361   6   7   0.1300   0.1055   0.2511  -0.0354  -0.0159  -0.0486   0.00    0.0
2026/01/15 03:33:30.000   46.877107460    7.465031079   953.0504   6   7   0.1298   0.1054   0.2507  -0.0353  -0.0161  -0.0486   0.00    0.0
2026/01/15 03:34:00.000   46.877107492    7.465031044   953.0650   6   7   0.1296   0.1052   0.2503  -0.0352  -0.0164  -0.0485   0.00    0.0
2026/01/15 03:34:30.000   46.877107525    7.465031007   953.0793   6   7   0.1294   0.1051   0.2499  -0.0351  -0.0167  -0.0485   0.00    0.0
2026/01/15 03:35:00.000   46.877107556    7.465030971   953.0935   6   7   0.1292   0.1050   0.2495  -0.0351  -0.0169  -0.0484   0.00    0.0
2026/01/15 03:35:30.000   46.877107585    7.465030936   953.1079   6   7   0.1290   0.1049   0.2491  -0.0350  -0.0171  -0.0484   0.00    0.0
2026/01/15 03:36:00.000   46.877107614    7.465030901   953.1225   6   7   0.1288   0.1047   0.2487  -0.0349  -0.0173  -0.0484   0.00    0.0
2026/01/15 03:36:30.000   46.877107645    7.465030863   953.1369   6   7   0.1285   0.1046   0.2483  -0.0348  -0.0175  -0.0483   0.00    0.0
2026/01/15 03:37:00.000   46.877107674    7.465030828   953.1515   6   7   0.1283   0.1045   0.2479  -0.0348  -0.0177  -0.0483   0.00    0.0
2026/01/15 03:37:30.000   46.877107702    7.465030792   953.1661   6   7   0.1281   0.1044   0.2475  -0.0347  -0.0179  -0.0483   0.00    0.0
2026/01/15 03:38:00.000   46.877107731    7.465030755   953.1806   6   7   0.1279   0.1042   0.2471  -0.0346  -0.0181  -0.0483   0.00    0.0
2026/01/15 03:38:30.000   46.877107761    7.465030717   953.1951   6   7   0.1277   0.1041   0.2467  -0.0345  -0.0182  -0.0483   0.00    0.0
2026/01/15 03:39:00.000   46.877107790    7.465030680   953.2100   6   7   0.1275   0.1040   0.2463  -0.0345  -0.0184  -0.0482   0.00    0.0
2026/01/15 03:39:30.000   46.877107819    7.465030640   953.2246   6   7   0.1273   0.1039   0.2459  -0.0344  -0.0185  -0.0482   0.00    0.0
2026/01/15 03:40:00.000   46.877107847    7.465030601   953.2393   6   7   0.1271   0.1038   0.2455  -0.0343  -0.0187  -0.0482   0.00    0.0
2026/01/15 03:40:30.000   46.877107874    7.465030565   953.2544   6   7   0.1269   0.1036   0.2451  -0.0343  -0.0188  -0.0482   0.00    0.0
2026/01/15 03:41:00.000   46.877107900    7.465030528   953.2695   6   7   0.1267   0.1035   0.2447  -0.0342  -0.0189  -0.0482   0.00    0.0
2026/01/15 03:41:30.000   46.877107927    7.465030490   953.2844   6   7   0.1265   0.1034   0.2443  -0.0341  -0.0190  -0.0482   0.00    0.0
2026/01/15 03:42:00.000   46.877107952    7.465030453   953.2995   6   7   0.1263   0.1033   0.2439  -0.0341  -0.0191  -0.0482   0.00    0.0
2026/01/15 03:42:30.000   46.877107979    7.465030415   953.3147   6   7   0.1261   0.1031   0.2434  -0.0340  -0.0192  -0.0483   0.00    0.0
2026/01/15 03:43:00.000   46.877108005    7.465030377   953.3299   6   7   0.1259   0.1030   0.2430  -0.0339  -0.0193  -0.0483   0.00    0.0
2026/01/15 03:43:30.000   46.877108031    7.465030339   953.3453   6   7   0.1257   0.1029   0.2426  -0.0339  -0.0194  -0.0483   0.00    0.0
2026/01/15 03:44:00.000   46.877108056    7.465030302   953.3603   6   7   0.1255   0.1028   0.2422  -0.0338  -0.0194  -0.0483   0.00    0.0
2026/01/15 03:44:30.000   46.877108079    7.465030264   953.3753   6   7   0.1253   0.1027   0.2418  -0.0337  -0.0195  -0.0483   0.00    0.0
2026/01/15 03:45:00.000   46.877108101    7.465030226   953.3905   6   7   0.1251   0.1025   0.2413  -0.0337  -0.0196  -0.0484   0.00    0.0
2026/01/15 03:45:30.000   46.877108124    7.465030187   953.4058   6   7   0.1250   0.1024   0.2409  -0.0336  -0.0196  -0.0484   0.00    0.0
2026/01/15 03:46:00.000   46.877108148    7.465030147   953.4209   6   7   0.1248   0.1023   0.2405  -0.0336  -0.0196  -0.0484   0.00    0.0
2026/01/15 03:46:30.000   46.877108174    7.465030108   953.4361   6   7   0.1246   0.1022   0.2400  -0.0335  -0.0197  -0.0485   0.00    0.0
2026/01/15 03:47:00.000   46.877108198    7.465030069   953.4511   6   7   0.1244   0.1021   0.2396  -0.0334  -0.0197  -0.0485   0.00    0.0
2026/01/15 03:47:30.000   46.877108220    7.465030031   953.4663   6   7   0.1242   0.1020   0.2392  -0.0334  -0.0197  -0.0485   0.00    0.0
2026/01/15 03:48:00.000   46.877108243    7.465029993   953.4818   6   7   0.1240   0.1018   0.2387  -0.0333  -0.0198  -0.0486   0.00    0.0
2026/01/15 03:48:30.000   46.877108267    7.465029955   953.4973   6   7   0.1238   0.1017   0.2383  -0.0333  -0.0198  -0.0486   0.00    0.0
2026/01/15 03:49:00.000   46.877108288    7.465029916   953.5126   6   7   0.1237   0.1016   0.2379  -0.0332  -0.0198  -0.0487   0.00    0.0
2026/01/15 03:49:30.000   46.877108309    7.465029877   953.5278   6   7   0.1235   0.1015   0.2374  -0.0332  -0.0198  -0.0487   0.00    0.0
2026/01/15 03:50:00.000   46.877108330    7.465029839   953.5431   6   7   0.1233   0.1014   0.2370  -0.0331  -0.0198  -0.0488   0.00    0.0
2026/01/15 03:50:30.000   46.877108351    7.465029803   953.5584   6   7   0.1231   0.1013   0.2366  -0.0331  -0.0198  -0.0489   0.00    0.0
2026/01/15 03:51:00.000   46.877108373    7.465029767   953.5740   6   7   0.1229   0.1011   0.2361  -0.0330  -0.0197  -0.0489   0.00    0.0
2026/01/15 03:51:30.000   46.877108394    7.465029731   953.5896   6   7   0.1228   0.1010   0.2357  -0.0329  -0.0197  -0.0490   0.00    0.0
2026/01/15 03:52:00.000   46.877108413    7.465029695   953.6051   6   7   0.1226   0.1009   0.2352  -0.0329  -0.0197  -0.0490   0.00    0.0
2026/01/15 03:52:30.000   46.877108433    7.465029659   953.6205   6   7   0.1224   0.1008   0.2348  -0.0328  -0.0197  -0.0491   0.00    0.0
2026/01/15 03:53:00.000   46.877108453    7.465029623   953.6358   6   7   0.1222   0.1007   0.2343  -0.0328  -0.0196  -0.0492   0.00    0.0
2026/01/15 03:53:30.000   46.877108473    7.465029585   953.6511   6   7   0.1221   0.1006   0.2339  -0.0327  -0.0196  -0.0492   0.00    0.0
2026/01/15 03:54:00.000   46.877108494    7.465029548   953.6665   6   7   0.1219   0.1005   0.2334  -0.0327  -0.0195  -0.0493   0.00    0.0
2026/01/15 03:54:30.000   46.877108512    7.465029511   953.6818   6   7   0.1217   0.1003   0.2330  -0.0326  -0.0195  -0.0494   0.00    0.0
2026/01/15 03:55:00.000   46.877108531    7.465029473   953.6972   6   7   0.1215   0.1002   0.2325  -0.0326  -0.0194  -0.0495   0.00    0.0
2026/01/15 03:55:30.000   46.877108551    7.465029436   953.7128   6   7   0.1214   0.1001   0.2321  -0.0326  -0.0194  -0.0495   0.00    0.0
2026/01/15 03:56:00.000   46.877108568    7.465029399   953.7282   6   7   0.1212   0.1000   0.2316  -0.0325  -0.0193  -0.0496   0.00    0.0
2026/01/15 03:56:30.000   46.877108585    7.465029361   953.7435   6   7   0.1210   0.0999   0.2312  -0.0325  -0.0192  -0.0497   0.00    0.0
2026/01/15 03:57:00.000   46.877108604    7.465029323   953.7589   6   7   0.1209   0.0998   0.2307  -0.0324  -0.0192  -0.0498   0.00    0.0
2026/01/15 03:57:30.000   46.877108620    7.465029285   953.7743   6   8   0.1207   0.0997   0.2302  -0.0324  -0.0193  -0.0498   0.00    0.0
2026/01/15 03:58:00.000   46.877108637    7.465029245   953.7892   6   8   0.1205   0.0995   0.2297  -0.0323  -0.0195  -0.0499   0.00    0.0
2026/01/15 03:58:30.000   46.877108654    7.465029205   953.8042   6   8   0.1204   0.0994   0.2292  -0.0322  -0.0197  -0.0499   0.00    0.0
2026/01/15 03:59:00.000   46.877108669    7.465029167   953.8194   6   8   0.1202   0.0993   0.2287  -0.0322  -0.0198  -0.0500   0.00    0.0
2026/01/15 03:59:30.000   46.877108685    7.465029129   953.8347   6   8   0.1200   0.0991   0.2282  -0.0321  -0.0199  -0.0501   0.00    0.0
2026/01/15 04:00:00.000   46.877108699    7.465029091   953.8496   6   8   0.1199   0.0990   0.2277  -0.0321  -0.0201  -0.0501   0.00    0.0
2026/01/15 04:00:30.000   46.877108712    7.465029054   953.8646   6   8   0.1197   0.0989   0.2272  -0.0320  -0.0202  -0.0502   0.00    0.0
2026/01/15 04:01:00.000   46.877108727    7.465029017   953.8793   6   8   0.1196   0.0987   0.2267  -0.0320  -0.0203  -0.0502   0.00    0.0
2026/01/15 04:01:30.000   46.877108740    7.465028980   953.8937   6   8   0.1194   0.0986   0.2262  -0.0319  -0.0205  -0.0503   0.00    0.0
2026/01/15 04:02:00.000   46.877108753    7.465028944   953.9085   6   8   0.1192   0.0985   0.2257  -0.0318  -0.0206  -0.0504   0.00    0.0
2026/01/15 04:02:30.000   46.877108769    7.465028903   953.9226   6   8   0.1191   0.0984   0.2252  -0.0318  -0.0207  -0.0504   0.00    0.0
2026/01/15 04:03:00.000   46.877108782    7.465028865   953.9365   6   8   0.1189   0.0982   0.2246  -0.0317  -0.0208  -0.0505   0.00    0.0
2026/01/15 04:03:30.000   46.877108794    7.465028830   953.9505   6   8   0.1188   0.0981   0.2241  -0.0317  -0.0209  -0.0506   0.00    0.0
2026/01/15 04:04:00.000   46.877108807    7.465028791   953.9641   6   8   0.1186   0.0980   0.2236  -0.0316  -0.0210  -0.0506   0.00    0.0
2026/01/15 04:04:30.000   46.877108818    7.465028756   953.9778   6   8   0.1185   0.0979   0.2231  -0.0316  -0.0210  -0.0507   0.00    0.0
2026/01/15 04:05:00.000   46.877108829    7.465028718   953.9917   6   8   0.1183   0.0977   0.2226  -0.0315  -0.0211  -0.0508   0.00    0.0
2026/01/15 04:05:30.000   46.877108819    7.465028677   953.9993   6   7   0.1182   0.0976   0.2223  -0.0314  -0.0212  -0.0506   0.00    0.0
2026/01/15 04:06:00.000   46.877108810    7.465028639   954.0073   6   7   0.1181   0.0975   0.2219  -0.0314  -0.0213  -0.0505   0.00    0.0
2026/01/15 04:06:30.000   46.877108799    7.465028603   954.0158   6   7   0.1179   0.0974   0.2216  -0.0313  -0.0213  -0.0503   0.00    0.0
2026/01/15 04:07:00.000   46.877108789    7.465028565   954.0241   6   7   0.1178   0.0972   0.2212  -0.0313  -0.0214  -0.0502   0.00    0.0
2026/01/15 04:07:30.000   46.877108778    7.465028527   954.0327   6   7   0.1177   0.0971   0.2209  -0.0312  -0.0215  -0.0500   0.00    0.0
2026/01/15 04:08:00.000   46.877108766    7.465028491   954.0414   6   7   0.1176   0.0970   0.2205  -0.0311  -0.0215  -0.0499   0.00    0.0
2026/01/15 04:08:30.000   46.877108755    7.465028454   954.0497   6   7   0.1175   0.0969   0.2202  -0.0311  -0.0216  -0.0497   0.00    0.0
2026/01/15 04:09:00.000   46.877108745    7.465028420   954.0580   6   7   0.1174   0.0967   0.2198  -0.0310  -0.0216  -0.0496   0.00    0.0
2026/01/15 04:09:30.000   46.877108736    7.465028385   954.0662   6   7   0.1172   0.0966   0.2195  -0.0310  -0.0217  -0.0495   0.00    0.0
2026/01/15 04:10:00.000   46.877108726    7.465028351   954.0741   6   7   0.1171   0.0965   0.2191  -0.0309  -0.0217  -0.0494   0.00    0.0
2026/01/15 04:10:30.000   46.877108716    7.465028317   954.0821   6   7   0.1170   0.0964   0.2188  -0.0309  -0.0218  -0.0492   0.00    0.0
2026/01/15 04:11:00.000   46.877108706    7.465028282   954.0900   6   7   0.1169   0.0963   0.2184  -0.0308  -0.0218  -0.0491   0.00    0.0
2026/01/15 04:11:30.000   46.877108696    7.465028245   954.0978   6   7   0.1168   0.0961   0.2181  -0.0308  -0.0218  -0.0490   0.00    0.0
2026/01/15 04:12:00.000   46.877108685    7.465028210   954.1058   6   7   0.1167   0.0960   0.2177  -0.0307  -0.0219  -0.0489   0.00    0.0
2026/01/15 04:12:30.000   46.877108673    7.465028173   954.1137   6   7   0.1165   0.0959   0.2174  -0.0306  -0.0219  -0.0488   0.00    0.0
2026/01/15 04:13:00.000   46.877108662    7.465028135   954.1214   6   7   0.1164   0.0958   0.2170  -0.0306  -0.0219  -0.0487   0.00    0.0
2026/01/15 04:13:30.000   46.877108650    7.465028099   954.1295   6   7   0.1163   0.0957   0.2167  -0.0305  -0.0219  -0.0485   0.00    0.0
2026/01/15 04:14:00.000   46.877108638    7.465028065   954.1375   6   7   0.1162   0.0956   0.2163  -0.0305  -0.0219  -0.0484   0.00    0.0
2026/01/15 04:14:30.000   46.877108625    7.465028031   954.1454   6   7   0.1161   0.0954   0.2159  -0.0304  -0.0219  -0.0483   0.00    0.0
2026/01/15 04:15:00.000   46.877108613    7.465027999   954.1535   6   7   0.1160   0.0953   0.2156  -0.0304  -0.0220  -0.0482   0.00    0.0
2026/01/15 04:15:30.000   46.877108601    7.465027966   954.1616   6   7   0.1158   0.0952   0.2152  -0.0303  -0.0220  -0.0482   0.00    0.0
2026/01/15 04:16:00.000   46.877108588    7.465027934   954.1698   6   7   0.1157   0.0951   0.2149  -0.0303  -0.0220  -0.0481   0.00    0.0
2026/01/15 04:16:30.000   46.877108576    7.465027903   954.1783   6   7   0.1156   0.0950   0.2145  -0.0302  -0.0220  -0.0480   0.00    0.0
2026/01/15 04:17:00.000   46.877108564    7.465027871   954.1866   6   7   0.1155   0.0948   0.2142  -0.0302  -0.0220  -0.0479   0.00    0.0
2026/01/15 04:17:30.000   46.877108551    7.465027836   954.1946   6   7   0.1154   0.0947   0.2138  -0.0301  -0.0219  -0.0478   0.00    0.0
2026/01/15 04:18:00.000   46.877108539    7.465027805   954.2028   6   7   0.1153   0.0946   0.2134  -0.0301  -0.0219  -0.0477   0.00    0.0
2026/01/15 04:18:30.000   46.877108525    7.465027775   954.2109   6   7   0.1152   0.0945   0.2131  -0.0300  -0.0219  -0.0476   0.00    0.0
2026/01/15 04:19:00.000   46.877108511    7.465027743   954.2187   6   7   0.1150   0.0944   0.2127  -0.0300  -0.0219  -0.0476   0.00    0.0
2026/01/15 04:19:30.000   46.877108497    7.465027713   954.2267   6   7   0.1149   0.0943   0.2124  -0.0299  -0.0219  -0.0475   0.00    0.0
2026/01/15 04:20:00.000   46.877108482    7.465027684   954.2344   6   7   0.1148   0.0942   0.2120  -0.0299  -0.0219  -0.0474   0.00    0.0
2026/01/15 04:20:30.000   46.877108468    7.465027656   954.2418   6   7   0.1147   0.0940   0.2117  -0.0298  -0.0218  -0.0473   0.00    0.0
2026/01/15 04:21:00.000   46.877108454    7.465027625   954.2495   6   7   0.1146   0.0939   0.2113  -0.0298  -0.0218  -0.0473   0.00    0.0
2026/01/15 04:21:30.000   46.877108439    7.465027591   954.2574   6   7   0.1145   0.0938   0.2109  -0.0297  -0.0218  -0.0472   0.00    0.0
2026/01/15 04:22:00.000   46.877108425    7.465027554   954.2656   6   7   0.1143   0.0937   0.2106  -0.0297  -0.0218  -0.0472   0.00    0.0
2026/01/15 04:22:30.000   46.877108411    7.465027519   954.2737   6   7   0.1142   0.0936   0.2102  -0.0296  -0.0217  -0.0471   0.00    0.0
2026/01/15 04:23:00.000   46.877108398    7.465027485   954.2817   6   7   0.1141   0.0935   0.2099  -0.0296  -0.0217  -0.0470   0.00    0.0
2026/01/15 04:23:30.000   46.877108385    7.465027452   954.2897   6   7   0.1140   0.0934   0.2095  -0.0295  -0.0216  -0.0470   0.00    0.0
2026/01/15 04:24:00.000   46.877108372    7.465027420   954.2976   6   7   0.1139   0.0933   0.2091  -0.0295  -0.0216  -0.0469   0.00    0.0
2026/01/15 04:24:30.000   46.877108359    7.465027391   954.3053   6   7   0.1138   0.0932   0.2088  -0.0294  -0.0216  -0.0469   0.00    0.0
2026/01/15 04:25:00.000   46.877108345    7.465027364   954.3126   6   7   0.1136   0.0931   0.2084  -0.0294  -0.0215  -0.0468   0.00    0.0
2026/01/15 04:25:30.000   46.877108326    7.465027340   954.3189   6   8   0.1135   0.0929   0.2080  -0.0293  -0.0214  -0.0469   0.00    0.0
2026/01/15 04:26:00.000   46.877108306    7.465027316   954.3255   6   8   0.1134   0.0928   0.2076  -0.0292  -0.0213  -0.0469   0.00    0.0
2026/01/15 04:26:30.000   46.877108286    7.465027289   954.3323   6   8   0.1132   0.0927   0.2072  -0.0292  -0.0211  -0.0470   0.00    0.0
2026/01/15 04:27:00.000   46.877108265    7.465027261   954.3395   6   8   0.1131   0.0926   0.2068  -0.0291  -0.0210  -0.0470   0.00    0.0
2026/01/15 04:27:30.000   46.877108244    7.465027231   954.3466   6   8   0.1130   0.0925   0.2064  -0.0290  -0.0209  -0.0471   0.00    0.0
2026/01/15 04:28:00.000   46.877108222    7.465027201   954.3536   6   8   0.1128   0.0924   0.2061  -0.0289  -0.0207  -0.0471   0.00    0.0
2026/01/15 04:28:30.000   46.877108200    7.465027171   954.3604   6   8   0.1127   0.0923   0.2057  -0.0288  -0.0206  -0.0472   0.00    0.0
2026/01/15 04:29:00.000   46.877108178    7.465027145   954.3666   6   8   0.1125   0.0922   0.2053  -0.0288  -0.0204  -0.0472   0.00    0.0
2026/01/15 04:29:30.000   46.877108157    7.465027122   954.3722   6   8   0.1124   0.0921   0.2049  -0.0287  -0.0203  -0.0473   0.00    0.0
