% program   : RTKLIB ver.EX 2.5.0
% inp file  : C:\PPP_PROJECT\RTKLIB_work\runs\ZIM2_1A_20260508_102536\ZIM200CHE_R_20260150000_01D_30S_MO.rnx
% inp file  : C:\PPP_PROJECT\RTKLIB_work\runs\ZIM2_1A_20260508_102536\BRDC00IGS_R_20260150000_01D_MN.rnx
% inp file  : C:\PPP_PROJECT\RTKLIB_work\runs\ZIM2_1A_20260508_102536
% inp file  : C:\PPP_PROJECT\RTKLIB_work\runs\ZIM2_1A_20260508_102536
% inp file  : C:\PPP_PROJECT\RTKLIB_work\runs\ZIM2_1A_20260508_102536
% inp file  : C:\PPP_PROJECT\RTKLIB_work\runs\ZIM2_1A_20260508_102536
% obs start : 2026/01/15 00:00:00.0 GPST (week2401 345600.0s)
% obs end   : 2026/01/15 23:59:30.0 GPST (week2401 431970.0s)
% pos mode  : PPP Static
% freqs     : L1+L2/E5b
% solution  : Forward
% elev mask : 15.0 deg
% dynamics  : on
% tidecorr  :
% ionos opt : Broadcast
% tropo opt : Saastamoinen
% ephemeris : Broadcast
% navi sys  : GPS
% antenna1  :                       ( 0.0000  0.0000  0.0000)
%
% (lat/lon/height=WGS84/ellipsoidal,Q=1:fix,2:float,3:sbas,4:dgps,5:single,6:ppp,ns=# of satellites)
%  GPST                  latitude(deg) longitude(deg)  height(m)   Q  ns   sdn(m)   sde(m)   sdu(m)  sdne(m)  sdeu(m)  sdun(m) age(s)  ratio
2026/01/15 03:27:30.000   46.877111765    7.465031719   949.7589   6   4   0.1038   0.0811   0.2114  -0.0230  -0.0316  -0.0388   0.00    0.0
2026/01/15 08:54:00.000   46.877104056    7.465029550   953.3771   6   5   0.0649   0.0492   0.1293   0.0018  -0.0185  -0.0260   0.00    0.0
2026/01/15 08:54:30.000   46.877104028    7.465029585   953.3769   6   5   0.0649   0.0492   0.1292   0.0016  -0.0184  -0.0259   0.00    0.0
2026/01/15 08:55:00.000   46.877104001    7.465029621   953.3766   6   6   0.0648   0.0492   0.1291   0.0015  -0.0184  -0.0258   0.00    0.0
2026/01/15 09:05:30.000   46.877103464    7.465030320   953.3688   6   4   0.0641   0.0487   0.1282  -0.0019  -0.0180  -0.0246   0.00    0.0
2026/01/15 09:06:00.000   46.877103442    7.465030353   953.3683   6   4   0.0641   0.0487   0.1281  -0.0020  -0.0180  -0.0245   0.00    0.0
2026/01/15 09:09:30.000   46.877103292    7.465030568   953.3647   6   6   0.0639   0.0485   0.1278  -0.0025  -0.0179  -0.0242   0.00    0.0
2026/01/15 09:10:00.000   46.877103271    7.465030596   953.3640   6   6   0.0638   0.0485   0.1277  -0.0026  -0.0179  -0.0242   0.00    0.0
2026/01/15 09:10:30.000   46.877103252    7.465030625   953.3634   6   6   0.0638   0.0485   0.1277  -0.0027  -0.0179  -0.0241   0.00    0.0
2026/01/15 09:11:00.000   46.877103232    7.465030654   953.3629   6   6   0.0638   0.0484   0.1276  -0.0027  -0.0179  -0.0241   0.00    0.0
2026/01/15 09:11:30.000   46.877103212    7.465030683   953.3624   6   6   0.0637   0.0484   0.1276  -0.0028  -0.0178  -0.0240   0.00    0.0
2026/01/15 09:12:00.000   46.877103193    7.465030711   953.3618   6   6   0.0637   0.0484   0.1275  -0.0029  -0.0178  -0.0240   0.00    0.0
2026/01/15 09:12:30.000   46.877103174    7.465030740   953.3612   6   4   0.0637   0.0484   0.1275  -0.0029  -0.0178  -0.0239   0.00    0.0
2026/01/15 09:13:30.000   46.877103138    7.465030796   953.3601   6   6   0.0636   0.0483   0.1274  -0.0031  -0.0178  -0.0238   0.00    0.0
2026/01/15 09:14:00.000   46.877103120    7.465030823   953.3596   6   5   0.0636   0.0483   0.1273  -0.0031  -0.0178  -0.0238   0.00    0.0
2026/01/15 09:14:30.000   46.877103102    7.465030849   953.3591   6   4   0.0636   0.0483   0.1273  -0.0032  -0.0177  -0.0238   0.00    0.0
2026/01/15 09:15:00.000   46.877103084    7.465030876   953.3586   6   5   0.0635   0.0483   0.1272  -0.0033  -0.0177  -0.0237   0.00    0.0
2026/01/15 09:15:30.000   46.877103066    7.465030903   953.3582   6   6   0.0635   0.0482   0.1272  -0.0033  -0.0177  -0.0237   0.00    0.0
2026/01/15 09:16:00.000   46.877103049    7.465030929   953.3578   6   6   0.0635   0.0482   0.1271  -0.0034  -0.0177  -0.0236   0.00    0.0
2026/01/15 09:16:30.000   46.877103031    7.465030955   953.3576   6   5   0.0635   0.0482   0.1271  -0.0035  -0.0177  -0.0236   0.00    0.0
2026/01/15 09:17:00.000   46.877103014    7.465030980   953.3573   6   6   0.0634   0.0482   0.1270  -0.0035  -0.0177  -0.0236   0.00    0.0
2026/01/15 09:17:30.000   46.877102997    7.465031005   953.3569   6   6   0.0634   0.0482   0.1270  -0.0036  -0.0176  -0.0235   0.00    0.0
2026/01/15 09:18:00.000   46.877102980    7.465031030   953.3565   6   6   0.0634   0.0481   0.1269  -0.0037  -0.0176  -0.0235   0.00    0.0
2026/01/15 09:18:30.000   46.877102964    7.465031056   953.3564   6   4   0.0633   0.0481   0.1269  -0.0037  -0.0176  -0.0234   0.00    0.0
2026/01/15 09:19:00.000   46.877102948    7.465031083   953.3563   6   4   0.0633   0.0481   0.1268  -0.0038  -0.0176  -0.0234   0.00    0.0
2026/01/15 09:19:30.000   46.877102932    7.465031109   953.3561   6   4   0.0633   0.0481   0.1268  -0.0038  -0.0176  -0.0234   0.00    0.0
2026/01/15 09:20:00.000   46.877102915    7.465031135   953.3560   6   4   0.0633   0.0481   0.1267  -0.0039  -0.0176  -0.0233   0.00    0.0
2026/01/15 09:20:30.000   46.877102899    7.465031162   953.3559   6   4   0.0632   0.0480   0.1266  -0.0040  -0.0175  -0.0233   0.00    0.0
2026/01/15 09:21:00.000   46.877102884    7.465031188   953.3558   6   4   0.0632   0.0480   0.1266  -0.0040  -0.0175  -0.0232   0.00    0.0
2026/01/15 09:21:30.000   46.877102868    7.465031214   953.3556   6   5   0.0632   0.0480   0.1265  -0.0041  -0.0175  -0.0232   0.00    0.0
2026/01/15 09:22:00.000   46.877102852    7.465031240   953.3556   6   5   0.0631   0.0480   0.1265  -0.0041  -0.0175  -0.0232   0.00    0.0
2026/01/15 09:22:30.000   46.877102837    7.465031266   953.3556   6   5   0.0631   0.0480   0.1264  -0.0042  -0.0175  -0.0231   0.00    0.0
2026/01/15 09:23:00.000   46.877102821    7.465031291   953.3556   6   5   0.0631   0.0479   0.1264  -0.0042  -0.0175  -0.0231   0.00    0.0
2026/01/15 09:23:30.000   46.877102806    7.465031315   953.3557   6   5   0.0631   0.0479   0.1263  -0.0043  -0.0175  -0.0231   0.00    0.0
2026/01/15 09:24:00.000   46.877102791    7.465031339   953.3558   6   4   0.0630   0.0479   0.1262  -0.0043  -0.0174  -0.0230   0.00    0.0
2026/01/15 09:24:30.000   46.877102777    7.465031363   953.3558   6   5   0.0630   0.0479   0.1262  -0.0044  -0.0174  -0.0230   0.00    0.0
2026/01/15 09:25:00.000   46.877102762    7.465031387   953.3559   6   5   0.0630   0.0479   0.1261  -0.0045  -0.0174  -0.0230   0.00    0.0
2026/01/15 09:25:30.000   46.877102748    7.465031411   953.3560   6   5   0.0630   0.0479   0.1261  -0.0045  -0.0174  -0.0229   0.00    0.0
2026/01/15 09:26:00.000   46.877102735    7.465031436   953.3560   6   5   0.0629   0.0478   0.1260  -0.0046  -0.0174  -0.0229   0.00    0.0
2026/01/15 09:26:30.000   46.877102723    7.465031460   953.3558   6   5   0.0629   0.0478   0.1260  -0.0046  -0.0174  -0.0229   0.00    0.0
2026/01/15 09:27:00.000   46.877102711    7.465031485   953.3558   6   5   0.0629   0.0478   0.1259  -0.0047  -0.0173  -0.0228   0.00    0.0
2026/01/15 09:27:30.000   46.877102698    7.465031510   953.3560   6   5   0.0629   0.0478   0.1258  -0.0047  -0.0173  -0.0228   0.00    0.0
2026/01/15 09:28:00.000   46.877102685    7.465031533   953.3561   6   5   0.0628   0.0478   0.1258  -0.0048  -0.0173  -0.0228   0.00    0.0
2026/01/15 09:28:30.000   46.877102673    7.465031557   953.3561   6   5   0.0628   0.0477   0.1257  -0.0048  -0.0173  -0.0227   0.00    0.0
2026/01/15 09:31:00.000   46.877102641    7.465031722   953.3687   6   4   0.0627   0.0477   0.1254  -0.0052  -0.0173  -0.0226   0.00    0.0
2026/01/15 09:31:30.000   46.877102636    7.465031755   953.3711   6   5   0.0627   0.0476   0.1253  -0.0052  -0.0173  -0.0226   0.00    0.0
2026/01/15 09:32:00.000   46.877102632    7.465031789   953.3736   6   5   0.0626   0.0476   0.1252  -0.0053  -0.0173  -0.0226   0.00    0.0
2026/01/15 09:32:30.000   46.877102628    7.465031822   953.3760   6   5   0.0626   0.0476   0.1252  -0.0053  -0.0173  -0.0226   0.00    0.0
2026/01/15 09:33:00.000   46.877102625    7.465031855   953.3784   6   5   0.0626   0.0476   0.1251  -0.0054  -0.0173  -0.0226   0.00    0.0
2026/01/15 09:33:30.000   46.877102622    7.465031887   953.3808   6   5   0.0626   0.0476   0.1250  -0.0055  -0.0173  -0.0226   0.00    0.0
2026/01/15 09:34:00.000   46.877102619    7.465031920   953.3832   6   5   0.0625   0.0475   0.1250  -0.0055  -0.0173  -0.0225   0.00    0.0
2026/01/15 09:34:30.000   46.877102616    7.465031953   953.3858   6   5   0.0625   0.0475   0.1249  -0.0056  -0.0173  -0.0225   0.00    0.0
2026/01/15 09:35:00.000   46.877102613    7.465031985   953.3883   6   5   0.0625   0.0475   0.1248  -0.0056  -0.0173  -0.0225   0.00    0.0
2026/01/15 09:35:30.000   46.877102611    7.465032018   953.3909   6   5   0.0625   0.0475   0.1248  -0.0057  -0.0173  -0.0225   0.00    0.0
2026/01/15 09:36:00.000   46.877102609    7.465032051   953.3938   6   4   0.0624   0.0475   0.1247  -0.0058  -0.0173  -0.0225   0.00    0.0
2026/01/15 09:36:30.000   46.877102606    7.465032084   953.3965   6   5   0.0624   0.0475   0.1246  -0.0058  -0.0173  -0.0225   0.00    0.0
2026/01/15 09:37:00.000   46.877102604    7.465032116   953.3993   6   5   0.0624   0.0474   0.1245  -0.0059  -0.0173  -0.0224   0.00    0.0
2026/01/15 09:38:00.000   46.877102596    7.465032175   953.4056   6   5   0.0623   0.0474   0.1244  -0.0059  -0.0173  -0.0224   0.00    0.0
2026/01/15 09:38:30.000   46.877102593    7.465032202   953.4083   6   5   0.0623   0.0474   0.1244  -0.0060  -0.0173  -0.0224   0.00    0.0
2026/01/15 09:39:00.000   46.877102590    7.465032230   953.4110   6   5   0.0623   0.0474   0.1243  -0.0060  -0.0173  -0.0224   0.00    0.0
2026/01/15 09:39:30.000   46.877102588    7.465032257   953.4135   6   5   0.0623   0.0474   0.1243  -0.0060  -0.0173  -0.0224   0.00    0.0
2026/01/15 09:40:00.000   46.877102587    7.465032284   953.4163   6   4   0.0623   0.0474   0.1242  -0.0061  -0.0173  -0.0224   0.00    0.0
2026/01/15 09:40:30.000   46.877102587    7.465032310   953.4191   6   4   0.0623   0.0473   0.1242  -0.0061  -0.0173  -0.0224   0.00    0.0
2026/01/15 09:41:00.000   46.877102586    7.465032336   953.4220   6   4   0.0622   0.0473   0.1241  -0.0062  -0.0174  -0.0224   0.00    0.0
2026/01/15 09:41:30.000   46.877102586    7.465032362   953.4249   6   4   0.0622   0.0473   0.1240  -0.0062  -0.0174  -0.0224   0.00    0.0
2026/01/15 09:42:00.000   46.877102585    7.465032388   953.4277   6   4   0.0622   0.0473   0.1240  -0.0062  -0.0174  -0.0223   0.00    0.0
2026/01/15 09:42:30.000   46.877102584    7.465032414   953.4306   6   4   0.0622   0.0473   0.1239  -0.0063  -0.0174  -0.0223   0.00    0.0
2026/01/15 09:43:00.000   46.877102584    7.465032440   953.4335   6   4   0.0622   0.0473   0.1239  -0.0063  -0.0174  -0.0223   0.00    0.0
2026/01/15 09:43:30.000   46.877102584    7.465032466   953.4363   6   4   0.0622   0.0473   0.1238  -0.0064  -0.0174  -0.0223   0.00    0.0
2026/01/15 09:44:00.000   46.877102584    7.465032492   953.4392   6   4   0.0621   0.0473   0.1238  -0.0064  -0.0174  -0.0223   0.00    0.0
2026/01/15 09:44:30.000   46.877102577    7.465032522   953.4438   6   4   0.0621   0.0472   0.1237  -0.0064  -0.0174  -0.0222   0.00    0.0
2026/01/15 09:45:00.000   46.877102569    7.465032552   953.4482   6   4   0.0621   0.0472   0.1237  -0.0064  -0.0174  -0.0222   0.00    0.0
2026/01/15 09:45:30.000   46.877102562    7.465032581   953.4527   6   4   0.0621   0.0472   0.1236  -0.0065  -0.0175  -0.0221   0.00    0.0
2026/01/15 09:46:00.000   46.877102555    7.465032610   953.4571   6   4   0.0620   0.0472   0.1235  -0.0065  -0.0175  -0.0221   0.00    0.0
2026/01/15 09:46:30.000   46.877102548    7.465032638   953.4613   6   4   0.0620   0.0472   0.1235  -0.0065  -0.0175  -0.0220   0.00    0.0
2026/01/15 09:47:00.000   46.877102542    7.465032667   953.4656   6   4   0.0620   0.0472   0.1234  -0.0065  -0.0175  -0.0220   0.00    0.0
2026/01/15 09:47:30.000   46.877102535    7.465032695   953.4698   6   4   0.0620   0.0472   0.1234  -0.0065  -0.0175  -0.0219   0.00    0.0
2026/01/15 09:48:00.000   46.877102530    7.465032723   953.4740   6   4   0.0620   0.0471   0.1233  -0.0066  -0.0176  -0.0219   0.00    0.0
2026/01/15 09:48:30.000   46.877102524    7.465032752   953.4782   6   4   0.0619   0.0471   0.1232  -0.0066  -0.0176  -0.0219   0.00    0.0
2026/01/15 09:49:00.000   46.877102518    7.465032780   953.4823   6   4   0.0619   0.0471   0.1232  -0.0066  -0.0176  -0.0218   0.00    0.0
2026/01/15 09:49:30.000   46.877102512    7.465032808   953.4865   6   4   0.0619   0.0471   0.1231  -0.0066  -0.0176  -0.0218   0.00    0.0
2026/01/15 09:50:00.000   46.877102506    7.465032837   953.4907   6   4   0.0619   0.0471   0.1230  -0.0066  -0.0176  -0.0217   0.00    0.0
2026/01/15 09:50:30.000   46.877102501    7.465032866   953.4948   6   4   0.0619   0.0471   0.1230  -0.0067  -0.0177  -0.0217   0.00    0.0
2026/01/15 09:51:00.000   46.877102496    7.465032894   953.4990   6   4   0.0618   0.0471   0.1229  -0.0067  -0.0177  -0.0216   0.00    0.0
2026/01/15 09:51:30.000   46.877102492    7.465032922   953.5031   6   4   0.0618   0.0471   0.1229  -0.0067  -0.0177  -0.0216   0.00    0.0
2026/01/15 09:52:00.000   46.877102487    7.465032951   953.5072   6   4   0.0618   0.0470   0.1228  -0.0067  -0.0177  -0.0215   0.00    0.0
2026/01/15 09:52:30.000   46.877102482    7.465032979   953.5113   6   4   0.0618   0.0470   0.1227  -0.0067  -0.0177  -0.0215   0.00    0.0
2026/01/15 09:53:00.000   46.877102478    7.465033006   953.5152   6   4   0.0618   0.0470   0.1227  -0.0067  -0.0178  -0.0215   0.00    0.0
2026/01/15 09:53:30.000   46.877102474    7.465033034   953.5191   6   4   0.0617   0.0470   0.1226  -0.0068  -0.0178  -0.0214   0.00    0.0
2026/01/15 09:54:00.000   46.877102470    7.465033062   953.5230   6   4   0.0617   0.0470   0.1225  -0.0068  -0.0178  -0.0214   0.00    0.0
2026/01/15 09:54:30.000   46.877102466    7.465033089   953.5270   6   4   0.0617   0.0470   0.1225  -0.0068  -0.0178  -0.0213   0.00    0.0
2026/01/15 09:55:00.000   46.877102463    7.465033117   953.5310   6   4   0.0617   0.0470   0.1224  -0.0068  -0.0178  -0.0213   0.00    0.0
2026/01/15 09:55:30.000   46.877102459    7.465033144   953.5349   6   4   0.0616   0.0470   0.1224  -0.0068  -0.0179  -0.0212   0.00    0.0
2026/01/15 09:56:00.000   46.877102456    7.465033171   953.5389   6   4   0.0616   0.0469   0.1223  -0.0068  -0.0179  -0.0212   0.00    0.0
2026/01/15 09:56:30.000   46.877102453    7.465033198   953.5428   6   4   0.0616   0.0469   0.1222  -0.0069  -0.0179  -0.0211   0.00    0.0
2026/01/15 09:57:00.000   46.877102449    7.465033225   953.5467   6   4   0.0616   0.0469   0.1222  -0.0069  -0.0179  -0.0211   0.00    0.0
2026/01/15 09:57:30.000   46.877102447    7.465033252   953.5506   6   4   0.0616   0.0469   0.1221  -0.0069  -0.0179  -0.0211   0.00    0.0
2026/01/15 09:58:00.000   46.877102445    7.465033277   953.5542   6   4   0.0615   0.0469   0.1221  -0.0069  -0.0179  -0.0210   0.00    0.0
2026/01/15 09:58:30.000   46.877102444    7.465033304   953.5579   6   4   0.0615   0.0469   0.1220  -0.0069  -0.0180  -0.0210   0.00    0.0
2026/01/15 09:59:00.000   46.877102443    7.465033330   953.5615   6   4   0.0615   0.0469   0.1219  -0.0069  -0.0180  -0.0209   0.00    0.0
2026/01/15 09:59:30.000   46.877102442    7.465033357   953.5651   6   4   0.0615   0.0469   0.1219  -0.0069  -0.0180  -0.0209   0.00    0.0
2026/01/15 10:00:00.000   46.877102442    7.465033384   953.5686   6   4   0.0615   0.0468   0.1218  -0.0070  -0.0180  -0.0209   0.00    0.0
2026/01/15 10:00:30.000   46.877102441    7.465033411   953.5722   6   4   0.0615   0.0468   0.1217  -0.0070  -0.0180  -0.0208   0.00    0.0
2026/01/15 10:01:00.000   46.877102441    7.465033438   953.5756   6   4   0.0614   0.0468   0.1217  -0.0070  -0.0180  -0.0208   0.00    0.0
2026/01/15 10:01:30.000   46.877102441    7.465033464   953.5790   6   4   0.0614   0.0468   0.1216  -0.0070  -0.0181  -0.0207   0.00    0.0
2026/01/15 10:02:00.000   46.877102441    7.465033491   953.5825   6   4   0.0614   0.0468   0.1216  -0.0070  -0.0181  -0.0207   0.00    0.0
2026/01/15 10:02:30.000   46.877102441    7.465033517   953.5861   6   4   0.0614   0.0468   0.1215  -0.0070  -0.0181  -0.0206   0.00    0.0
2026/01/15 10:03:00.000   46.877102441    7.465033543   953.5896   6   4   0.0614   0.0468   0.1214  -0.0070  -0.0181  -0.0206   0.00    0.0
2026/01/15 10:03:30.000   46.877102441    7.465033568   953.5931   6   4   0.0613   0.0468   0.1214  -0.0071  -0.0181  -0.0206   0.00    0.0
2026/01/15 10:04:00.000   46.877102441    7.465033593   953.5966   6   4   0.0613   0.0467   0.1213  -0.0071  -0.0181  -0.0205   0.00    0.0
2026/01/15 10:04:30.000   46.877102441    7.465033618   953.5999   6   4   0.0613   0.0467   0.1213  -0.0071  -0.0181  -0.0205   0.00    0.0
2026/01/15 10:05:00.000   46.877102442    7.465033643   953.6032   6   4   0.0613   0.0467   0.1212  -0.0071  -0.0182  -0.0204   0.00    0.0
2026/01/15 10:05:30.000   46.877102445    7.465033662   953.6050   6   4   0.0613   0.0467   0.1211  -0.0071  -0.0182  -0.0204   0.00    0.0
2026/01/15 10:06:00.000   46.877102448    7.465033681   953.6069   6   4   0.0612   0.0467   0.1211  -0.0071  -0.0182  -0.0204   0.00    0.0
2026/01/15 10:06:30.000   46.877102452    7.465033700   953.6088   6   4   0.0612   0.0467   0.1210  -0.0072  -0.0182  -0.0204   0.00    0.0
2026/01/15 19:43:30.000   46.877104415    7.465034636   952.8825   6   4   0.0496   0.0375   0.0954  -0.0062   0.0059  -0.0170   0.00    0.0
2026/01/15 19:44:00.000   46.877104422    7.465034611   952.8820   6   4   0.0496   0.0375   0.0954  -0.0062   0.0059  -0.0170   0.00    0.0
2026/01/15 19:44:30.000   46.877104429    7.465034586   952.8815   6   4   0.0496   0.0375   0.0954  -0.0062   0.0059  -0.0170   0.00    0.0
2026/01/15 19:45:00.000   46.877104435    7.465034561   952.8811   6   4   0.0496   0.0375   0.0954  -0.0062   0.0059  -0.0170   0.00    0.0
2026/01/15 19:45:30.000   46.877104442    7.465034537   952.8806   6   4   0.0496   0.0375   0.0953  -0.0061   0.0059  -0.0170   0.00    0.0
2026/01/15 19:46:00.000   46.877104449    7.465034512   952.8801   6   4   0.0496   0.0375   0.0953  -0.0061   0.0059  -0.0170   0.00    0.0
2026/01/15 19:46:30.000   46.877104456    7.465034488   952.8798   6   4   0.0496   0.0375   0.0953  -0.0061   0.0059  -0.0169   0.00    0.0
2026/01/15 19:47:00.000   46.877104463    7.465034464   952.8794   6   4   0.0496   0.0375   0.0953  -0.0061   0.0059  -0.0169   0.00    0.0
2026/01/15 19:47:30.000   46.877104470    7.465034439   952.8790   6   4   0.0496   0.0375   0.0953  -0.0061   0.0059  -0.0169   0.00    0.0
2026/01/15 19:48:00.000   46.877104476    7.465034415   952.8786   6   4   0.0496   0.0375   0.0952  -0.0060   0.0060  -0.0169   0.00    0.0
2026/01/15 19:48:30.000   46.877104483    7.465034391   952.8783   6   4   0.0496   0.0374   0.0952  -0.0060   0.0060  -0.0169   0.00    0.0
2026/01/15 19:49:00.000   46.877104490    7.465034367   952.8780   6   4   0.0495   0.0374   0.0952  -0.0060   0.0060  -0.0169   0.00    0.0
2026/01/15 19:49:30.000   46.877104498    7.465034343   952.8778   6   4   0.0495   0.0374   0.0952  -0.0060   0.0060  -0.0169   0.00    0.0
2026/01/15 19:50:00.000   46.877104505    7.465034319   952.8776   6   4   0.0495   0.0374   0.0952  -0.0060   0.0060  -0.0169   0.00    0.0
2026/01/15 19:50:30.000   46.877104512    7.465034295   952.8773   6   4   0.0495   0.0374   0.0951  -0.0060   0.0060  -0.0169   0.00    0.0
2026/01/15 19:51:00.000   46.877104520    7.465034271   952.8772   6   4   0.0495   0.0374   0.0951  -0.0059   0.0060  -0.0169   0.00    0.0
2026/01/15 19:51:30.000   46.877104527    7.465034247   952.8771   6   4   0.0495   0.0374   0.0951  -0.0059   0.0060  -0.0169   0.00    0.0
2026/01/15 19:52:00.000   46.877104535    7.465034222   952.8770   6   4   0.0495   0.0374   0.0951  -0.0059   0.0060  -0.0169   0.00    0.0
2026/01/15 19:52:30.000   46.877104542    7.465034197   952.8770   6   4   0.0495   0.0374   0.0951  -0.0059   0.0060  -0.0169   0.00    0.0
2026/01/15 19:53:00.000   46.877104550    7.465034172   952.8771   6   4   0.0495   0.0374   0.0950  -0.0059   0.0060  -0.0169   0.00    0.0
2026/01/15 19:53:30.000   46.877104557    7.465034147   952.8772   6   4   0.0495   0.0373   0.0950  -0.0059   0.0060  -0.0169   0.00    0.0
2026/01/15 19:54:00.000   46.877104565    7.465034122   952.8773   6   4   0.0495   0.0373   0.0950  -0.0058   0.0061  -0.0169   0.00    0.0
2026/01/15 19:54:30.000   46.877104572    7.465034096   952.8775   6   4   0.0494   0.0373   0.0950  -0.0058   0.0061  -0.0169   0.00    0.0
2026/01/15 19:55:00.000   46.877104579    7.465034071   952.8777   6   4   0.0494   0.0373   0.0950  -0.0058   0.0061  -0.0169   0.00    0.0
2026/01/15 19:55:30.000   46.877104587    7.465034046   952.8779   6   4   0.0494   0.0373   0.0949  -0.0058   0.0061  -0.0169   0.00    0.0
2026/01/15 19:56:00.000   46.877104595    7.465034021   952.8782   6   4   0.0494   0.0373   0.0949  -0.0058   0.0061  -0.0169   0.00    0.0
2026/01/15 19:56:30.000   46.877104603    7.465033996   952.8785   6   4   0.0494   0.0373   0.0949  -0.0057   0.0061  -0.0169   0.00    0.0
2026/01/15 19:57:00.000   46.877104610    7.465033972   952.8789   6   4   0.0494   0.0373   0.0949  -0.0057   0.0061  -0.0169   0.00    0.0
2026/01/15 19:57:30.000   46.877104618    7.465033947   952.8793   6   4   0.0494   0.0373   0.0949  -0.0057   0.0062  -0.0169   0.00    0.0
2026/01/15 19:58:00.000   46.877104626    7.465033923   952.8797   6   4   0.0494   0.0373   0.0948  -0.0057   0.0062  -0.0169   0.00    0.0
2026/01/15 19:58:30.000   46.877104634    7.465033899   952.8801   6   4   0.0494   0.0373   0.0948  -0.0057   0.0062  -0.0169   0.00    0.0
2026/01/15 19:59:00.000   46.877104642    7.465033874   952.8805   6   4   0.0493   0.0372   0.0948  -0.0057   0.0062  -0.0169   0.00    0.0
2026/01/15 19:59:30.000   46.877104650    7.465033850   952.8810   6   4   0.0493   0.0372   0.0948  -0.0056   0.0062  -0.0168   0.00    0.0
2026/01/15 20:00:00.000   46.877104658    7.465033826   952.8816   6   4   0.0493   0.0372   0.0948  -0.0056   0.0062  -0.0168   0.00    0.0
2026/01/15 20:00:30.000   46.877104665    7.465033802   952.8823   6   4   0.0493   0.0372   0.0947  -0.0056   0.0063  -0.0168   0.00    0.0
2026/01/15 20:01:00.000   46.877104673    7.465033778   952.8830   6   4   0.0493   0.0372   0.0947  -0.0056   0.0063  -0.0168   0.00    0.0
2026/01/15 20:01:30.000   46.877104681    7.465033754   952.8838   6   4   0.0493   0.0372   0.0947  -0.0056   0.0063  -0.0168   0.00    0.0
2026/01/15 20:02:00.000   46.877104689    7.465033730   952.8846   6   4   0.0493   0.0372   0.0947  -0.0055   0.0063  -0.0168   0.00    0.0
2026/01/15 20:02:30.000   46.877104696    7.465033706   952.8855   6   4   0.0493   0.0372   0.0947  -0.0055   0.0063  -0.0168   0.00    0.0
2026/01/15 20:03:00.000   46.877104704    7.465033682   952.8864   6   4   0.0493   0.0372   0.0947  -0.0055   0.0064  -0.0168   0.00    0.0
2026/01/15 20:03:30.000   46.877104712    7.465033659   952.8873   6   4   0.0492   0.0372   0.0946  -0.0055   0.0064  -0.0168   0.00    0.0
2026/01/15 20:04:00.000   46.877104720    7.465033635   952.8883   6   4   0.0492   0.0372   0.0946  -0.0055   0.0064  -0.0168   0.00    0.0
2026/01/15 20:04:30.000   46.877104728    7.465033612   952.8893   6   4   0.0492   0.0371   0.0946  -0.0055   0.0064  -0.0168   0.00    0.0
2026/01/15 20:05:00.000   46.877104736    7.465033588   952.8903   6   4   0.0492   0.0371   0.0946  -0.0054   0.0064  -0.0168   0.00    0.0
2026/01/15 20:05:30.000   46.877104745    7.465033565   952.8914   6   4   0.0492   0.0371   0.0946  -0.0054   0.0065  -0.0168   0.00    0.0
2026/01/15 20:06:00.000   46.877104753    7.465033542   952.8925   6   4   0.0492   0.0371   0.0945  -0.0054   0.0065  -0.0168   0.00    0.0
2026/01/15 20:06:30.000   46.877104762    7.465033519   952.8935   6   4   0.0492   0.0371   0.0945  -0.0054   0.0065  -0.0167   0.00    0.0
2026/01/15 20:07:00.000   46.877104770    7.465033496   952.8946   6   4   0.0492   0.0371   0.0945  -0.0054   0.0065  -0.0167   0.00    0.0
2026/01/15 20:07:30.000   46.877104779    7.465033472   952.8958   6   4   0.0491   0.0371   0.0945  -0.0054   0.0066  -0.0167   0.00    0.0
2026/01/15 20:08:00.000   46.877104788    7.465033449   952.8970   6   4   0.0491   0.0371   0.0945  -0.0053   0.0066  -0.0167   0.00    0.0
2026/01/15 20:08:30.000   46.877104797    7.465033427   952.8984   6   4   0.0491   0.0371   0.0944  -0.0053   0.0066  -0.0167   0.00    0.0
2026/01/15 20:09:00.000   46.877104805    7.465033404   952.8998   6   4   0.0491   0.0371   0.0944  -0.0053   0.0066  -0.0167   0.00    0.0
2026/01/15 20:09:30.000   46.877104814    7.465033381   952.9012   6   4   0.0491   0.0371   0.0944  -0.0053   0.0067  -0.0167   0.00    0.0
2026/01/15 20:10:00.000   46.877104822    7.465033357   952.9025   6   4   0.0491   0.0370   0.0944  -0.0053   0.0067  -0.0167   0.00    0.0
2026/01/15 20:10:30.000   46.877104833    7.465033332   952.9035   6   4   0.0491   0.0370   0.0944  -0.0052   0.0067  -0.0167   0.00    0.0
2026/01/15 20:11:00.000   46.877104845    7.465033307   952.9045   6   4   0.0491   0.0370   0.0943  -0.0052   0.0067  -0.0166   0.00    0.0
2026/01/15 20:11:30.000   46.877104856    7.465033282   952.9056   6   4   0.0490   0.0370   0.0943  -0.0052   0.0067  -0.0166   0.00    0.0
2026/01/15 20:12:00.000   46.877104868    7.465033256   952.9067   6   4   0.0490   0.0370   0.0943  -0.0051   0.0067  -0.0166   0.00    0.0
2026/01/15 20:12:30.000   46.877104879    7.465033230   952.9078   6   4   0.0490   0.0370   0.0943  -0.0051   0.0067  -0.0165   0.00    0.0
2026/01/15 20:13:00.000   46.877104891    7.465033205   952.9090   6   4   0.0490   0.0370   0.0942  -0.0051   0.0067  -0.0165   0.00    0.0
2026/01/15 20:13:30.000   46.877104903    7.465033180   952.9102   6   4   0.0490   0.0370   0.0942  -0.0050   0.0067  -0.0165   0.00    0.0
2026/01/15 20:14:00.000   46.877104914    7.465033155   952.9115   6   4   0.0489   0.0370   0.0942  -0.0050   0.0067  -0.0165   0.00    0.0
2026/01/15 20:14:30.000   46.877104926    7.465033130   952.9128   6   4   0.0489   0.0370   0.0942  -0.0050   0.0067  -0.0164   0.00    0.0
2026/01/15 20:15:00.000   46.877104938    7.465033105   952.9141   6   4   0.0489   0.0369   0.0941  -0.0049   0.0067  -0.0164   0.00    0.0
2026/01/15 20:15:30.000   46.877104950    7.465033081   952.9155   6   4   0.0489   0.0369   0.0941  -0.0049   0.0067  -0.0164   0.00    0.0
2026/01/15 20:16:00.000   46.877104962    7.465033057   952.9170   6   4   0.0489   0.0369   0.0941  -0.0049   0.0067  -0.0163   0.00    0.0
2026/01/15 20:16:30.000   46.877104973    7.465033033   952.9186   6   4   0.0489   0.0369   0.0940  -0.0048   0.0067  -0.0163   0.00    0.0
2026/01/15 20:17:00.000   46.877104985    7.465033009   952.9202   6   4   0.0488   0.0369   0.0940  -0.0048   0.0067  -0.0163   0.00    0.0
2026/01/15 20:17:30.000   46.877104997    7.465032985   952.9216   6   4   0.0488   0.0369   0.0940  -0.0047   0.0067  -0.0163   0.00    0.0
2026/01/15 20:18:00.000   46.877105010    7.465032960   952.9232   6   4   0.0488   0.0369   0.0940  -0.0047   0.0067  -0.0162   0.00    0.0
2026/01/15 20:18:30.000   46.877105022    7.465032935   952.9247   6   4   0.0488   0.0369   0.0939  -0.0047   0.0068  -0.0162   0.00    0.0
2026/01/15 20:19:00.000   46.877105035    7.465032911   952.9264   6   4   0.0488   0.0369   0.0939  -0.0046   0.0068  -0.0162   0.00    0.0
2026/01/15 20:19:30.000   46.877105047    7.465032887   952.9281   6   4   0.0488   0.0369   0.0939  -0.0046   0.0068  -0.0161   0.00    0.0
2026/01/15 20:20:00.000   46.877105059    7.465032864   952.9298   6   4   0.0487   0.0368   0.0939  -0.0046   0.0068  -0.0161   0.00    0.0
2026/01/15 20:20:30.000   46.877105071    7.465032840   952.9316   6   4   0.0487   0.0368   0.0938  -0.0045   0.0068  -0.0161   0.00    0.0
2026/01/15 20:21:00.000   46.877105083    7.465032816   952.9334   6   4   0.0487   0.0368   0.0938  -0.0045   0.0068  -0.0161   0.00    0.0
2026/01/15 20:21:30.000   46.877105096    7.465032792   952.9353   6   4   0.0487   0.0368   0.0938  -0.0045   0.0068  -0.0160   0.00    0.0
2026/01/15 20:22:00.000   46.877105108    7.465032768   952.9373   6   4   0.0487   0.0368   0.0937  -0.0044   0.0068  -0.0160   0.00    0.0
2026/01/15 20:22:30.000   46.877105121    7.465032744   952.9393   6   4   0.0486   0.0368   0.0937  -0.0044   0.0068  -0.0160   0.00    0.0
2026/01/15 20:23:00.000   46.877105133    7.465032720   952.9415   6   4   0.0486   0.0368   0.0937  -0.0043   0.0068  -0.0160   0.00    0.0
2026/01/15 20:23:30.000   46.877105145    7.465032697   952.9437   6   4   0.0486   0.0368   0.0937  -0.0043   0.0068  -0.0159   0.00    0.0
2026/01/15 20:24:00.000   46.877105157    7.465032674   952.9461   6   4   0.0486   0.0368   0.0936  -0.0043   0.0069  -0.0159   0.00    0.0
2026/01/15 20:24:30.000   46.877105169    7.465032651   952.9485   6   4   0.0486   0.0368   0.0936  -0.0042   0.0069  -0.0159   0.00    0.0
2026/01/15 20:25:00.000   46.877105181    7.465032628   952.9509   6   4   0.0485   0.0367   0.0936  -0.0042   0.0069  -0.0158   0.00    0.0
2026/01/15 20:25:30.000   46.877105193    7.465032605   952.9534   6   4   0.0485   0.0367   0.0936  -0.0041   0.0069  -0.0158   0.00    0.0
2026/01/15 20:26:00.000   46.877105206    7.465032582   952.9559   6   4   0.0485   0.0367   0.0935  -0.0041   0.0069  -0.0158   0.00    0.0
2026/01/15 20:26:30.000   46.877105218    7.465032559   952.9584   6   4   0.0485   0.0367   0.0935  -0.0041   0.0069  -0.0158   0.00    0.0
2026/01/15 20:27:00.000   46.877105233    7.465032539   952.9616   6   4   0.0485   0.0367   0.0935  -0.0040   0.0069  -0.0158   0.00    0.0
2026/01/15 20:27:30.000   46.877105248    7.465032519   952.9649   6   4   0.0484   0.0367   0.0934  -0.0040   0.0069  -0.0157   0.00    0.0
2026/01/15 20:28:00.000   46.877105262    7.465032499   952.9682   6   4   0.0484   0.0367   0.0934  -0.0040   0.0069  -0.0157   0.00    0.0
2026/01/15 20:28:30.000   46.877105277    7.465032479   952.9716   6   4   0.0484   0.0367   0.0934  -0.0040   0.0069  -0.0157   0.00    0.0
2026/01/15 20:29:00.000   46.877105291    7.465032460   952.9751   6   4   0.0484   0.0367   0.0933  -0.0039   0.0069  -0.0157   0.00    0.0
2026/01/15 20:29:30.000   46.877105304    7.465032441   952.9786   6   4   0.0484   0.0367   0.0933  -0.0039   0.0069  -0.0157   0.00    0.0
2026/01/15 20:30:00.000   46.877105318    7.465032422   952.9822   6   4   0.0483   0.0366   0.0933  -0.0039   0.0069  -0.0157   0.00    0.0
2026/01/15 20:30:30.000   46.877105333    7.465032403   952.9859   6   4   0.0483   0.0366   0.0932  -0.0039   0.0069  -0.0157   0.00    0.0
2026/01/15 20:31:00.000   46.877105347    7.465032384   952.9894   6   4   0.0483   0.0366   0.0932  -0.0039   0.0069  -0.0157   0.00    0.0
2026/01/15 20:31:30.000   46.877105363    7.465032365   952.9931   6   4   0.0483   0.0366   0.0932  -0.0038   0.0069  -0.0157   0.00    0.0
2026/01/15 20:32:00.000   46.877105379    7.465032346   952.9968   6   4   0.0483   0.0366   0.0931  -0.0038   0.0069  -0.0157   0.00    0.0
2026/01/15 20:32:30.000   46.877105394    7.465032327   953.0006   6   4   0.0482   0.0366   0.0931  -0.0038   0.0069  -0.0156   0.00    0.0
2026/01/15 20:33:00.000   46.877105409    7.465032309   953.0045   6   4   0.0482   0.0366   0.0931  -0.0038   0.0069  -0.0156   0.00    0.0
2026/01/15 20:33:30.000   46.877105423    7.465032290   953.0085   6   4   0.0482   0.0366   0.0930  -0.0037   0.0069  -0.0156   0.00    0.0
2026/01/15 20:34:00.000   46.877105438    7.465032271   953.0125   6   4   0.0482   0.0366   0.0930  -0.0037   0.0069  -0.0156   0.00    0.0
2026/01/15 20:34:30.000   46.877105453    7.465032253   953.0165   6   4   0.0481   0.0366   0.0930  -0.0037   0.0069  -0.0156   0.00    0.0
2026/01/15 20:35:00.000   46.877105468    7.465032234   953.0206   6   4   0.0481   0.0365   0.0929  -0.0037   0.0069  -0.0156   0.00    0.0
2026/01/15 20:35:30.000   46.877105484    7.465032216   953.0247   6   4   0.0481   0.0365   0.0929  -0.0037   0.0069  -0.0156   0.00    0.0
2026/01/15 20:36:00.000   46.877105499    7.465032197   953.0288   6   4   0.0481   0.0365   0.0929  -0.0036   0.0069  -0.0156   0.00    0.0
2026/01/15 20:36:30.000   46.877105514    7.465032179   953.0330   6   4   0.0481   0.0365   0.0928  -0.0036   0.0069  -0.0156   0.00    0.0
2026/01/15 20:37:00.000   46.877105529    7.465032161   953.0374   6   4   0.0480   0.0365   0.0928  -0.0036   0.0069  -0.0156   0.00    0.0
2026/01/15 20:37:30.000   46.877105544    7.465032143   953.0418   6   4   0.0480   0.0365   0.0928  -0.0036   0.0069  -0.0156   0.00    0.0
2026/01/15 20:38:00.000   46.877105559    7.465032125   953.0463   6   4   0.0480   0.0365   0.0927  -0.0036   0.0069  -0.0156   0.00    0.0
2026/01/15 20:38:30.000   46.877105574    7.465032108   953.0507   6   4   0.0480   0.0365   0.0927  -0.0035   0.0069  -0.0156   0.00    0.0
2026/01/15 20:39:00.000   46.877105589    7.465032091   953.0553   6   4   0.0479   0.0365   0.0927  -0.0035   0.0069  -0.0156   0.00    0.0
2026/01/15 20:39:30.000   46.877105605    7.465032073   953.0599   6   4   0.0479   0.0364   0.0926  -0.0035   0.0069  -0.0155   0.00    0.0
2026/01/15 20:40:00.000   46.877105620    7.465032056   953.0645   6   4   0.0479   0.0364   0.0926  -0.0035   0.0069  -0.0155   0.00    0.0
2026/01/15 20:40:30.000   46.877105636    7.465032039   953.0693   6   4   0.0479   0.0364   0.0925  -0.0035   0.0069  -0.0155   0.00    0.0
2026/01/15 20:41:00.000   46.877105651    7.465032022   953.0741   6   4   0.0479   0.0364   0.0925  -0.0035   0.0069  -0.0155   0.00    0.0
2026/01/15 20:41:30.000   46.877105666    7.465032006   953.0789   6   4   0.0478   0.0364   0.0925  -0.0034   0.0069  -0.0155   0.00    0.0
2026/01/15 20:42:00.000   46.877105681    7.465031989   953.0836   6   4   0.0478   0.0364   0.0924  -0.0034   0.0069  -0.0155   0.00    0.0
2026/01/15 20:42:30.000   46.877105697    7.465031972   953.0884   6   4   0.0478   0.0364   0.0924  -0.0034   0.0069  -0.0155   0.00    0.0
2026/01/15 20:43:00.000   46.877105712    7.465031956   953.0933   6   4   0.0478   0.0364   0.0924  -0.0034   0.0069  -0.0155   0.00    0.0
2026/01/15 20:43:30.000   46.877105728    7.465031939   953.0982   6   4   0.0477   0.0364   0.0923  -0.0034   0.0069  -0.0155   0.00    0.0
2026/01/15 20:44:00.000   46.877105744    7.465031923   953.1032   6   4   0.0477   0.0364   0.0923  -0.0034   0.0069  -0.0155   0.00    0.0
2026/01/15 20:44:30.000   46.877105759    7.465031907   953.1082   6   4   0.0477   0.0363   0.0923  -0.0034   0.0070  -0.0155   0.00    0.0
2026/01/15 20:45:00.000   46.877105774    7.465031890   953.1133   6   4   0.0477   0.0363   0.0922  -0.0033   0.0070  -0.0155   0.00    0.0
2026/01/15 20:45:30.000   46.877105790    7.465031874   953.1184   6   4   0.0477   0.0363   0.0922  -0.0033   0.0070  -0.0155   0.00    0.0
2026/01/15 20:46:00.000   46.877105805    7.465031859   953.1236   6   4   0.0476   0.0363   0.0922  -0.0033   0.0070  -0.0155   0.00    0.0
2026/01/15 20:46:30.000   46.877105821    7.465031843   953.1289   6   4   0.0476   0.0363   0.0921  -0.0033   0.0070  -0.0155   0.00    0.0
2026/01/15 20:47:00.000   46.877105836    7.465031828   953.1343   6   4   0.0476   0.0363   0.0921  -0.0033   0.0070  -0.0155   0.00    0.0
2026/01/15 20:47:30.000   46.877105851    7.465031813   953.1398   6   4   0.0476   0.0363   0.0920  -0.0033   0.0070  -0.0155   0.00    0.0
2026/01/15 20:48:00.000   46.877105867    7.465031797   953.1453   6   4   0.0475   0.0363   0.0920  -0.0033   0.0070  -0.0155   0.00    0.0
2026/01/15 20:48:30.000   46.877105886    7.465031780   953.1500   6   4   0.0475   0.0363   0.0920  -0.0032   0.0070  -0.0155   0.00    0.0
2026/01/15 20:49:00.000   46.877105904    7.465031762   953.1549   6   4   0.0475   0.0363   0.0919  -0.0032   0.0070  -0.0155   0.00    0.0
2026/01/15 20:49:30.000   46.877105923    7.465031745   953.1598   6   4   0.0475   0.0362   0.0919  -0.0032   0.0070  -0.0155   0.00    0.0
2026/01/15 20:50:00.000   46.877105942    7.465031728   953.1648   6   4   0.0474   0.0362   0.0918  -0.0031   0.0070  -0.0155   0.00    0.0
2026/01/15 20:50:30.000   46.877105961    7.465031710   953.1697   6   4   0.0474   0.0362   0.0918  -0.0031   0.0070  -0.0154   0.00    0.0
2026/01/15 20:51:00.000   46.877105980    7.465031693   953.1746   6   4   0.0474   0.0362   0.0918  -0.0031   0.0070  -0.0154   0.00    0.0
2026/01/15 20:51:30.000   46.877106000    7.465031676   953.1795   6   4   0.0474   0.0362   0.0917  -0.0030   0.0070  -0.0154   0.00    0.0
2026/01/15 20:52:00.000   46.877106018    7.465031659   953.1846   6   4   0.0473   0.0362   0.0917  -0.0030   0.0070  -0.0154   0.00    0.0
2026/01/15 20:52:30.000   46.877106037    7.465031643   953.1897   6   4   0.0473   0.0362   0.0916  -0.0030   0.0070  -0.0154   0.00    0.0
2026/01/15 20:53:00.000   46.877106056    7.465031626   953.1948   6   4   0.0473   0.0362   0.0916  -0.0029   0.0070  -0.0154   0.00    0.0
2026/01/15 20:53:30.000   46.877106074    7.465031610   953.1999   6   4   0.0473   0.0362   0.0915  -0.0029   0.0070  -0.0154   0.00    0.0
2026/01/15 20:54:00.000   46.877106093    7.465031593   953.2052   6   4   0.0472   0.0361   0.0915  -0.0029   0.0070  -0.0154   0.00    0.0
2026/01/15 20:54:30.000   46.877106112    7.465031577   953.2106   6   4   0.0472   0.0361   0.0915  -0.0028   0.0070  -0.0153   0.00    0.0
2026/01/15 20:55:00.000   46.877106131    7.465031561   953.2159   6   4   0.0472   0.0361   0.0914  -0.0028   0.0070  -0.0153   0.00    0.0
2026/01/15 20:55:30.000   46.877106150    7.465031545   953.2213   6   4   0.0472   0.0361   0.0914  -0.0028   0.0070  -0.0153   0.00    0.0
2026/01/15 20:56:00.000   46.877106169    7.465031530   953.2268   6   4   0.0471   0.0361   0.0913  -0.0027   0.0070  -0.0153   0.00    0.0
2026/01/15 20:56:30.000   46.877106187    7.465031515   953.2322   6   4   0.0471   0.0361   0.0913  -0.0027   0.0070  -0.0153   0.00    0.0
2026/01/15 20:57:00.000   46.877106207    7.465031499   953.2376   6   4   0.0471   0.0361   0.0913  -0.0027   0.0070  -0.0153   0.00    0.0
2026/01/15 20:57:30.000   46.877106226    7.465031483   953.2431   6   4   0.0471   0.0361   0.0912  -0.0026   0.0070  -0.0153   0.00    0.0
2026/01/15 20:58:00.000   46.877106245    7.465031467   953.2486   6   4   0.0470   0.0361   0.0912  -0.0026   0.0070  -0.0153   0.00    0.0
2026/01/15 20:58:30.000   46.877106263    7.465031451   953.2541   6   4   0.0470   0.0360   0.0911  -0.0026   0.0070  -0.0153   0.00    0.0
2026/01/15 20:59:00.000   46.877106282    7.465031435   953.2596   6   4   0.0470   0.0360   0.0911  -0.0025   0.0070  -0.0153   0.00    0.0
2026/01/15 20:59:30.000   46.877106301    7.465031420   953.2652   6   4   0.0470   0.0360   0.0910  -0.0025   0.0070  -0.0153   0.00    0.0
2026/01/15 21:00:00.000   46.877106320    7.465031404   953.2705   6   4   0.0469   0.0360   0.0910  -0.0025   0.0070  -0.0153   0.00    0.0
2026/01/15 21:00:30.000   46.877106339    7.465031387   953.2760   6   4   0.0469   0.0360   0.0909  -0.0024   0.0070  -0.0153   0.00    0.0
2026/01/15 21:01:00.000   46.877106358    7.465031371   953.2816   6   5   0.0469   0.0360   0.0909  -0.0024   0.0070  -0.0152   0.00    0.0
2026/01/15 21:01:30.000   46.877106378    7.465031355   953.2873   6   5   0.0469   0.0360   0.0909  -0.0024   0.0070  -0.0152   0.00    0.0
2026/01/15 21:02:00.000   46.877106396    7.465031339   953.2930   6   5   0.0468   0.0360   0.0908  -0.0023   0.0070  -0.0152   0.00    0.0
2026/01/15 21:02:30.000   46.877106414    7.465031323   953.2987   6   5   0.0468   0.0360   0.0908  -0.0023   0.0070  -0.0152   0.00    0.0
2026/01/15 21:03:00.000   46.877106433    7.465031307   953.3045   6   5   0.0468   0.0359   0.0907  -0.0023   0.0070  -0.0152   0.00    0.0
2026/01/15 21:03:30.000   46.877106451    7.465031291   953.3103   6   5   0.0468   0.0359   0.0907  -0.0022   0.0070  -0.0152   0.00    0.0
2026/01/15 21:04:00.000   46.877106469    7.465031276   953.3161   6   5   0.0467   0.0359   0.0906  -0.0022   0.0071  -0.0152   0.00    0.0
2026/01/15 21:04:30.000   46.877106487    7.465031260   953.3218   6   5   0.0467   0.0359   0.0906  -0.0022   0.0071  -0.0152   0.00    0.0
2026/01/15 21:05:00.000   46.877106505    7.465031244   953.3275   6   5   0.0467   0.0359   0.0906  -0.0021   0.0071  -0.0152   0.00    0.0
2026/01/15 21:05:30.000   46.877106523    7.465031228   953.3332   6   5   0.0467   0.0359   0.0905  -0.0021   0.0071  -0.0152   0.00    0.0
2026/01/15 21:06:00.000   46.877106541    7.465031213   953.3389   6   5   0.0467   0.0359   0.0905  -0.0021   0.0071  -0.0152   0.00    0.0
2026/01/15 21:06:30.000   46.877106559    7.465031197   953.3447   6   5   0.0466   0.0359   0.0904  -0.0021   0.0071  -0.0152   0.00    0.0
2026/01/15 21:07:00.000   46.877106577    7.465031182   953.3505   6   5   0.0466   0.0359   0.0904  -0.0020   0.0071  -0.0152   0.00    0.0
2026/01/15 21:07:30.000   46.877106595    7.465031167   953.3564   6   5   0.0466   0.0359   0.0903  -0.0020   0.0071  -0.0152   0.00    0.0
2026/01/15 21:08:00.000   46.877106613    7.465031152   953.3622   6   5   0.0466   0.0358   0.0903  -0.0020   0.0071  -0.0152   0.00    0.0
2026/01/15 21:08:30.000   46.877106631    7.465031137   953.3681   6   5   0.0465   0.0358   0.0902  -0.0019   0.0071  -0.0152   0.00    0.0
2026/01/15 21:09:00.000   46.877106649    7.465031123   953.3742   6   5   0.0465   0.0358   0.0902  -0.0019   0.0071  -0.0152   0.00    0.0
2026/01/15 21:09:30.000   46.877106666    7.465031109   953.3803   6   5   0.0465   0.0358   0.0901  -0.0019   0.0071  -0.0152   0.00    0.0
2026/01/15 21:10:00.000   46.877106684    7.465031095   953.3865   6   5   0.0465   0.0358   0.0901  -0.0018   0.0072  -0.0152   0.00    0.0
2026/01/15 21:10:30.000   46.877106701    7.465031081   953.3927   6   5   0.0464   0.0358   0.0901  -0.0018   0.0072  -0.0152   0.00    0.0
2026/01/15 21:11:00.000   46.877106718    7.465031067   953.3988   6   5   0.0464   0.0358   0.0900  -0.0018   0.0072  -0.0152   0.00    0.0
2026/01/15 21:11:30.000   46.877106735    7.465031053   953.4051   6   5   0.0464   0.0358   0.0900  -0.0017   0.0072  -0.0152   0.00    0.0
2026/01/15 21:12:00.000   46.877106753    7.465031039   953.4113   6   5   0.0464   0.0358   0.0899  -0.0017   0.0072  -0.0152   0.00    0.0
2026/01/15 21:12:30.000   46.877106770    7.465031025   953.4175   6   5   0.0463   0.0357   0.0899  -0.0017   0.0072  -0.0152   0.00    0.0
2026/01/15 21:13:00.000   46.877106788    7.465031011   953.4237   6   5   0.0463   0.0357   0.0898  -0.0016   0.0072  -0.0152   0.00    0.0
2026/01/15 21:13:30.000   46.877106805    7.465030998   953.4300   6   5   0.0463   0.0357   0.0898  -0.0016   0.0072  -0.0152   0.00    0.0
2026/01/15 21:14:00.000   46.877106817    7.465030986   953.4352   6   4   0.0463   0.0357   0.0897  -0.0016   0.0072  -0.0152   0.00    0.0
2026/01/15 21:14:30.000   46.877106829    7.465030975   953.4404   6   4   0.0463   0.0357   0.0897  -0.0016   0.0072  -0.0152   0.00    0.0
2026/01/15 21:15:00.000   46.877106841    7.465030964   953.4457   6   4   0.0462   0.0357   0.0897  -0.0016   0.0072  -0.0152   0.00    0.0
2026/01/15 21:15:30.000   46.877106853    7.465030953   953.4509   6   4   0.0462   0.0357   0.0896  -0.0016   0.0072  -0.0151   0.00    0.0
2026/01/15 21:16:00.000   46.877106865    7.465030943   953.4562   6   4   0.0462   0.0357   0.0896  -0.0016   0.0072  -0.0151   0.00    0.0
2026/01/15 21:52:00.000   46.877107836    7.465030642   953.7115   6   4   0.0450   0.0351   0.0872   0.0032   0.0041  -0.0149   0.00    0.0
2026/01/15 21:52:30.000   46.877107843    7.465030640   953.7158   6   4   0.0450   0.0351   0.0872   0.0033   0.0041  -0.0149   0.00    0.0
2026/01/15 21:53:00.000   46.877107850    7.465030639   953.7201   6   4   0.0450   0.0351   0.0872   0.0033   0.0041  -0.0149   0.00    0.0
2026/01/15 21:53:30.000   46.877107857    7.465030638   953.7244   6   4   0.0449   0.0350   0.0871   0.0033   0.0040  -0.0149   0.00    0.0
2026/01/15 21:54:00.000   46.877107863    7.465030638   953.7287   6   4   0.0449   0.0350   0.0871   0.0033   0.0040  -0.0149   0.00    0.0
2026/01/15 21:54:30.000   46.877107870    7.465030638   953.7331   6   4   0.0449   0.0350   0.0871   0.0034   0.0039  -0.0149   0.00    0.0
2026/01/15 21:55:00.000   46.877107876    7.465030639   953.7376   6   4   0.0449   0.0350   0.0870   0.0034   0.0039  -0.0150   0.00    0.0
2026/01/15 21:55:30.000   46.877107882    7.465030640   953.7421   6   4   0.0449   0.0350   0.0870   0.0034   0.0039  -0.0150   0.00    0.0
2026/01/15 21:56:00.000   46.877107889    7.465030641   953.7465   6   4   0.0449   0.0350   0.0869   0.0034   0.0039  -0.0150   0.00    0.0
2026/01/15 21:56:30.000   46.877107895    7.465030642   953.7509   6   4   0.0448   0.0350   0.0869   0.0034   0.0039  -0.0150   0.00    0.0
2026/01/15 21:57:00.000   46.877107902    7.465030643   953.7553   6   4   0.0448   0.0350   0.0869   0.0035   0.0039  -0.0150   0.00    0.0
2026/01/15 21:57:30.000   46.877107908    7.465030643   953.7596   6   4   0.0448   0.0350   0.0868   0.0035   0.0039  -0.0150   0.00    0.0
2026/01/15 21:58:00.000   46.877107914    7.465030643   953.7640   6   4   0.0448   0.0350   0.0868   0.0035   0.0038  -0.0150   0.00    0.0
2026/01/15 21:58:30.000   46.877107919    7.465030643   953.7685   6   4   0.0448   0.0350   0.0868   0.0035   0.0038  -0.0150   0.00    0.0
2026/01/15 21:59:00.000   46.877107925    7.465030643   953.7730   6   4   0.0448   0.0350   0.0867   0.0035   0.0038  -0.0150   0.00    0.0
2026/01/15 21:59:30.000   46.877107930    7.465030643   953.7775   6   4   0.0447   0.0350   0.0867   0.0036   0.0038  -0.0150   0.00    0.0
2026/01/15 22:00:00.000   46.877107936    7.465030644   953.7821   6   4   0.0447   0.0350   0.0867   0.0036   0.0038  -0.0150   0.00    0.0
2026/01/15 22:00:30.000   46.877107941    7.465030645   953.7866   6   4   0.0447   0.0350   0.0866   0.0036   0.0038  -0.0150   0.00    0.0
2026/01/15 22:01:00.000   46.877107946    7.465030647   953.7911   6   4   0.0447   0.0349   0.0866   0.0036   0.0038  -0.0150   0.00    0.0
2026/01/15 22:01:30.000   46.877107950    7.465030648   953.7956   6   4   0.0447   0.0349   0.0865   0.0036   0.0037  -0.0150   0.00    0.0
2026/01/15 22:02:00.000   46.877107955    7.465030650   953.8001   6   4   0.0447   0.0349   0.0865   0.0037   0.0037  -0.0150   0.00    0.0
2026/01/15 22:02:30.000   46.877107959    7.465030652   953.8046   6   4   0.0447   0.0349   0.0865   0.0037   0.0037  -0.0150   0.00    0.0
2026/01/15 22:03:00.000   46.877107963    7.465030653   953.8091   6   4   0.0446   0.0349   0.0864   0.0037   0.0037  -0.0150   0.00    0.0
2026/01/15 22:03:30.000   46.877107967    7.465030655   953.8136   6   4   0.0446   0.0349   0.0864   0.0037   0.0037  -0.0150   0.00    0.0
2026/01/15 22:04:00.000   46.877107970    7.465030656   953.8182   6   4   0.0446   0.0349   0.0863   0.0037   0.0037  -0.0150   0.00    0.0
2026/01/15 22:04:30.000   46.877107973    7.465030658   953.8229   6   4   0.0446   0.0349   0.0863   0.0037   0.0037  -0.0151   0.00    0.0
2026/01/15 22:05:00.000   46.877107976    7.465030659   953.8275   6   5   0.0446   0.0349   0.0863   0.0038   0.0036  -0.0151   0.00    0.0
2026/01/15 22:05:30.000   46.877107979    7.465030661   953.8322   6   5   0.0446   0.0349   0.0862   0.0038   0.0036  -0.0151   0.00    0.0
2026/01/15 22:06:00.000   46.877107981    7.465030663   953.8369   6   5   0.0445   0.0349   0.0862   0.0038   0.0036  -0.0151   0.00    0.0
2026/01/15 22:06:30.000   46.877107983    7.465030665   953.8416   6   5   0.0445   0.0349   0.0861   0.0038   0.0036  -0.0151   0.00    0.0
2026/01/15 22:07:00.000   46.877107985    7.465030666   953.8462   6   5   0.0445   0.0349   0.0861   0.0038   0.0036  -0.0151   0.00    0.0
2026/01/15 22:07:30.000   46.877107987    7.465030668   953.8508   6   5   0.0445   0.0349   0.0860   0.0038   0.0036  -0.0152   0.00    0.0
2026/01/15 22:08:00.000   46.877107988    7.465030669   953.8554   6   5   0.0445   0.0349   0.0860   0.0039   0.0036  -0.0152   0.00    0.0
2026/01/15 22:08:30.000   46.877107990    7.465030671   953.8601   6   5   0.0445   0.0348   0.0860   0.0039   0.0035  -0.0152   0.00    0.0
2026/01/15 22:09:00.000   46.877107991    7.465030673   953.8647   6   5   0.0444   0.0348   0.0859   0.0039   0.0035  -0.0152   0.00    0.0
2026/01/15 22:09:30.000   46.877107993    7.465030675   953.8695   6   5   0.0444   0.0348   0.0859   0.0039   0.0035  -0.0152   0.00    0.0
2026/01/15 22:10:00.000   46.877107994    7.465030677   953.8742   6   5   0.0444   0.0348   0.0858   0.0039   0.0035  -0.0152   0.00    0.0
2026/01/15 22:10:30.000   46.877107995    7.465030680   953.8787   6   5   0.0444   0.0348   0.0858   0.0039   0.0035  -0.0153   0.00    0.0
2026/01/15 22:11:00.000   46.877107995    7.465030683   953.8834   6   5   0.0444   0.0348   0.0857   0.0040   0.0035  -0.0153   0.00    0.0
2026/01/15 22:11:30.000   46.877107996    7.465030686   953.8881   6   5   0.0444   0.0348   0.0857   0.0040   0.0035  -0.0153   0.00    0.0
2026/01/15 22:12:00.000   46.877107997    7.465030688   953.8927   6   5   0.0443   0.0348   0.0857   0.0040   0.0034  -0.0153   0.00    0.0
2026/01/15 22:12:30.000   46.877107998    7.465030691   953.8974   6   5   0.0443   0.0348   0.0856   0.0040   0.0034  -0.0153   0.00    0.0
2026/01/15 22:13:00.000   46.877107999    7.465030694   953.9021   6   5   0.0443   0.0348   0.0856   0.0040   0.0034  -0.0154   0.00    0.0
2026/01/15 22:13:30.000   46.877107999    7.465030697   953.9068   6   5   0.0443   0.0348   0.0855   0.0040   0.0034  -0.0154   0.00    0.0
2026/01/15 22:14:00.000   46.877107999    7.465030700   953.9115   6   5   0.0443   0.0348   0.0855   0.0040   0.0034  -0.0154   0.00    0.0
2026/01/15 22:14:30.000   46.877107999    7.465030703   953.9161   6   5   0.0443   0.0348   0.0854   0.0041   0.0034  -0.0154   0.00    0.0
2026/01/15 22:15:00.000   46.877107991    7.465030708   953.9190   6   4   0.0442   0.0348   0.0854   0.0041   0.0033  -0.0154   0.00    0.0
2026/01/15 22:15:30.000   46.877107983    7.465030713   953.9216   6   4   0.0442   0.0348   0.0854   0.0041   0.0033  -0.0154   0.00    0.0
2026/01/15 22:16:00.000   46.877107974    7.465030721   953.9248   6   4   0.0442   0.0348   0.0854   0.0041   0.0033  -0.0153   0.00    0.0
2026/01/15 22:16:30.000   46.877107965    7.465030728   953.9280   6   4   0.0442   0.0347   0.0853   0.0041   0.0033  -0.0153   0.00    0.0
2026/01/15 22:17:00.000   46.877107956    7.465030736   953.9311   6   4   0.0442   0.0347   0.0853   0.0041   0.0033  -0.0153   0.00    0.0
2026/01/15 22:17:30.000   46.877107946    7.465030744   953.9343   6   4   0.0442   0.0347   0.0853   0.0041   0.0033  -0.0153   0.00    0.0
2026/01/15 22:18:00.000   46.877107937    7.465030752   953.9375   6   4   0.0442   0.0347   0.0853   0.0041   0.0033  -0.0153   0.00    0.0
2026/01/15 22:18:30.000   46.877107927    7.465030759   953.9408   6   4   0.0442   0.0347   0.0852   0.0041   0.0033  -0.0153   0.00    0.0
2026/01/15 22:19:00.000   46.877107917    7.465030767   953.9439   6   4   0.0442   0.0347   0.0852   0.0041   0.0033  -0.0152   0.00    0.0
2026/01/15 22:19:30.000   46.877107908    7.465030775   953.9471   6   4   0.0441   0.0347   0.0852   0.0041   0.0033  -0.0152   0.00    0.0
2026/01/15 22:20:00.000   46.877107898    7.465030783   953.9502   6   4   0.0441   0.0347   0.0852   0.0041   0.0033  -0.0152   0.00    0.0
2026/01/15 22:20:30.000   46.877107889    7.465030791   953.9533   6   4   0.0441   0.0347   0.0851   0.0041   0.0033  -0.0152   0.00    0.0
2026/01/15 22:21:00.000   46.877107879    7.465030799   953.9564   6   4   0.0441   0.0347   0.0851   0.0041   0.0033  -0.0152   0.00    0.0
2026/01/15 22:21:30.000   46.877107872    7.465030805   953.9589   6   4   0.0441   0.0347   0.0851   0.0041   0.0033  -0.0151   0.00    0.0
2026/01/15 22:22:00.000   46.877107865    7.465030811   953.9613   6   4   0.0441   0.0347   0.0850   0.0041   0.0032  -0.0151   0.00    0.0
2026/01/15 22:22:30.000   46.877107857    7.465030816   953.9637   6   4   0.0441   0.0347   0.0850   0.0041   0.0032  -0.0151   0.00    0.0
2026/01/15 22:23:00.000   46.877107850    7.465030822   953.9661   6   4   0.0441   0.0347   0.0850   0.0042   0.0032  -0.0151   0.00    0.0
2026/01/15 22:23:30.000   46.877107842    7.465030828   953.9686   6   4   0.0440   0.0347   0.0850   0.0042   0.0031  -0.0150   0.00    0.0
2026/01/15 22:24:00.000   46.877107835    7.465030833   953.9710   6   4   0.0440   0.0347   0.0849   0.0042   0.0031  -0.0150   0.00    0.0
2026/01/15 22:24:30.000   46.877107828    7.465030838   953.9734   6   4   0.0440   0.0347   0.0849   0.0042   0.0031  -0.0150   0.00    0.0
2026/01/15 22:25:00.000   46.877107820    7.465030844   953.9757   6   4   0.0440   0.0347   0.0849   0.0042   0.0031  -0.0149   0.00    0.0
2026/01/15 22:25:30.000   46.877107813    7.465030851   953.9777   6   4   0.0440   0.0347   0.0848   0.0042   0.0031  -0.0149   0.00    0.0
2026/01/15 22:26:00.000   46.877107806    7.465030859   953.9797   6   4   0.0440   0.0347   0.0848   0.0042   0.0031  -0.0149   0.00    0.0
2026/01/15 22:26:30.000   46.877107799    7.465030866   953.9818   6   4   0.0440   0.0346   0.0848   0.0042   0.0031  -0.0148   0.00    0.0
2026/01/15 22:27:00.000   46.877107791    7.465030874   953.9838   6   4   0.0440   0.0346   0.0847   0.0043   0.0031  -0.0148   0.00    0.0
2026/01/15 22:27:30.000   46.877107784    7.465030881   953.9858   6   4   0.0439   0.0346   0.0847   0.0043   0.0031  -0.0148   0.00    0.0
2026/01/15 22:28:00.000   46.877107777    7.465030888   953.9878   6   4   0.0439   0.0346   0.0847   0.0043   0.0031  -0.0147   0.00    0.0
2026/01/15 22:28:30.000   46.877107771    7.465030895   953.9897   6   4   0.0439   0.0346   0.0846   0.0043   0.0032  -0.0147   0.00    0.0
2026/01/15 22:29:00.000   46.877107764    7.465030902   953.9917   6   4   0.0439   0.0346   0.0846   0.0043   0.0032  -0.0147   0.00    0.0
2026/01/15 22:29:30.000   46.877107757    7.465030909   953.9937   6   4   0.0439   0.0346   0.0846   0.0043   0.0032  -0.0146   0.00    0.0
2026/01/15 22:30:00.000   46.877107749    7.465030917   953.9956   6   4   0.0439   0.0346   0.0845   0.0043   0.0032  -0.0146   0.00    0.0
2026/01/15 22:30:30.000   46.877107742    7.465030924   953.9976   6   4   0.0439   0.0346   0.0845   0.0044   0.0032  -0.0146   0.00    0.0
2026/01/15 22:31:00.000   46.877107735    7.465030931   953.9995   6   4   0.0438   0.0346   0.0845   0.0044   0.0032  -0.0145   0.00    0.0
2026/01/15 22:31:30.000   46.877107727    7.465030939   954.0014   6   4   0.0438   0.0346   0.0844   0.0044   0.0032  -0.0145   0.00    0.0
2026/01/15 22:32:00.000   46.877107720    7.465030946   954.0032   6   4   0.0438   0.0346   0.0844   0.0044   0.0033  -0.0145   0.00    0.0
2026/01/15 22:32:30.000   46.877107713    7.465030954   954.0050   6   4   0.0438   0.0346   0.0844   0.0044   0.0033  -0.0144   0.00    0.0
2026/01/15 22:33:00.000   46.877107706    7.465030962   954.0067   6   4   0.0438   0.0346   0.0843   0.0044   0.0033  -0.0144   0.00    0.0
2026/01/15 22:33:30.000   46.877107699    7.465030970   954.0084   6   4   0.0438   0.0345   0.0843   0.0044   0.0033  -0.0144   0.00    0.0
2026/01/15 22:34:00.000   46.877107692    7.465030979   954.0101   6   4   0.0438   0.0345   0.0843   0.0045   0.0033  -0.0143   0.00    0.0
2026/01/15 22:34:30.000   46.877107686    7.465030987   954.0118   6   4   0.0438   0.0345   0.0842   0.0045   0.0033  -0.0143   0.00    0.0
2026/01/15 22:35:00.000   46.877107679    7.465030995   954.0135   6   4   0.0437   0.0345   0.0842   0.0045   0.0033  -0.0143   0.00    0.0
2026/01/15 22:35:30.000   46.877107672    7.465031003   954.0151   6   4   0.0437   0.0345   0.0842   0.0045   0.0034  -0.0142   0.00    0.0
2026/01/15 23:42:00.000   46.877107845    7.465032267   953.8436   6   4   0.0423   0.0334   0.0814   0.0062   0.0057  -0.0127   0.00    0.0
2026/01/15 23:54:00.000   46.877107776    7.465032571   953.8154   6   4   0.0420   0.0332   0.0809   0.0062   0.0058  -0.0122   0.00    0.0
