% program   : RTKPOST ver.demo5 b34d
% inp file  : F:\gnss\GAMP_WORK\input\obs\RNXDATA\WUH200CHN_R_20260150000_01D_30S_MO.obs
% inp file  : F:\gnss\GAMP_WORK\input\nav\BRDC00IGS_R_20260150000_01D_MN.nav
% inp file  : F:\gnss\GAMP_WORK\input\DATA_FINAL_ANT_EXTRA\COD0MGXFIN_20260150000_01D_30S_CLK.CLK
% inp file  : F:\gnss\GAMP_WORK\input\DATA_FINAL_ANT_EXTRA\COD0MGXFIN_20260150000_01D_05M_ORB.SP3
% obs start : 2026/01/15 00:00:00.0 GPST (week2401 345600.0s)
% obs end   : 2026/01/15 23:59:30.0 GPST (week2401 431970.0s)
% pos mode  : PPP Static
% solution  : Combined-Phase Reset
% elev mask : 10.0 deg
% dynamics  : off
% tidecorr  : on
% tropo opt : Estimate ZTD
% ephemeris : Precise
% navi sys  : BDS
% antenna1  : JAVRINGANT_G5T  NONE  ( 0.0000  0.0000  0.1206)
%
% (lat/lon/height=WGS84/geodetic,Q=1:fix,2:float,3:sbas,4:dgps,5:single,6:ppp,ns=# of satellites)
%  GPST                  latitude(deg) longitude(deg)  height(m)   Q  ns   sdn(m)   sde(m)   sdu(m)  sdne(m)  sdeu(m)  sdun(m) age(s)  ratio
2026/01/15 00:00:00.000   30.531672482  114.357245571    51.3884   6   7   0.0057   0.0155   0.0297   0.0032  -0.0121  -0.0095   0.00    0.0
2026/01/15 00:00:30.000   30.531672482  114.357245571    51.3883   6   7   0.0057   0.0155   0.0297   0.0032  -0.0121  -0.0095   0.00    0.0
2026/01/15 00:01:00.000   30.531672482  114.357245571    51.3905   6   7   0.0057   0.0155   0.0297   0.0032  -0.0121  -0.0095   0.00    0.0
2026/01/15 00:01:30.000   30.531672477  114.357245568    51.3927   6   7   0.0057   0.0155   0.0297   0.0032  -0.0121  -0.0095   0.00    0.0
2026/01/15 00:02:00.000   30.531672474  114.357245566    51.3940   6   7   0.0057   0.0155   0.0297   0.0032  -0.0121  -0.0095   0.00    0.0
2026/01/15 00:02:30.000   30.531672472  114.357245563    51.3954   6   7   0.0057   0.0155   0.0297   0.0032  -0.0121  -0.0095   0.00    0.0
2026/01/15 00:03:00.000   30.531672471  114.357245561    51.3964   6   7   0.0057   0.0155   0.0297   0.0032  -0.0121  -0.0095   0.00    0.0
2026/01/15 00:03:30.000   30.531672469  114.357245559    51.3972   6   7   0.0057   0.0155   0.0297   0.0032  -0.0121  -0.0095   0.00    0.0
2026/01/15 00:04:30.000   30.531672464  114.357245557    51.3989   6   7   0.0057   0.0155   0.0297   0.0032  -0.0121  -0.0095   0.00    0.0
2026/01/15 00:05:30.000   30.531672469  114.357245561    51.3966   6   7   0.0057   0.0156   0.0297   0.0032  -0.0121  -0.0095   0.00    0.0
2026/01/15 00:06:30.000   30.531672469  114.357245565    51.3974   6   7   0.0057   0.0156   0.0297   0.0032  -0.0121  -0.0095   0.00    0.0
2026/01/15 00:07:30.000   30.531672467  114.357245562    51.3984   6   7   0.0057   0.0156   0.0297   0.0032  -0.0121  -0.0095   0.00    0.0
2026/01/15 00:08:00.000   30.531672466  114.357245560    51.3992   6   7   0.0057   0.0156   0.0297   0.0032  -0.0121  -0.0095   0.00    0.0
2026/01/15 00:08:30.000   30.531672466  114.357245559    51.3995   6   7   0.0057   0.0156   0.0297   0.0032  -0.0121  -0.0095   0.00    0.0
2026/01/15 00:09:30.000   30.531672465  114.357245555    51.3990   6   6   0.0057   0.0156   0.0297   0.0032  -0.0121  -0.0095   0.00    0.0
2026/01/15 00:10:00.000   30.531672469  114.357245548    51.3942   6   8   0.0057   0.0156   0.0297   0.0032  -0.0121  -0.0095   0.00    0.0
2026/01/15 00:10:30.000   30.531672474  114.357245566    51.3938   6   8   0.0057   0.0156   0.0297   0.0032  -0.0121  -0.0095   0.00    0.0
2026/01/15 00:11:30.000   30.531672467  114.357245517    51.4009   6   8   0.0057   0.0156   0.0297   0.0032  -0.0122  -0.0095   0.00    0.0
2026/01/15 00:12:00.000   30.531672465  114.357245523    51.4031   6   8   0.0057   0.0156   0.0297   0.0032  -0.0122  -0.0095   0.00    0.0
2026/01/15 00:12:30.000   30.531672464  114.357245526    51.4046   6   8   0.0057   0.0156   0.0297   0.0032  -0.0121  -0.0095   0.00    0.0
2026/01/15 00:13:00.000   30.531672464  114.357245528    51.4053   6   8   0.0057   0.0156   0.0297   0.0032  -0.0121  -0.0095   0.00    0.0
2026/01/15 00:13:30.000   30.531672463  114.357245531    51.4063   6   8   0.0057   0.0156   0.0297   0.0032  -0.0121  -0.0095   0.00    0.0
2026/01/15 00:14:00.000   30.531672463  114.357245538    51.4071   6   8   0.0057   0.0156   0.0297   0.0032  -0.0121  -0.0095   0.00    0.0
2026/01/15 00:14:30.000   30.531672464  114.357245552    51.4074   6   8   0.0057   0.0157   0.0297   0.0032  -0.0121  -0.0095   0.00    0.0
2026/01/15 00:15:00.000   30.531672480  114.357245551    51.3967   6   8   0.0057   0.0157   0.0297   0.0032  -0.0121  -0.0095   0.00    0.0
2026/01/15 00:16:00.000   30.531672479  114.357245575    51.3980   6   8   0.0057   0.0157   0.0297   0.0033  -0.0122  -0.0095   0.00    0.0
2026/01/15 00:16:30.000   30.531672476  114.357245588    51.4011   6   8   0.0057   0.0157   0.0297   0.0033  -0.0122  -0.0095   0.00    0.0
2026/01/15 00:17:00.000   30.531672475  114.357245594    51.4027   6   8   0.0057   0.0157   0.0297   0.0033  -0.0122  -0.0095   0.00    0.0
2026/01/15 00:17:30.000   30.531672474  114.357245597    51.4037   6   8   0.0057   0.0157   0.0297   0.0033  -0.0122  -0.0095   0.00    0.0
2026/01/15 00:18:00.000   30.531672474  114.357245597    51.4045   6   8   0.0057   0.0157   0.0297   0.0033  -0.0121  -0.0095   0.00    0.0
2026/01/15 00:18:30.000   30.531672474  114.357245599    51.4050   6   8   0.0057   0.0157   0.0297   0.0033  -0.0121  -0.0095   0.00    0.0
2026/01/15 00:19:00.000   30.531672475  114.357245603    51.4050   6   8   0.0057   0.0157   0.0297   0.0033  -0.0121  -0.0095   0.00    0.0
2026/01/15 00:19:30.000   30.531672479  114.357245611    51.4031   6   8   0.0057   0.0157   0.0297   0.0033  -0.0121  -0.0095   0.00    0.0
2026/01/15 00:20:30.000   30.531672496  114.357245634    51.3782   6   8   0.0057   0.0157   0.0297   0.0032  -0.0122  -0.0095   0.00    0.0
2026/01/15 00:21:30.000   30.531672500  114.357245620    51.3774   6   8   0.0057   0.0158   0.0297   0.0033  -0.0122  -0.0095   0.00    0.0
2026/01/15 00:22:00.000   30.531672500  114.357245623    51.3787   6   8   0.0057   0.0158   0.0297   0.0033  -0.0122  -0.0095   0.00    0.0
2026/01/15 00:22:30.000   30.531672499  114.357245621    51.3801   6   8   0.0057   0.0158   0.0297   0.0033  -0.0122  -0.0095   0.00    0.0
2026/01/15 00:23:30.000   30.531672498  114.357245609    51.3837   6   8   0.0057   0.0158   0.0297   0.0033  -0.0122  -0.0095   0.00    0.0
2026/01/15 00:24:30.000   30.531672506  114.357245600    51.3786   6   8   0.0057   0.0158   0.0297   0.0032  -0.0122  -0.0095   0.00    0.0
2026/01/15 00:25:00.000   30.531672537  114.357245571    51.3602   6   8   0.0057   0.0158   0.0297   0.0033  -0.0122  -0.0095   0.00    0.0
2026/01/15 00:25:30.000   30.531672557  114.357245731    51.3505   6   8   0.0057   0.0162   0.0298   0.0032  -0.0126  -0.0094   0.00    0.0
2026/01/15 00:26:00.000   30.531672564  114.357245723    51.3523   6   8   0.0057   0.0162   0.0298   0.0033  -0.0126  -0.0094   0.00    0.0
2026/01/15 00:26:30.000   30.531672563  114.357245728    51.3569   6   8   0.0057   0.0162   0.0298   0.0033  -0.0126  -0.0094   0.00    0.0
2026/01/15 00:27:00.000   30.531672562  114.357245730    51.3588   6   8   0.0057   0.0162   0.0298   0.0033  -0.0126  -0.0094   0.00    0.0
2026/01/15 00:27:30.000   30.531672562  114.357245731    51.3599   6   8   0.0057   0.0162   0.0298   0.0033  -0.0126  -0.0094   0.00    0.0
2026/01/15 00:28:00.000   30.531672562  114.357245731    51.3603   6   8   0.0057   0.0162   0.0298   0.0033  -0.0126  -0.0094   0.00    0.0
2026/01/15 00:28:30.000   30.531672563  114.357245732    51.3607   6   8   0.0057   0.0162   0.0298   0.0033  -0.0126  -0.0094   0.00    0.0
2026/01/15 00:29:30.000   30.531672574  114.357245724    51.3536   6   8   0.0057   0.0162   0.0298   0.0033  -0.0126  -0.0094   0.00    0.0
2026/01/15 00:30:00.000   30.531672605  114.357245664    51.3322   6   7   0.0057   0.0162   0.0298   0.0033  -0.0126  -0.0094   0.00    0.0
2026/01/15 00:30:30.000   30.531672614  114.357245659    51.3268   6   8   0.0057   0.0162   0.0297   0.0033  -0.0126  -0.0094   0.00    0.0
2026/01/15 00:31:00.000   30.531672621  114.357245666    51.3281   6   8   0.0057   0.0162   0.0297   0.0033  -0.0126  -0.0094   0.00    0.0
2026/01/15 00:31:30.000   30.531672621  114.357245672    51.3308   6   8   0.0057   0.0162   0.0298   0.0033  -0.0126  -0.0094   0.00    0.0
2026/01/15 00:32:00.000   30.531672621  114.357245675    51.3320   6   8   0.0057   0.0162   0.0298   0.0033  -0.0126  -0.0094   0.00    0.0
2026/01/15 00:33:00.000   30.531672621  114.357245676    51.3335   6   8   0.0057   0.0162   0.0298   0.0033  -0.0126  -0.0094   0.00    0.0
2026/01/15 00:34:00.000   30.531672626  114.357245672    51.3298   6   8   0.0057   0.0162   0.0298   0.0033  -0.0126  -0.0094   0.00    0.0
2026/01/15 00:34:30.000   30.531672635  114.357245661    51.3263   6   7   0.0057   0.0162   0.0297   0.0033  -0.0126  -0.0094   0.00    0.0
2026/01/15 00:35:00.000   30.531672670  114.357245602    51.3013   6   7   0.0057   0.0162   0.0297   0.0033  -0.0126  -0.0094   0.00    0.0
2026/01/15 00:36:00.000   30.531672681  114.357245586    51.2935   6   8   0.0057   0.0162   0.0297   0.0032  -0.0126  -0.0094   0.00    0.0
2026/01/15 00:36:30.000   30.531672680  114.357245606    51.2977   6   8   0.0057   0.0162   0.0297   0.0032  -0.0126  -0.0094   0.00    0.0
2026/01/15 00:37:00.000   30.531672680  114.357245614    51.3004   6   8   0.0057   0.0162   0.0297   0.0032  -0.0126  -0.0094   0.00    0.0
2026/01/15 00:37:30.000   30.531672679  114.357245619    51.3020   6   8   0.0057   0.0162   0.0297   0.0032  -0.0126  -0.0094   0.00    0.0
2026/01/15 00:38:00.000   30.531672679  114.357245621    51.3028   6   8   0.0057   0.0162   0.0297   0.0032  -0.0126  -0.0094   0.00    0.0
2026/01/15 00:38:30.000   30.531672680  114.357245625    51.3033   6   8   0.0057   0.0162   0.0297   0.0032  -0.0126  -0.0094   0.00    0.0
2026/01/15 00:39:00.000   30.531672682  114.357245632    51.3030   6   8   0.0057   0.0162   0.0297   0.0032  -0.0126  -0.0094   0.00    0.0
2026/01/15 00:41:00.000   30.531672726  114.357245549    51.2756   6   8   0.0057   0.0163   0.0296   0.0032  -0.0126  -0.0093   0.00    0.0
2026/01/15 00:41:30.000   30.531672725  114.357245570    51.2803   6   8   0.0057   0.0163   0.0296   0.0032  -0.0126  -0.0093   0.00    0.0
2026/01/15 00:42:00.000   30.531672724  114.357245580    51.2824   6   8   0.0057   0.0163   0.0296   0.0032  -0.0126  -0.0093   0.00    0.0
2026/01/15 00:42:30.000   30.531672724  114.357245586    51.2834   6   8   0.0057   0.0163   0.0296   0.0032  -0.0126  -0.0093   0.00    0.0
2026/01/15 00:43:00.000   30.531672724  114.357245590    51.2839   6   8   0.0057   0.0163   0.0296   0.0032  -0.0126  -0.0093   0.00    0.0
2026/01/15 00:43:30.000   30.531672725  114.357245596    51.2838   6   8   0.0057   0.0163   0.0296   0.0032  -0.0126  -0.0093   0.00    0.0
2026/01/15 00:44:00.000   30.531672726  114.357245600    51.2842   6   7   0.0057   0.0163   0.0296   0.0032  -0.0126  -0.0093   0.00    0.0
2026/01/15 00:44:30.000   30.531672733  114.357245599    51.2824   6   7   0.0057   0.0163   0.0296   0.0032  -0.0126  -0.0093   0.00    0.0
2026/01/15 00:45:00.000   30.531672765  114.357245521    51.2595   6   7   0.0057   0.0163   0.0296   0.0032  -0.0126  -0.0093   0.00    0.0
2026/01/15 00:45:30.000   30.531672771  114.357245487    51.2549   6   7   0.0057   0.0163   0.0296   0.0032  -0.0126  -0.0093   0.00    0.0
2026/01/15 00:46:00.000   30.531672775  114.357245454    51.2571   6   7   0.0057   0.0164   0.0297   0.0032  -0.0129  -0.0093   0.00    0.0
2026/01/15 00:47:00.000   30.531672772  114.357245530    51.2538   6   8   0.0057   0.0165   0.0298   0.0031  -0.0129  -0.0093   0.00    0.0
2026/01/15 00:47:30.000   30.531672772  114.357245533    51.2547   6   8   0.0057   0.0165   0.0298   0.0031  -0.0129  -0.0093   0.00    0.0
2026/01/15 00:48:00.000   30.531672772  114.357245533    51.2553   6   8   0.0057   0.0165   0.0298   0.0031  -0.0129  -0.0093   0.00    0.0
2026/01/15 00:48:30.000   30.531672772  114.357245533    51.2560   6   8   0.0057   0.0165   0.0298   0.0031  -0.0129  -0.0093   0.00    0.0
2026/01/15 00:49:30.000   30.531672780  114.357245508    51.2500   6   8   0.0057   0.0165   0.0298   0.0031  -0.0129  -0.0093   0.00    0.0
2026/01/15 00:50:30.000   30.531672783  114.357245486    51.2477   6   8   0.0057   0.0165   0.0297   0.0031  -0.0129  -0.0093   0.00    0.0
2026/01/15 00:51:00.000   30.531672782  114.357245492    51.2489   6   8   0.0057   0.0165   0.0297   0.0031  -0.0129  -0.0093   0.00    0.0
2026/01/15 00:51:30.000   30.531672782  114.357245503    51.2520   6   8   0.0057   0.0165   0.0298   0.0031  -0.0129  -0.0093   0.00    0.0
2026/01/15 00:52:00.000   30.531672781  114.357245506    51.2538   6   8   0.0057   0.0165   0.0298   0.0031  -0.0129  -0.0093   0.00    0.0
2026/01/15 00:52:30.000   30.531672782  114.357245520    51.2515   6   8   0.0057   0.0165   0.0298   0.0031  -0.0129  -0.0093   0.00    0.0
2026/01/15 00:53:00.000   30.531672782  114.357245519    51.2521   6   8   0.0057   0.0165   0.0298   0.0031  -0.0129  -0.0093   0.00    0.0
2026/01/15 00:53:30.000   30.531672783  114.357245518    51.2524   6   8   0.0057   0.0165   0.0298   0.0031  -0.0129  -0.0093   0.00    0.0
2026/01/15 00:54:00.000   30.531672784  114.357245515    51.2520   6   8   0.0057   0.0165   0.0298   0.0031  -0.0129  -0.0093   0.00    0.0
2026/01/15 00:54:30.000   30.531672791  114.357245514    51.2443   6   8   0.0057   0.0165   0.0297   0.0031  -0.0129  -0.0093   0.00    0.0
2026/01/15 00:55:00.000   30.531672811  114.357245436    51.2249   6   8   0.0057   0.0165   0.0297   0.0031  -0.0129  -0.0093   0.00    0.0
2026/01/15 00:55:30.000   30.531672815  114.357245409    51.2210   6   8   0.0057   0.0165   0.0297   0.0031  -0.0129  -0.0093   0.00    0.0
2026/01/15 00:56:00.000   30.531672814  114.357245416    51.2219   6   8   0.0057   0.0165   0.0297   0.0031  -0.0129  -0.0093   0.00    0.0
2026/01/15 00:56:30.000   30.531672813  114.357245427    51.2248   6   8   0.0057   0.0165   0.0297   0.0031  -0.0129  -0.0093   0.00    0.0
2026/01/15 00:57:00.000   30.531672812  114.357245430    51.2264   6   8   0.0057   0.0165   0.0297   0.0031  -0.0129  -0.0093   0.00    0.0
2026/01/15 00:57:30.000   30.531672811  114.357245431    51.2275   6   8   0.0057   0.0165   0.0297   0.0031  -0.0129  -0.0093   0.00    0.0
2026/01/15 00:59:00.000   30.531672812  114.357245431    51.2269   6   8   0.0057   0.0165   0.0297   0.0031  -0.0129  -0.0093   0.00    0.0
2026/01/15 00:59:30.000   30.531672816  114.357245418    51.2232   6   8   0.0057   0.0165   0.0297   0.0031  -0.0129  -0.0093   0.00    0.0
2026/01/15 01:00:00.000   30.531672828  114.357245335    51.2062   6   7   0.0056   0.0165   0.0296   0.0031  -0.0129  -0.0092   0.00    0.0
2026/01/15 01:00:30.000   30.531672832  114.357245314    51.2012   6   8   0.0056   0.0165   0.0296   0.0031  -0.0129  -0.0092   0.00    0.0
2026/01/15 01:01:00.000   30.531672831  114.357245317    51.2006   6   8   0.0056   0.0165   0.0296   0.0031  -0.0129  -0.0092   0.00    0.0
2026/01/15 01:01:30.000   30.531672831  114.357245324    51.2025   6   8   0.0056   0.0165   0.0296   0.0031  -0.0129  -0.0092   0.00    0.0
2026/01/15 01:02:00.000   30.531672830  114.357245328    51.2033   6   8   0.0056   0.0165   0.0296   0.0031  -0.0129  -0.0092   0.00    0.0
2026/01/15 01:02:30.000   30.531672830  114.357245328    51.2040   6   8   0.0056   0.0165   0.0296   0.0031  -0.0129  -0.0092   0.00    0.0
2026/01/15 01:03:00.000   30.531672830  114.357245328    51.2039   6   8   0.0056   0.0165   0.0296   0.0031  -0.0129  -0.0092   0.00    0.0
2026/01/15 01:04:00.000   30.531672830  114.357245326    51.2037   6   8   0.0056   0.0165   0.0296   0.0031  -0.0129  -0.0092   0.00    0.0
2026/01/15 01:04:30.000   30.531672832  114.357245306    51.2007   6   6   0.0056   0.0165   0.0296   0.0031  -0.0129  -0.0092   0.00    0.0
2026/01/15 01:05:00.000   30.531672838  114.357245232    51.1854   6   7   0.0056   0.0165   0.0296   0.0031  -0.0130  -0.0092   0.00    0.0
2026/01/15 01:05:30.000   30.531672836  114.357245236    51.1832   6   7   0.0056   0.0165   0.0296   0.0031  -0.0129  -0.0092   0.00    0.0
2026/01/15 01:06:00.000   30.531672837  114.357245242    51.1817   6   8   0.0056   0.0165   0.0296   0.0031  -0.0129  -0.0092   0.00    0.0
2026/01/15 01:06:30.000   30.531672835  114.357245249    51.1829   6   8   0.0056   0.0165   0.0296   0.0031  -0.0129  -0.0092   0.00    0.0
2026/01/15 01:07:30.000   30.531672834  114.357245252    51.1833   6   8   0.0056   0.0165   0.0296   0.0031  -0.0129  -0.0092   0.00    0.0
2026/01/15 01:08:00.000   30.531672834  114.357245253    51.1831   6   8   0.0056   0.0165   0.0296   0.0031  -0.0129  -0.0092   0.00    0.0
2026/01/15 01:08:30.000   30.531672834  114.357245256    51.1826   6   8   0.0056   0.0165   0.0296   0.0031  -0.0129  -0.0092   0.00    0.0
2026/01/15 01:09:00.000   30.531672834  114.357245261    51.1808   6   8   0.0056   0.0165   0.0296   0.0031  -0.0129  -0.0092   0.00    0.0
2026/01/15 01:09:30.000   30.531672833  114.357245247    51.1780   6   7   0.0056   0.0165   0.0296   0.0031  -0.0129  -0.0092   0.00    0.0
2026/01/15 01:10:00.000   30.531672830  114.357245204    51.1694   6   6   0.0056   0.0165   0.0296   0.0030  -0.0129  -0.0093   0.00    0.0
2026/01/15 01:10:30.000   30.531672826  114.357245208    51.1675   6   7   0.0056   0.0165   0.0296   0.0030  -0.0129  -0.0093   0.00    0.0
2026/01/15 01:11:00.000   30.531672826  114.357245215    51.1661   6   8   0.0056   0.0165   0.0296   0.0030  -0.0129  -0.0093   0.00    0.0
2026/01/15 01:12:30.000   30.531672825  114.357245225    51.1656   6   8   0.0056   0.0165   0.0295   0.0030  -0.0129  -0.0093   0.00    0.0
2026/01/15 01:13:00.000   30.531672825  114.357245227    51.1655   6   8   0.0056   0.0165   0.0295   0.0030  -0.0129  -0.0093   0.00    0.0
2026/01/15 01:14:30.000   30.531672820  114.357245214    51.1647   6   7   0.0056   0.0165   0.0295   0.0030  -0.0129  -0.0093   0.00    0.0
2026/01/15 01:15:00.000   30.531672818  114.357245178    51.1564   6   6   0.0056   0.0165   0.0295   0.0030  -0.0129  -0.0093   0.00    0.0
2026/01/15 01:15:30.000   30.531672813  114.357245178    51.1543   6   7   0.0056   0.0165   0.0295   0.0030  -0.0129  -0.0093   0.00    0.0
2026/01/15 01:16:00.000   30.531672807  114.357245192    51.1568   6   8   0.0056   0.0165   0.0295   0.0030  -0.0129  -0.0093   0.00    0.0
2026/01/15 01:16:30.000   30.531672804  114.357245193    51.1583   6   8   0.0056   0.0165   0.0295   0.0030  -0.0129  -0.0093   0.00    0.0
2026/01/15 01:17:00.000   30.531672802  114.357245193    51.1592   6   8   0.0056   0.0165   0.0295   0.0030  -0.0129  -0.0093   0.00    0.0
2026/01/15 01:17:30.000   30.531672801  114.357245193    51.1598   6   8   0.0056   0.0165   0.0295   0.0030  -0.0129  -0.0093   0.00    0.0
2026/01/15 01:18:00.000   30.531672800  114.357245192    51.1600   6   8   0.0056   0.0165   0.0295   0.0030  -0.0129  -0.0093   0.00    0.0
2026/01/15 01:18:30.000   30.531672800  114.357245191    51.1596   6   8   0.0056   0.0165   0.0295   0.0030  -0.0129  -0.0093   0.00    0.0
2026/01/15 01:20:00.000   30.531672795  114.357245146    51.1514   6   7   0.0056   0.0165   0.0295   0.0030  -0.0129  -0.0093   0.00    0.0
2026/01/15 01:20:30.000   30.531672790  114.357245136    51.1518   6   7   0.0056   0.0165   0.0295   0.0030  -0.0129  -0.0093   0.00    0.0
2026/01/15 01:21:00.000   30.531672783  114.357245142    51.1543   6   8   0.0056   0.0165   0.0295   0.0030  -0.0129  -0.0093   0.00    0.0
2026/01/15 01:21:30.000   30.531672781  114.357245143    51.1550   6   8   0.0056   0.0165   0.0295   0.0030  -0.0129  -0.0093   0.00    0.0
2026/01/15 01:22:00.000   30.531672779  114.357245144    51.1556   6   8   0.0056   0.0165   0.0295   0.0030  -0.0129  -0.0093   0.00    0.0
2026/01/15 01:22:30.000   30.531672779  114.357245145    51.1556   6   8   0.0056   0.0165   0.0295   0.0030  -0.0129  -0.0093   0.00    0.0
2026/01/15 01:23:00.000   30.531672778  114.357245145    51.1557   6   8   0.0056   0.0165   0.0295   0.0030  -0.0129  -0.0093   0.00    0.0
2026/01/15 01:23:30.000   30.531672776  114.357245146    51.1550   6   8   0.0056   0.0165   0.0295   0.0030  -0.0129  -0.0093   0.00    0.0
2026/01/15 01:24:00.000   30.531672774  114.357245147    51.1537   6   8   0.0056   0.0165   0.0295   0.0030  -0.0129  -0.0093   0.00    0.0
2026/01/15 01:24:30.000   30.531672773  114.357245135    51.1515   6   7   0.0056   0.0165   0.0295   0.0030  -0.0129  -0.0093   0.00    0.0
2026/01/15 01:25:00.000   30.531672772  114.357245102    51.1445   6   7   0.0056   0.0165   0.0295   0.0030  -0.0129  -0.0093   0.00    0.0
2026/01/15 01:25:30.000   30.531672767  114.357245083    51.1448   6   7   0.0056   0.0165   0.0295   0.0030  -0.0129  -0.0093   0.00    0.0
2026/01/15 01:26:00.000   30.531672760  114.357245097    51.1456   6   8   0.0056   0.0165   0.0295   0.0030  -0.0129  -0.0093   0.00    0.0
2026/01/15 01:26:30.000   30.531672757  114.357245100    51.1456   6   8   0.0056   0.0165   0.0295   0.0030  -0.0129  -0.0093   0.00    0.0
2026/01/15 01:27:30.000   30.531672756  114.357245102    51.1461   6   8   0.0056   0.0165   0.0295   0.0030  -0.0129  -0.0093   0.00    0.0
2026/01/15 01:28:00.000   30.531672755  114.357245103    51.1453   6   8   0.0056   0.0165   0.0295   0.0030  -0.0129  -0.0093   0.00    0.0
2026/01/15 01:28:30.000   30.531672753  114.357245104    51.1445   6   8   0.0056   0.0165   0.0295   0.0030  -0.0129  -0.0093   0.00    0.0
2026/01/15 01:29:00.000   30.531672753  114.357245100    51.1439   6   7   0.0056   0.0165   0.0295   0.0030  -0.0129  -0.0093   0.00    0.0
2026/01/15 01:29:30.000   30.531672753  114.357245091    51.1414   6   7   0.0056   0.0165   0.0295   0.0030  -0.0129  -0.0093   0.00    0.0
2026/01/15 01:30:00.000   30.531672753  114.357245069    51.1345   6   7   0.0056   0.0165   0.0295   0.0029  -0.0129  -0.0093   0.00    0.0
2026/01/15 01:30:30.000   30.531672750  114.357245052    51.1337   6   7   0.0056   0.0165   0.0295   0.0029  -0.0129  -0.0093   0.00    0.0
2026/01/15 01:31:00.000   30.531672748  114.357245050    51.1342   6   7   0.0056   0.0165   0.0295   0.0029  -0.0129  -0.0093   0.00    0.0
2026/01/15 01:31:30.000   30.531672748  114.357245049    51.1342   6   9   0.0056   0.0165   0.0295   0.0029  -0.0129  -0.0093   0.00    0.0
2026/01/15 01:32:00.000   30.531672747  114.357245045    51.1355   6   9   0.0056   0.0165   0.0295   0.0029  -0.0129  -0.0093   0.00    0.0
2026/01/15 01:32:30.000   30.531672746  114.357245043    51.1364   6   9   0.0056   0.0165   0.0295   0.0029  -0.0129  -0.0093   0.00    0.0
2026/01/15 01:33:00.000   30.531672747  114.357245042    51.1363   6   9   0.0056   0.0165   0.0295   0.0029  -0.0129  -0.0093   0.00    0.0
2026/01/15 01:33:30.000   30.531672746  114.357245041    51.1366   6   9   0.0056   0.0165   0.0295   0.0029  -0.0129  -0.0093   0.00    0.0
2026/01/15 01:34:00.000   30.531672746  114.357245037    51.1365   6   9   0.0056   0.0165   0.0295   0.0029  -0.0129  -0.0093   0.00    0.0
2026/01/15 01:35:00.000   30.531672746  114.357244999    51.1311   6   8   0.0056   0.0165   0.0295   0.0029  -0.0129  -0.0093   0.00    0.0
2026/01/15 01:35:30.000   30.531672741  114.357244990    51.1318   6   8   0.0056   0.0165   0.0295   0.0029  -0.0129  -0.0093   0.00    0.0
2026/01/15 01:36:00.000   30.531672740  114.357244989    51.1315   6   9   0.0056   0.0165   0.0295   0.0029  -0.0129  -0.0093   0.00    0.0
2026/01/15 01:36:30.000   30.531672738  114.357244986    51.1329   6   9   0.0056   0.0165   0.0295   0.0029  -0.0129  -0.0093   0.00    0.0
2026/01/15 01:37:00.000   30.531672737  114.357244980    51.1348   6   9   0.0056   0.0165   0.0295   0.0029  -0.0129  -0.0093   0.00    0.0
2026/01/15 01:37:30.000   30.531672736  114.357244976    51.1360   6   9   0.0056   0.0165   0.0295   0.0029  -0.0129  -0.0093   0.00    0.0
2026/01/15 01:38:00.000   30.531672735  114.357244974    51.1365   6   9   0.0056   0.0165   0.0295   0.0029  -0.0129  -0.0093   0.00    0.0
2026/01/15 01:38:30.000   30.531672734  114.357244973    51.1370   6   9   0.0056   0.0165   0.0295   0.0029  -0.0129  -0.0093   0.00    0.0
2026/01/15 01:39:00.000   30.531672734  114.357244972    51.1377   6   9   0.0056   0.0165   0.0295   0.0029  -0.0129  -0.0093   0.00    0.0
2026/01/15 01:39:30.000   30.531672734  114.357244963    51.1369   6   8   0.0057   0.0165   0.0295   0.0029  -0.0129  -0.0093   0.00    0.0
2026/01/15 01:40:30.000   30.531672736  114.357244934    51.1291   6   8   0.0057   0.0165   0.0295   0.0029  -0.0129  -0.0093   0.00    0.0
2026/01/15 01:41:30.000   30.531672733  114.357244925    51.1316   6   9   0.0057   0.0165   0.0295   0.0028  -0.0129  -0.0093   0.00    0.0
2026/01/15 01:42:00.000   30.531672732  114.357244924    51.1321   6   9   0.0057   0.0165   0.0295   0.0028  -0.0129  -0.0093   0.00    0.0
2026/01/15 01:42:30.000   30.531672732  114.357244924    51.1324   6   9   0.0057   0.0165   0.0295   0.0028  -0.0129  -0.0093   0.00    0.0
2026/01/15 01:43:00.000   30.531672732  114.357244926    51.1320   6   9   0.0057   0.0165   0.0295   0.0028  -0.0129  -0.0093   0.00    0.0
2026/01/15 01:43:30.000   30.531672733  114.357244930    51.1307   6   9   0.0057   0.0165   0.0295   0.0028  -0.0129  -0.0093   0.00    0.0
2026/01/15 01:44:00.000   30.531672734  114.357244925    51.1297   6   8   0.0057   0.0165   0.0295   0.0028  -0.0129  -0.0093   0.00    0.0
2026/01/15 01:44:30.000   30.531672735  114.357244904    51.1266   6   7   0.0057   0.0165   0.0295   0.0028  -0.0129  -0.0093   0.00    0.0
2026/01/15 01:45:00.000   30.531672741  114.357244870    51.1153   6   7   0.0057   0.0165   0.0294   0.0028  -0.0129  -0.0093   0.00    0.0
2026/01/15 01:45:30.000   30.531672742  114.357244835    51.1139   6   7   0.0057   0.0165   0.0294   0.0028  -0.0129  -0.0093   0.00    0.0
2026/01/15 01:46:00.000   30.531672742  114.357244826    51.1132   6   8   0.0057   0.0165   0.0294   0.0028  -0.0129  -0.0094   0.00    0.0
2026/01/15 01:46:30.000   30.531672742  114.357244819    51.1135   6   9   0.0057   0.0165   0.0294   0.0028  -0.0129  -0.0094   0.00    0.0
2026/01/15 01:47:00.000   30.531672742  114.357244813    51.1142   6   9   0.0057   0.0165   0.0294   0.0028  -0.0129  -0.0094   0.00    0.0
2026/01/15 01:47:30.000   30.531672742  114.357244809    51.1143   6   9   0.0057   0.0165   0.0294   0.0028  -0.0129  -0.0094   0.00    0.0
2026/01/15 01:48:00.000   30.531672742  114.357244806    51.1140   6   9   0.0057   0.0165   0.0294   0.0028  -0.0129  -0.0094   0.00    0.0
2026/01/15 01:48:30.000   30.531672743  114.357244802    51.1128   6   9   0.0057   0.0165   0.0294   0.0028  -0.0129  -0.0094   0.00    0.0
2026/01/15 01:49:30.000   30.531672750  114.357244776    51.1023   6   8   0.0057   0.0165   0.0294   0.0028  -0.0129  -0.0093   0.00    0.0
2026/01/15 01:50:00.000   30.531672757  114.357244714    51.0902   6   7   0.0057   0.0165   0.0294   0.0028  -0.0130  -0.0093   0.00    0.0
2026/01/15 01:50:30.000   30.531672765  114.357244664    51.0825   6   8   0.0057   0.0165   0.0294   0.0028  -0.0130  -0.0093   0.00    0.0
2026/01/15 01:51:00.000   30.531672767  114.357244643    51.0809   6   9   0.0057   0.0165   0.0294   0.0028  -0.0130  -0.0093   0.00    0.0
2026/01/15 01:53:00.000   30.531672769  114.357244629    51.0797   6   9   0.0057   0.0165   0.0294   0.0028  -0.0130  -0.0093   0.00    0.0
2026/01/15 01:53:30.000   30.531672771  114.357244627    51.0776   6   9   0.0057   0.0165   0.0294   0.0028  -0.0130  -0.0093   0.00    0.0
2026/01/15 01:55:00.000   30.531672783  114.357244587    51.0581   6   6   0.0057   0.0165   0.0293   0.0028  -0.0130  -0.0093   0.00    0.0
2026/01/15 01:55:30.000   30.531672796  114.357244494    51.0490   6   7   0.0057   0.0165   0.0293   0.0027  -0.0130  -0.0093   0.00    0.0
2026/01/15 01:56:00.000   30.531672802  114.357244465    51.0438   6   8   0.0057   0.0165   0.0293   0.0027  -0.0130  -0.0093   0.00    0.0
2026/01/15 01:56:30.000   30.531672805  114.357244460    51.0411   6   9   0.0057   0.0165   0.0293   0.0027  -0.0130  -0.0093   0.00    0.0
2026/01/15 01:57:00.000   30.531672805  114.357244457    51.0407   6   9   0.0057   0.0165   0.0293   0.0027  -0.0130  -0.0093   0.00    0.0
2026/01/15 01:57:30.000   30.531672806  114.357244456    51.0400   6   9   0.0057   0.0165   0.0293   0.0027  -0.0130  -0.0093   0.00    0.0
2026/01/15 01:58:30.000   30.531672808  114.357244456    51.0372   6   9   0.0057   0.0165   0.0293   0.0027  -0.0130  -0.0093   0.00    0.0
2026/01/15 01:59:00.000   30.531672813  114.357244445    51.0305   6   8   0.0057   0.0165   0.0293   0.0027  -0.0130  -0.0093   0.00    0.0
2026/01/15 01:59:30.000   30.531672823  114.357244399    51.0182   6   7   0.0057   0.0165   0.0293   0.0027  -0.0130  -0.0093   0.00    0.0
2026/01/15 02:00:00.000   30.531672831  114.357244357    51.0113   6   5   0.0057   0.0165   0.0292   0.0027  -0.0130  -0.0093   0.00    0.0
2026/01/15 02:00:30.000   30.531672839  114.357244316    50.9995   6   7   0.0057   0.0165   0.0292   0.0027  -0.0130  -0.0093   0.00    0.0
2026/01/15 02:02:30.000   30.531672845  114.357244258    51.0003   6   7   0.0057   0.0166   0.0292   0.0027  -0.0130  -0.0093   0.00    0.0
2026/01/15 02:03:30.000   30.531672846  114.357244238    50.9988   6   7   0.0057   0.0166   0.0292   0.0027  -0.0130  -0.0093   0.00    0.0
2026/01/15 02:04:00.000   30.531672850  114.357244211    50.9940   6   7   0.0057   0.0166   0.0292   0.0027  -0.0130  -0.0093   0.00    0.0
2026/01/15 02:04:30.000   30.531672860  114.357244127    50.9822   6   6   0.0057   0.0166   0.0292   0.0027  -0.0131  -0.0093   0.00    0.0
2026/01/15 02:05:00.000   30.531672863  114.357244111    50.9759   6   5   0.0057   0.0166   0.0292   0.0027  -0.0131  -0.0093   0.00    0.0
2026/01/15 02:05:30.000   30.531672870  114.357244051    50.9650   6   6   0.0057   0.0166   0.0292   0.0027  -0.0131  -0.0093   0.00    0.0
2026/01/15 02:06:00.000   30.531672872  114.357244039    50.9614   6   9   0.0057   0.0165   0.0292   0.0027  -0.0131  -0.0093   0.00    0.0
2026/01/15 02:06:30.000   30.531672875  114.357244018    50.9598   6   9   0.0057   0.0166   0.0292   0.0027  -0.0131  -0.0093   0.00    0.0
2026/01/15 02:07:00.000   30.531672875  114.357243993    50.9609   6   9   0.0057   0.0166   0.0292   0.0027  -0.0131  -0.0093   0.00    0.0
2026/01/15 02:07:30.000   30.531672876  114.357243979    50.9611   6   9   0.0057   0.0166   0.0292   0.0027  -0.0131  -0.0093   0.00    0.0
2026/01/15 02:08:30.000   30.531672879  114.357243960    50.9575   6   9   0.0057   0.0166   0.0292   0.0027  -0.0131  -0.0093   0.00    0.0
2026/01/15 02:09:00.000   30.531672884  114.357243929    50.9532   6   9   0.0057   0.0166   0.0291   0.0027  -0.0131  -0.0093   0.00    0.0
2026/01/15 02:10:00.000   30.531672899  114.357243789    50.9413   6   7   0.0057   0.0165   0.0291   0.0027  -0.0132  -0.0093   0.00    0.0
2026/01/15 02:10:30.000   30.531672906  114.357243729    50.9309   6   8   0.0057   0.0165   0.0291   0.0027  -0.0132  -0.0093   0.00    0.0
2026/01/15 02:11:00.000   30.531672910  114.357243704    50.9269   6   8   0.0057   0.0165   0.0291   0.0027  -0.0132  -0.0093   0.00    0.0
2026/01/15 02:12:00.000   30.531672913  114.357243668    50.9253   6   9   0.0057   0.0165   0.0291   0.0027  -0.0132  -0.0093   0.00    0.0
2026/01/15 02:12:30.000   30.531672914  114.357243658    50.9251   6   9   0.0057   0.0165   0.0291   0.0027  -0.0132  -0.0093   0.00    0.0
2026/01/15 02:13:00.000   30.531672916  114.357243652    50.9237   6   9   0.0057   0.0165   0.0291   0.0027  -0.0132  -0.0093   0.00    0.0
2026/01/15 02:13:30.000   30.531672919  114.357243643    50.9208   6   9   0.0057   0.0165   0.0291   0.0027  -0.0132  -0.0093   0.00    0.0
2026/01/15 02:14:00.000   30.531672923  114.357243610    50.9163   6   8   0.0057   0.0165   0.0291   0.0027  -0.0132  -0.0093   0.00    0.0
2026/01/15 02:14:30.000   30.531672930  114.357243553    50.9128   6   7   0.0057   0.0165   0.0291   0.0027  -0.0133  -0.0093   0.00    0.0
2026/01/15 02:15:30.000   30.531672951  114.357243421    50.8899   6   9   0.0057   0.0165   0.0290   0.0028  -0.0133  -0.0093   0.00    0.0
2026/01/15 02:16:00.000   30.531672956  114.357243393    50.8858   6   9   0.0057   0.0165   0.0290   0.0028  -0.0133  -0.0093   0.00    0.0
2026/01/15 02:16:30.000   30.531672958  114.357243361    50.8853   6  10   0.0057   0.0165   0.0290   0.0028  -0.0133  -0.0093   0.00    0.0
2026/01/15 02:17:00.000   30.531672960  114.357243345    50.8846   6  10   0.0057   0.0165   0.0290   0.0028  -0.0133  -0.0093   0.00    0.0
2026/01/15 02:17:30.000   30.531672961  114.357243334    50.8844   6  10   0.0057   0.0165   0.0290   0.0028  -0.0133  -0.0093   0.00    0.0
2026/01/15 02:18:00.000   30.531672962  114.357243324    50.8833   6  10   0.0057   0.0165   0.0290   0.0028  -0.0133  -0.0093   0.00    0.0
2026/01/15 02:18:30.000   30.531672964  114.357243310    50.8808   6  10   0.0057   0.0165   0.0290   0.0028  -0.0133  -0.0092   0.00    0.0
2026/01/15 02:19:00.000   30.531672969  114.357243284    50.8752   6  10   0.0057   0.0165   0.0290   0.0028  -0.0133  -0.0092   0.00    0.0
2026/01/15 02:20:00.000   30.531672982  114.357243215    50.8665   6   7   0.0057   0.0165   0.0290   0.0028  -0.0134  -0.0092   0.00    0.0
2026/01/15 02:20:30.000   30.531672988  114.357243172    50.8658   6   8   0.0057   0.0165   0.0290   0.0028  -0.0134  -0.0092   0.00    0.0
2026/01/15 02:21:00.000   30.531672993  114.357243125    50.8625   6   9   0.0057   0.0165   0.0290   0.0028  -0.0134  -0.0092   0.00    0.0
2026/01/15 02:21:30.000   30.531672997  114.357243103    50.8600   6   9   0.0057   0.0165   0.0290   0.0028  -0.0134  -0.0092   0.00    0.0
2026/01/15 02:22:00.000   30.531672997  114.357243090    50.8595   6   9   0.0057   0.0165   0.0290   0.0028  -0.0134  -0.0092   0.00    0.0
2026/01/15 02:23:00.000   30.531672998  114.357243077    50.8588   6   9   0.0057   0.0165   0.0290   0.0028  -0.0134  -0.0092   0.00    0.0
2026/01/15 02:23:30.000   30.531673001  114.357243067    50.8551   6   9   0.0057   0.0165   0.0290   0.0028  -0.0134  -0.0092   0.00    0.0
2026/01/15 02:24:00.000   30.531673006  114.357243049    50.8475   6   9   0.0057   0.0165   0.0289   0.0028  -0.0134  -0.0092   0.00    0.0
2026/01/15 02:25:00.000   30.531673014  114.357242959    50.8465   6   6   0.0057   0.0165   0.0289   0.0028  -0.0135  -0.0092   0.00    0.0
2026/01/15 02:26:00.000   30.531673031  114.357242892    50.8376   6   9   0.0057   0.0165   0.0289   0.0028  -0.0135  -0.0092   0.00    0.0
2026/01/15 02:26:30.000   30.531673034  114.357242875    50.8341   6   9   0.0057   0.0165   0.0289   0.0028  -0.0135  -0.0092   0.00    0.0
2026/01/15 02:27:00.000   30.531673036  114.357242866    50.8317   6   9   0.0057   0.0165   0.0289   0.0028  -0.0135  -0.0092   0.00    0.0
2026/01/15 02:27:30.000   30.531673038  114.357242861    50.8301   6   9   0.0057   0.0165   0.0289   0.0028  -0.0135  -0.0092   0.00    0.0
2026/01/15 02:28:00.000   30.531673040  114.357242858    50.8268   6   9   0.0057   0.0165   0.0289   0.0028  -0.0135  -0.0092   0.00    0.0
2026/01/15 02:28:30.000   30.531673044  114.357242853    50.8209   6   9   0.0057   0.0165   0.0289   0.0028  -0.0135  -0.0092   0.00    0.0
2026/01/15 02:29:00.000   30.531673050  114.357242831    50.8119   6   8   0.0057   0.0165   0.0289   0.0028  -0.0135  -0.0092   0.00    0.0
2026/01/15 02:29:30.000   30.531673054  114.357242826    50.8098   6   7   0.0057   0.0165   0.0289   0.0028  -0.0135  -0.0092   0.00    0.0
2026/01/15 02:30:00.000   30.531673060  114.357242771    50.8093   6   5   0.0057   0.0165   0.0289   0.0028  -0.0135  -0.0092   0.00    0.0
2026/01/15 02:30:30.000   30.531673066  114.357242719    50.8120   6   7   0.0057   0.0165   0.0289   0.0028  -0.0135  -0.0092   0.00    0.0
2026/01/15 02:31:00.000   30.531673074  114.357242673    50.8045   6   8   0.0057   0.0165   0.0288   0.0028  -0.0136  -0.0092   0.00    0.0
2026/01/15 02:32:30.000   30.531673082  114.357242646    50.7939   6   9   0.0057   0.0165   0.0288   0.0028  -0.0136  -0.0092   0.00    0.0
2026/01/15 02:33:00.000   30.531673085  114.357242637    50.7907   6   9   0.0057   0.0165   0.0288   0.0028  -0.0136  -0.0092   0.00    0.0
2026/01/15 02:33:30.000   30.531673089  114.357242623    50.7844   6  10   0.0057   0.0165   0.0288   0.0028  -0.0136  -0.0092   0.00    0.0
2026/01/15 02:34:30.000   30.531673094  114.357242650    50.7800   6   9   0.0057   0.0165   0.0288   0.0028  -0.0136  -0.0092   0.00    0.0
2026/01/15 02:35:00.000   30.531673098  114.357242615    50.7802   6   7   0.0057   0.0164   0.0288   0.0028  -0.0136  -0.0092   0.00    0.0
2026/01/15 02:35:30.000   30.531673105  114.357242579    50.7804   6   8   0.0057   0.0165   0.0288   0.0027  -0.0136  -0.0092   0.00    0.0
2026/01/15 02:36:30.000   30.531673109  114.357242551    50.7824   6  10   0.0057   0.0165   0.0288   0.0027  -0.0136  -0.0092   0.00    0.0
2026/01/15 02:37:00.000   30.531673109  114.357242549    50.7828   6  10   0.0057   0.0165   0.0288   0.0027  -0.0136  -0.0092   0.00    0.0
2026/01/15 02:37:30.000   30.531673109  114.357242549    50.7828   6  10   0.0057   0.0165   0.0288   0.0027  -0.0136  -0.0092   0.00    0.0
2026/01/15 02:38:00.000   30.531673109  114.357242550    50.7829   6  10   0.0057   0.0165   0.0288   0.0027  -0.0136  -0.0092   0.00    0.0
2026/01/15 02:38:30.000   30.531673110  114.357242555    50.7822   6  10   0.0057   0.0165   0.0288   0.0027  -0.0136  -0.0092   0.00    0.0
2026/01/15 02:39:30.000   30.531673112  114.357242545    50.7808   6   8   0.0057   0.0164   0.0288   0.0027  -0.0136  -0.0092   0.00    0.0
2026/01/15 02:40:00.000   30.531673118  114.357242517    50.7790   6   7   0.0057   0.0165   0.0288   0.0027  -0.0136  -0.0092   0.00    0.0
2026/01/15 02:40:30.000   30.531673129  114.357242446    50.7803   6   8   0.0057   0.0165   0.0288   0.0027  -0.0136  -0.0092   0.00    0.0
2026/01/15 02:41:00.000   30.531673135  114.357242438    50.7791   6  10   0.0057   0.0165   0.0288   0.0027  -0.0136  -0.0092   0.00    0.0
2026/01/15 02:41:30.000   30.531673137  114.357242439    50.7783   6  10   0.0057   0.0165   0.0288   0.0027  -0.0136  -0.0092   0.00    0.0
2026/01/15 02:42:00.000   30.531673137  114.357242423    50.7800   6  10   0.0057   0.0165   0.0288   0.0027  -0.0136  -0.0092   0.00    0.0
2026/01/15 02:42:30.000   30.531673137  114.357242414    50.7810   6  10   0.0057   0.0165   0.0288   0.0027  -0.0136  -0.0092   0.00    0.0
2026/01/15 02:43:00.000   30.531673137  114.357242413    50.7812   6  10   0.0057   0.0165   0.0288   0.0027  -0.0136  -0.0092   0.00    0.0
2026/01/15 02:43:30.000   30.531673138  114.357242413    50.7813   6  10   0.0057   0.0165   0.0288   0.0026  -0.0136  -0.0092   0.00    0.0
2026/01/15 02:44:00.000   30.531673140  114.357242419    50.7803   6  10   0.0057   0.0165   0.0288   0.0026  -0.0136  -0.0092   0.00    0.0
2026/01/15 02:45:00.000   30.531673143  114.357242374    50.7768   6   7   0.0057   0.0165   0.0288   0.0027  -0.0136  -0.0091   0.00    0.0
2026/01/15 02:45:30.000   30.531673148  114.357242338    50.7759   6   8   0.0057   0.0165   0.0288   0.0026  -0.0136  -0.0091   0.00    0.0
2026/01/15 02:46:00.000   30.531673152  114.357242342    50.7748   6  10   0.0057   0.0165   0.0288   0.0026  -0.0136  -0.0091   0.00    0.0
2026/01/15 02:46:30.000   30.531673153  114.357242317    50.7769   6  10   0.0057   0.0165   0.0288   0.0026  -0.0136  -0.0091   0.00    0.0
2026/01/15 02:47:00.000   30.531673154  114.357242305    50.7779   6  10   0.0057   0.0165   0.0288   0.0026  -0.0136  -0.0091   0.00    0.0
2026/01/15 02:48:30.000   30.531673156  114.357242315    50.7744   6  10   0.0057   0.0165   0.0287   0.0026  -0.0136  -0.0091   0.00    0.0
2026/01/15 02:49:00.000   30.531673160  114.357242324    50.7698   6  10   0.0057   0.0165   0.0287   0.0026  -0.0136  -0.0091   0.00    0.0
2026/01/15 02:51:00.000   30.531673169  114.357242310    50.7624   6   9   0.0057   0.0165   0.0287   0.0026  -0.0136  -0.0091   0.00    0.0
2026/01/15 02:51:30.000   30.531673172  114.357242296    50.7623   6   9   0.0057   0.0165   0.0287   0.0026  -0.0136  -0.0091   0.00    0.0
2026/01/15 02:52:00.000   30.531673174  114.357242287    50.7625   6   9   0.0057   0.0165   0.0287   0.0026  -0.0136  -0.0091   0.00    0.0
2026/01/15 02:52:30.000   30.531673175  114.357242282    50.7628   6   9   0.0057   0.0165   0.0287   0.0026  -0.0136  -0.0091   0.00    0.0
2026/01/15 02:53:00.000   30.531673176  114.357242284    50.7619   6   9   0.0057   0.0165   0.0287   0.0026  -0.0136  -0.0091   0.00    0.0
2026/01/15 02:53:30.000   30.531673178  114.357242291    50.7600   6   9   0.0057   0.0164   0.0287   0.0026  -0.0136  -0.0091   0.00    0.0
2026/01/15 02:54:00.000   30.531673182  114.357242315    50.7543   6   9   0.0057   0.0164   0.0287   0.0026  -0.0136  -0.0091   0.00    0.0
2026/01/15 02:55:00.000   30.531673187  114.357242294    50.7531   6   4   0.0057   0.0164   0.0287   0.0026  -0.0136  -0.0091   0.00    0.0
2026/01/15 02:56:00.000   30.531673196  114.357242304    50.7442   6   9   0.0057   0.0165   0.0287   0.0025  -0.0136  -0.0091   0.00    0.0
2026/01/15 02:56:30.000   30.531673199  114.357242306    50.7419   6   9   0.0057   0.0165   0.0287   0.0025  -0.0136  -0.0091   0.00    0.0
2026/01/15 02:57:00.000   30.531673200  114.357242308    50.7407   6   9   0.0057   0.0164   0.0287   0.0025  -0.0136  -0.0091   0.00    0.0
2026/01/15 02:57:30.000   30.531673201  114.357242310    50.7395   6   9   0.0057   0.0164   0.0287   0.0025  -0.0136  -0.0091   0.00    0.0
2026/01/15 02:58:00.000   30.531673202  114.357242317    50.7371   6   9   0.0057   0.0164   0.0287   0.0025  -0.0136  -0.0091   0.00    0.0
2026/01/15 02:58:30.000   30.531673205  114.357242332    50.7323   6   9   0.0057   0.0164   0.0287   0.0025  -0.0136  -0.0091   0.00    0.0
2026/01/15 02:59:00.000   30.531673210  114.357242366    50.7225   6   9   0.0057   0.0164   0.0287   0.0025  -0.0136  -0.0091   0.00    0.0
2026/01/15 02:59:30.000   30.531673210  114.357242374    50.7211   6   6   0.0057   0.0164   0.0287   0.0025  -0.0136  -0.0091   0.00    0.0
2026/01/15 03:00:00.000   30.531673212  114.357242355    50.7197   6   5   0.0057   0.0164   0.0287   0.0025  -0.0136  -0.0091   0.00    0.0
2026/01/15 03:00:30.000   30.531673209  114.357242358    50.7201   6   6   0.0057   0.0164   0.0287   0.0025  -0.0136  -0.0091   0.00    0.0
2026/01/15 03:01:00.000   30.531673213  114.357242328    50.7153   6   7   0.0057   0.0164   0.0287   0.0025  -0.0136  -0.0092   0.00    0.0
2026/01/15 03:01:30.000   30.531673216  114.357242340    50.7102   6   9   0.0057   0.0164   0.0287   0.0025  -0.0136  -0.0091   0.00    0.0
2026/01/15 03:02:30.000   30.531673219  114.357242354    50.7048   6   9   0.0057   0.0164   0.0286   0.0025  -0.0136  -0.0091   0.00    0.0
2026/01/15 03:03:30.000   30.531673225  114.357242387    50.6939   6   9   0.0057   0.0164   0.0286   0.0025  -0.0136  -0.0091   0.00    0.0
2026/01/15 03:05:30.000   30.531673220  114.357242443    50.6939   6   6   0.0057   0.0163   0.0286   0.0025  -0.0136  -0.0091   0.00    0.0
2026/01/15 03:06:00.000   30.531673217  114.357242439    50.6959   6   6   0.0057   0.0163   0.0286   0.0025  -0.0136  -0.0091   0.00    0.0
2026/01/15 03:06:30.000   30.531673216  114.357242439    50.6968   6   9   0.0057   0.0163   0.0286   0.0025  -0.0136  -0.0091   0.00    0.0
2026/01/15 03:07:00.000   30.531673216  114.357242435    50.6979   6   9   0.0057   0.0163   0.0286   0.0025  -0.0136  -0.0091   0.00    0.0
2026/01/15 03:07:30.000   30.531673204  114.357242437    50.7016   6   9   0.0057   0.0163   0.0286   0.0025  -0.0136  -0.0092   0.00    0.0
2026/01/15 03:08:00.000   30.531673203  114.357242437    50.7022   6   9   0.0057   0.0163   0.0286   0.0025  -0.0136  -0.0092   0.00    0.0
2026/01/15 03:08:30.000   30.531673203  114.357242440    50.7024   6   9   0.0057   0.0163   0.0286   0.0025  -0.0136  -0.0092   0.00    0.0
2026/01/15 03:09:00.000   30.531673201  114.357242447    50.7027   6   9   0.0057   0.0163   0.0286   0.0026  -0.0136  -0.0092   0.00    0.0
2026/01/15 03:09:30.000   30.531673198  114.357242468    50.7032   6   9   0.0057   0.0163   0.0286   0.0026  -0.0136  -0.0092   0.00    0.0
2026/01/15 03:10:00.000   30.531673197  114.357242482    50.7040   6   8   0.0057   0.0163   0.0286   0.0026  -0.0136  -0.0092   0.00    0.0
2026/01/15 03:10:30.000   30.531673188  114.357242478    50.7098   6   9   0.0057   0.0163   0.0287   0.0026  -0.0136  -0.0092   0.00    0.0
2026/01/15 03:11:00.000   30.531673186  114.357242476    50.7121   6   9   0.0057   0.0163   0.0287   0.0026  -0.0136  -0.0092   0.00    0.0
2026/01/15 03:12:00.000   30.531673185  114.357242475    50.7129   6   9   0.0057   0.0163   0.0287   0.0026  -0.0136  -0.0092   0.00    0.0
2026/01/15 03:12:30.000   30.531673184  114.357242476    50.7130   6   9   0.0057   0.0163   0.0287   0.0026  -0.0136  -0.0092   0.00    0.0
2026/01/15 03:13:00.000   30.531673184  114.357242477    50.7129   6   9   0.0057   0.0163   0.0287   0.0026  -0.0136  -0.0092   0.00    0.0
2026/01/15 03:13:30.000   30.531673183  114.357242480    50.7135   6   8   0.0057   0.0163   0.0287   0.0026  -0.0136  -0.0092   0.00    0.0
2026/01/15 03:14:30.000   30.531673206  114.357242818    50.6848   6   5   0.0057   0.0161   0.0286   0.0025  -0.0134  -0.0091   0.00    0.0
2026/01/15 03:15:30.000   30.531673196  114.357242854    50.6869   6   7   0.0057   0.0161   0.0286   0.0025  -0.0134  -0.0092   0.00    0.0
2026/01/15 03:16:30.000   30.531673194  114.357242856    50.6886   6   7   0.0057   0.0161   0.0286   0.0025  -0.0134  -0.0092   0.00    0.0
2026/01/15 03:17:00.000   30.531673193  114.357242860    50.6890   6   7   0.0057   0.0161   0.0286   0.0025  -0.0134  -0.0092   0.00    0.0
2026/01/15 03:17:30.000   30.531673192  114.357242862    50.6891   6   7   0.0057   0.0161   0.0286   0.0025  -0.0134  -0.0092   0.00    0.0
2026/01/15 03:18:00.000   30.531673192  114.357242865    50.6894   6   7   0.0057   0.0161   0.0286   0.0025  -0.0134  -0.0092   0.00    0.0
2026/01/15 03:18:30.000   30.531673191  114.357242872    50.6895   6   7   0.0057   0.0161   0.0286   0.0025  -0.0134  -0.0092   0.00    0.0
2026/01/15 03:19:00.000   30.531673189  114.357242888    50.6892   6   7   0.0057   0.0161   0.0286   0.0025  -0.0134  -0.0092   0.00    0.0
2026/01/15 03:19:30.000   30.531673185  114.357242935    50.6875   6   7   0.0057   0.0161   0.0286   0.0025  -0.0134  -0.0092   0.00    0.0
2026/01/15 03:20:30.000   30.531673171  114.357243086    50.6822   6   7   0.0057   0.0160   0.0286   0.0026  -0.0134  -0.0092   0.00    0.0
2026/01/15 03:21:00.000   30.531673169  114.357243097    50.6828   6   7   0.0057   0.0160   0.0286   0.0026  -0.0134  -0.0092   0.00    0.0
2026/01/15 03:22:00.000   30.531673167  114.357243103    50.6837   6   7   0.0057   0.0159   0.0286   0.0026  -0.0134  -0.0092   0.00    0.0
2026/01/15 03:22:30.000   30.531673167  114.357243104    50.6840   6   7   0.0057   0.0159   0.0286   0.0026  -0.0133  -0.0092   0.00    0.0
2026/01/15 03:23:00.000   30.531673166  114.357243108    50.6840   6   7   0.0057   0.0159   0.0286   0.0026  -0.0133  -0.0092   0.00    0.0
2026/01/15 03:23:30.000   30.531673166  114.357243114    50.6838   6   7   0.0057   0.0159   0.0286   0.0027  -0.0133  -0.0092   0.00    0.0
2026/01/15 03:25:30.000   30.531673157  114.357243270    50.6738   6   7   0.0057   0.0158   0.0286   0.0027  -0.0133  -0.0092   0.00    0.0
2026/01/15 03:26:30.000   30.531673156  114.357243275    50.6744   6   7   0.0057   0.0158   0.0286   0.0027  -0.0133  -0.0092   0.00    0.0
2026/01/15 03:27:30.000   30.531673156  114.357243270    50.6755   6   7   0.0057   0.0158   0.0286   0.0027  -0.0133  -0.0092   0.00    0.0
2026/01/15 03:28:30.000   30.531673156  114.357243277    50.6753   6   7   0.0057   0.0158   0.0286   0.0027  -0.0133  -0.0092   0.00    0.0
2026/01/15 03:29:30.000   30.531673157  114.357243337    50.6697   6   7   0.0057   0.0158   0.0286   0.0028  -0.0133  -0.0092   0.00    0.0
2026/01/15 03:30:00.000   30.531673156  114.357243445    50.6586   6   6   0.0057   0.0157   0.0285   0.0028  -0.0133  -0.0091   0.00    0.0
2026/01/15 03:31:00.000   30.531673155  114.357243495    50.6546   6   7   0.0057   0.0157   0.0285   0.0028  -0.0133  -0.0091   0.00    0.0
2026/01/15 03:31:30.000   30.531673157  114.357243483    50.6553   6   7   0.0057   0.0157   0.0285   0.0028  -0.0133  -0.0091   0.00    0.0
2026/01/15 03:32:00.000   30.531673159  114.357243469    50.6565   6   7   0.0057   0.0157   0.0285   0.0028  -0.0133  -0.0091   0.00    0.0
2026/01/15 03:32:30.000   30.531673160  114.357243461    50.6571   6   7   0.0057   0.0157   0.0285   0.0028  -0.0133  -0.0091   0.00    0.0
2026/01/15 03:33:00.000   30.531673160  114.357243459    50.6575   6   7   0.0057   0.0157   0.0285   0.0028  -0.0133  -0.0091   0.00    0.0
2026/01/15 03:33:30.000   30.531673162  114.357243457    50.6574   6   7   0.0057   0.0157   0.0285   0.0028  -0.0133  -0.0091   0.00    0.0
2026/01/15 03:34:00.000   30.531673164  114.357243458    50.6570   6   7   0.0057   0.0157   0.0285   0.0028  -0.0133  -0.0091   0.00    0.0
2026/01/15 03:34:30.000   30.531673167  114.357243495    50.6516   6   7   0.0057   0.0157   0.0285   0.0029  -0.0133  -0.0091   0.00    0.0
2026/01/15 03:35:00.000   30.531673164  114.357243527    50.6510   6   4   0.0057   0.0157   0.0285   0.0029  -0.0133  -0.0091   0.00    0.0
2026/01/15 03:35:30.000   30.531673166  114.357243577    50.6442   6   7   0.0057   0.0156   0.0285   0.0029  -0.0133  -0.0091   0.00    0.0
2026/01/15 03:36:00.000   30.531673167  114.357243592    50.6422   6   7   0.0057   0.0156   0.0285   0.0029  -0.0133  -0.0091   0.00    0.0
2026/01/15 03:36:30.000   30.531673171  114.357243570    50.6436   6   7   0.0057   0.0156   0.0285   0.0029  -0.0133  -0.0091   0.00    0.0
2026/01/15 03:37:30.000   30.531673173  114.357243560    50.6452   6   7   0.0057   0.0156   0.0285   0.0029  -0.0133  -0.0091   0.00    0.0
2026/01/15 03:38:00.000   30.531673174  114.357243560    50.6452   6   7   0.0057   0.0156   0.0285   0.0029  -0.0133  -0.0091   0.00    0.0
2026/01/15 03:38:30.000   30.531673176  114.357243560    50.6451   6   7   0.0057   0.0156   0.0285   0.0029  -0.0133  -0.0091   0.00    0.0
2026/01/15 03:39:00.000   30.531673179  114.357243565    50.6438   6   7   0.0057   0.0156   0.0285   0.0029  -0.0133  -0.0091   0.00    0.0
2026/01/15 03:39:30.000   30.531673187  114.357243603    50.6377   6   7   0.0057   0.0156   0.0285   0.0029  -0.0133  -0.0091   0.00    0.0
2026/01/15 03:40:00.000   30.531673188  114.357243617    50.6367   6   4   0.0057   0.0156   0.0285   0.0030  -0.0133  -0.0091   0.00    0.0
2026/01/15 03:40:30.000   30.531673193  114.357243678    50.6268   6   7   0.0057   0.0156   0.0284   0.0030  -0.0133  -0.0091   0.00    0.0
2026/01/15 03:41:00.000   30.531673194  114.357243695    50.6241   6   7   0.0057   0.0156   0.0284   0.0030  -0.0133  -0.0091   0.00    0.0
2026/01/15 03:41:30.000   30.531673199  114.357243682    50.6252   6   7   0.0057   0.0156   0.0284   0.0030  -0.0133  -0.0091   0.00    0.0
2026/01/15 03:42:30.000   30.531673203  114.357243670    50.6265   6   7   0.0057   0.0156   0.0285   0.0030  -0.0133  -0.0091   0.00    0.0
2026/01/15 03:43:00.000   30.531673204  114.357243671    50.6262   6   7   0.0057   0.0156   0.0284   0.0030  -0.0133  -0.0091   0.00    0.0
2026/01/15 03:43:30.000   30.531673205  114.357243676    50.6253   6   7   0.0057   0.0156   0.0284   0.0030  -0.0133  -0.0091   0.00    0.0
2026/01/15 03:44:00.000   30.531673209  114.357243691    50.6224   6   7   0.0057   0.0156   0.0284   0.0030  -0.0133  -0.0091   0.00    0.0
2026/01/15 03:45:30.000   30.531673227  114.357243817    50.5986   6   7   0.0056   0.0155   0.0284   0.0030  -0.0132  -0.0091   0.00    0.0
2026/01/15 03:46:00.000   30.531673233  114.357243818    50.5960   6   7   0.0056   0.0155   0.0284   0.0030  -0.0132  -0.0091   0.00    0.0
2026/01/15 03:47:00.000   30.531673237  114.357243819    50.5952   6   7   0.0056   0.0155   0.0284   0.0030  -0.0132  -0.0090   0.00    0.0
2026/01/15 03:47:30.000   30.531673238  114.357243819    50.5950   6   7   0.0056   0.0155   0.0284   0.0030  -0.0132  -0.0090   0.00    0.0
2026/01/15 03:48:00.000   30.531673239  114.357243823    50.5942   6   7   0.0056   0.0155   0.0284   0.0030  -0.0132  -0.0090   0.00    0.0
2026/01/15 03:48:30.000   30.531673241  114.357243831    50.5925   6   7   0.0056   0.0155   0.0284   0.0030  -0.0132  -0.0090   0.00    0.0
2026/01/15 03:49:00.000   30.531673245  114.357243849    50.5884   6   7   0.0056   0.0155   0.0284   0.0030  -0.0132  -0.0090   0.00    0.0
2026/01/15 03:49:30.000   30.531673257  114.357243920    50.5735   6   7   0.0056   0.0155   0.0283   0.0030  -0.0132  -0.0090   0.00    0.0
2026/01/15 03:50:30.000   30.531673290  114.357243930    50.5580   6   7   0.0056   0.0154   0.0283   0.0031  -0.0132  -0.0090   0.00    0.0
2026/01/15 03:51:00.000   30.531673303  114.357243912    50.5567   6   7   0.0056   0.0154   0.0283   0.0031  -0.0132  -0.0090   0.00    0.0
2026/01/15 03:51:30.000   30.531673308  114.357243910    50.5556   6   7   0.0056   0.0154   0.0283   0.0031  -0.0132  -0.0090   0.00    0.0
2026/01/15 03:52:00.000   30.531673308  114.357243912    50.5557   6   7   0.0056   0.0154   0.0283   0.0031  -0.0132  -0.0090   0.00    0.0
2026/01/15 03:52:30.000   30.531673308  114.357243913    50.5560   6   7   0.0056   0.0154   0.0283   0.0031  -0.0132  -0.0090   0.00    0.0
2026/01/15 03:53:00.000   30.531673309  114.357243918    50.5552   6   7   0.0056   0.0154   0.0283   0.0031  -0.0132  -0.0090   0.00    0.0
2026/01/15 03:53:30.000   30.531673310  114.357243928    50.5535   6   7   0.0056   0.0154   0.0283   0.0031  -0.0132  -0.0090   0.00    0.0
2026/01/15 03:54:30.000   30.531673318  114.357243980    50.5437   6   6   0.0056   0.0154   0.0283   0.0031  -0.0132  -0.0090   0.00    0.0
2026/01/15 03:55:00.000   30.531673345  114.357243914    50.5407   6   4   0.0056   0.0154   0.0283   0.0031  -0.0133  -0.0090   0.00    0.0
2026/01/15 03:55:30.000   30.531673365  114.357243930    50.5317   6   6   0.0056   0.0154   0.0283   0.0031  -0.0132  -0.0089   0.00    0.0
2026/01/15 03:56:00.000   30.531673378  114.357243925    50.5273   6   7   0.0056   0.0154   0.0282   0.0031  -0.0132  -0.0089   0.00    0.0
2026/01/15 03:57:30.000   30.531673382  114.357243944    50.5255   6   7   0.0056   0.0154   0.0282   0.0031  -0.0132  -0.0089   0.00    0.0
2026/01/15 03:58:00.000   30.531673383  114.357243950    50.5242   6   7   0.0056   0.0154   0.0282   0.0031  -0.0132  -0.0089   0.00    0.0
2026/01/15 03:59:00.000   30.531673389  114.357243993    50.5142   6   7   0.0056   0.0154   0.0282   0.0031  -0.0132  -0.0089   0.00    0.0
2026/01/15 04:00:30.000   30.531673403  114.357244003    50.5125   6   5   0.0056   0.0154   0.0282   0.0030  -0.0132  -0.0089   0.00    0.0
2026/01/15 04:01:00.000   30.531673414  114.357244010    50.5053   6   7   0.0056   0.0154   0.0282   0.0030  -0.0132  -0.0089   0.00    0.0
2026/01/15 04:01:30.000   30.531673418  114.357244019    50.5026   6   7   0.0056   0.0154   0.0282   0.0030  -0.0132  -0.0089   0.00    0.0
2026/01/15 04:03:00.000   30.531673421  114.357244036    50.4980   6   7   0.0056   0.0154   0.0282   0.0030  -0.0132  -0.0089   0.00    0.0
2026/01/15 04:03:30.000   30.531673423  114.357244051    50.4940   6   7   0.0056   0.0154   0.0282   0.0030  -0.0132  -0.0089   0.00    0.0
2026/01/15 04:04:00.000   30.531673429  114.357244085    50.4849   6   7   0.0056   0.0154   0.0281   0.0030  -0.0131  -0.0089   0.00    0.0
2026/01/15 04:04:30.000   30.531673423  114.357244178    50.4781   6   5   0.0056   0.0153   0.0281   0.0030  -0.0131  -0.0089   0.00    0.0
2026/01/15 04:05:30.000   30.531673422  114.357244253    50.4722   6   5   0.0057   0.0153   0.0281   0.0030  -0.0131  -0.0089   0.00    0.0
2026/01/15 04:06:00.000   30.531673428  114.357244275    50.4640   6   7   0.0057   0.0153   0.0281   0.0029  -0.0131  -0.0089   0.00    0.0
2026/01/15 04:06:30.000   30.531673431  114.357244285    50.4604   6   7   0.0057   0.0153   0.0281   0.0029  -0.0131  -0.0089   0.00    0.0
2026/01/15 04:07:00.000   30.531673433  114.357244292    50.4580   6   7   0.0057   0.0153   0.0281   0.0029  -0.0131  -0.0089   0.00    0.0
2026/01/15 04:08:00.000   30.531673434  114.357244300    50.4544   6   7   0.0057   0.0153   0.0281   0.0029  -0.0131  -0.0089   0.00    0.0
2026/01/15 04:08:30.000   30.531673436  114.357244306    50.4502   6   7   0.0057   0.0153   0.0281   0.0029  -0.0131  -0.0089   0.00    0.0
2026/01/15 04:09:30.000   30.531673435  114.357244433    50.4333   6   5   0.0057   0.0153   0.0281   0.0030  -0.0130  -0.0089   0.00    0.0
2026/01/15 04:10:30.000   30.531673440  114.357244441    50.4258   6   5   0.0056   0.0150   0.0280   0.0032  -0.0131  -0.0089   0.00    0.0
2026/01/15 04:11:00.000   30.531673436  114.357244467    50.4208   6   6   0.0057   0.0150   0.0280   0.0032  -0.0131  -0.0089   0.00    0.0
2026/01/15 04:11:30.000   30.531673440  114.357244477    50.4158   6   7   0.0057   0.0150   0.0280   0.0032  -0.0131  -0.0089   0.00    0.0
2026/01/15 04:12:00.000   30.531673442  114.357244484    50.4127   6   7   0.0057   0.0150   0.0280   0.0032  -0.0131  -0.0089   0.00    0.0
2026/01/15 04:12:30.000   30.531673443  114.357244488    50.4112   6   7   0.0057   0.0150   0.0280   0.0032  -0.0131  -0.0088   0.00    0.0
2026/01/15 04:13:00.000   30.531673445  114.357244496    50.4080   6   7   0.0057   0.0150   0.0280   0.0032  -0.0131  -0.0088   0.00    0.0
2026/01/15 04:13:30.000   30.531673450  114.357244510    50.4021   6   7   0.0057   0.0150   0.0280   0.0032  -0.0131  -0.0088   0.00    0.0
2026/01/15 04:14:00.000   30.531673446  114.357244551    50.3960   6   6   0.0057   0.0150   0.0280   0.0032  -0.0131  -0.0088   0.00    0.0
2026/01/15 04:15:30.000   30.531673438  114.357244709    50.3838   6   5   0.0057   0.0150   0.0280   0.0031  -0.0130  -0.0089   0.00    0.0
2026/01/15 04:16:00.000   30.531673428  114.357244743    50.3791   6   6   0.0057   0.0150   0.0280   0.0031  -0.0130  -0.0089   0.00    0.0
2026/01/15 04:16:30.000   30.531673423  114.357244760    50.3768   6   7   0.0057   0.0150   0.0279   0.0031  -0.0130  -0.0089   0.00    0.0
2026/01/15 04:17:00.000   30.531673421  114.357244770    50.3756   6   7   0.0057   0.0150   0.0279   0.0031  -0.0130  -0.0089   0.00    0.0
2026/01/15 04:17:30.000   30.531673419  114.357244776    50.3751   6   7   0.0057   0.0150   0.0279   0.0031  -0.0130  -0.0089   0.00    0.0
2026/01/15 04:18:30.000   30.531673415  114.357244805    50.3715   6   7   0.0057   0.0150   0.0279   0.0031  -0.0130  -0.0089   0.00    0.0
2026/01/15 04:19:30.000   30.531673400  114.357244930    50.3602   6   6   0.0057   0.0149   0.0279   0.0032  -0.0130  -0.0089   0.00    0.0
2026/01/15 04:20:00.000   30.531673401  114.357244941    50.3590   6   4   0.0057   0.0149   0.0279   0.0031  -0.0130  -0.0089   0.00    0.0
2026/01/15 04:20:30.000   30.531673398  114.357245017    50.3536   6   6   0.0057   0.0149   0.0279   0.0031  -0.0129  -0.0089   0.00    0.0
2026/01/15 04:21:00.000   30.531673394  114.357245057    50.3474   6   7   0.0057   0.0149   0.0279   0.0031  -0.0129  -0.0089   0.00    0.0
2026/01/15 04:21:30.000   30.531673389  114.357245074    50.3454   6   7   0.0057   0.0149   0.0279   0.0031  -0.0129  -0.0089   0.00    0.0
2026/01/15 04:22:00.000   30.531673384  114.357245085    50.3452   6   7   0.0057   0.0149   0.0279   0.0031  -0.0129  -0.0089   0.00    0.0
2026/01/15 04:22:30.000   30.531673381  114.357245091    50.3451   6   7   0.0057   0.0149   0.0279   0.0031  -0.0129  -0.0089   0.00    0.0
