% program   : RTKPOST ver.demo5 b34d
% inp file  : F:\gnss\GAMP_WORK\input\obs\RNXDATA\KIRU00SWE_R_20260150000_01D_30S_MO.obs
% inp file  : F:\gnss\GAMP_WORK\input\nav\BRDC00IGS_R_20260150000_01D_MN.nav
% inp file  : F:\gnss\GAMP_WORK\input\DATA_FINAL_ANT_EXTRA\COD0MGXFIN_20260150000_01D_30S_CLK.CLK
% inp file  : F:\gnss\GAMP_WORK\input\DATA_FINAL_ANT_EXTRA\COD0MGXFIN_20260150000_01D_05M_ORB.SP3
% obs start : 2026/01/15 00:00:00.0 GPST (week2401 345600.0s)
% obs end   : 2026/01/15 23:59:30.0 GPST (week2401 431970.0s)
% pos mode  : PPP Static
% solution  : Combined-Phase Reset
% elev mask : 10.0 deg
% dynamics  : off
% tidecorr  : on
% tropo opt : Estimate ZTD
% ephemeris : Precise
% navi sys  : BDS
% antenna1  : SEPCHOKE_B3E6   SPKE  ( 0.0000  0.0000  0.0620)
%
% (lat/lon/height=WGS84/geodetic,Q=1:fix,2:float,3:sbas,4:dgps,5:single,6:ppp,ns=# of satellites)
%  GPST                  latitude(deg) longitude(deg)  height(m)   Q  ns   sdn(m)   sde(m)   sdu(m)  sdne(m)  sdeu(m)  sdun(m) age(s)  ratio
2026/01/15 04:52:30.000   67.857399152   20.968497870   389.3489   6   4   0.0736   0.0357   0.0868  -0.0366   0.0239  -0.0270   0.00    0.0
2026/01/15 04:53:00.000   67.857399173   20.968497822   389.3535   6   4   0.0736   0.0357   0.0868  -0.0366   0.0239  -0.0270   0.00    0.0
2026/01/15 04:53:30.000   67.857399188   20.968497762   389.3594   6   4   0.0737   0.0357   0.0868  -0.0367   0.0239  -0.0269   0.00    0.0
2026/01/15 04:58:30.000   67.857399666   20.968496674   389.3989   6   5   0.0747   0.0371   0.0870  -0.0383   0.0238  -0.0265   0.00    0.0
2026/01/15 04:59:00.000   67.857399684   20.968496617   389.4081   6   5   0.0748   0.0372   0.0870  -0.0384   0.0238  -0.0265   0.00    0.0
2026/01/15 05:01:00.000   67.857399715   20.968496512   389.4199   6   4   0.0752   0.0377   0.0871  -0.0390   0.0238  -0.0265   0.00    0.0
2026/01/15 05:01:30.000   67.857399713   20.968496524   389.4222   6   4   0.0753   0.0379   0.0871  -0.0392   0.0238  -0.0265   0.00    0.0
2026/01/15 05:02:00.000   67.857399712   20.968496512   389.4269   6   4   0.0754   0.0380   0.0871  -0.0392   0.0238  -0.0264   0.00    0.0
2026/01/15 05:02:30.000   67.857399704   20.968496514   389.4290   6   4   0.0754   0.0380   0.0871  -0.0393   0.0238  -0.0264   0.00    0.0
2026/01/15 05:03:00.000   67.857399701   20.968496517   389.4302   6   4   0.0754   0.0380   0.0872  -0.0393   0.0238  -0.0264   0.00    0.0
2026/01/15 05:03:30.000   67.857399691   20.968496534   389.4320   6   4   0.0755   0.0381   0.0872  -0.0394   0.0238  -0.0263   0.00    0.0
2026/01/15 05:04:00.000   67.857399665   20.968496581   389.4337   6   4   0.0755   0.0381   0.0872  -0.0395   0.0238  -0.0263   0.00    0.0
2026/01/15 05:06:30.000   67.857399507   20.968497793   389.5106   6   5   0.0761   0.0389   0.0871  -0.0404   0.0241  -0.0267   0.00    0.0
2026/01/15 05:07:00.000   67.857399493   20.968497872   389.5199   6   5   0.0762   0.0390   0.0871  -0.0404   0.0241  -0.0267   0.00    0.0
2026/01/15 05:08:00.000   67.857399502   20.968497971   389.5356   6   5   0.0762   0.0390   0.0871  -0.0405   0.0241  -0.0267   0.00    0.0
2026/01/15 05:08:30.000   67.857399490   20.968498053   389.5434   6   5   0.0762   0.0391   0.0871  -0.0405   0.0241  -0.0266   0.00    0.0
2026/01/15 05:09:00.000   67.857399460   20.968498190   389.5520   6   5   0.0763   0.0391   0.0871  -0.0406   0.0242  -0.0267   0.00    0.0
2026/01/15 05:11:00.000   67.857399401   20.968498500   389.5513   6   5   0.0767   0.0397   0.0871  -0.0412   0.0244  -0.0268   0.00    0.0
2026/01/15 05:11:30.000   67.857399356   20.968498670   389.5665   6   5   0.0768   0.0398   0.0871  -0.0414   0.0244  -0.0269   0.00    0.0
2026/01/15 05:12:00.000   67.857399348   20.968498758   389.5773   6   5   0.0769   0.0398   0.0871  -0.0414   0.0244  -0.0268   0.00    0.0
2026/01/15 05:12:30.000   67.857399347   20.968498818   389.5855   6   5   0.0769   0.0398   0.0871  -0.0415   0.0244  -0.0268   0.00    0.0
2026/01/15 05:13:00.000   67.857399348   20.968498872   389.5922   6   5   0.0769   0.0399   0.0871  -0.0415   0.0244  -0.0268   0.00    0.0
2026/01/15 05:13:30.000   67.857399338   20.968498960   389.5993   6   5   0.0769   0.0399   0.0871  -0.0415   0.0244  -0.0268   0.00    0.0
2026/01/15 05:14:00.000   67.857399301   20.968499106   389.6043   6   4   0.0770   0.0399   0.0871  -0.0416   0.0245  -0.0268   0.00    0.0
2026/01/15 05:14:30.000   67.857399190   20.968499444   389.6052   6   4   0.0770   0.0400   0.0871  -0.0416   0.0246  -0.0269   0.00    0.0
2026/01/15 05:15:00.000   67.857399127   20.968499752   389.5871   6   4   0.0771   0.0400   0.0871  -0.0417   0.0247  -0.0270   0.00    0.0
2026/01/15 05:15:30.000   67.857399197   20.968499706   389.5894   6   4   0.0773   0.0402   0.0871  -0.0419   0.0247  -0.0270   0.00    0.0
2026/01/15 05:16:30.000   67.857399160   20.968499872   389.6029   6   4   0.0774   0.0404   0.0871  -0.0422   0.0248  -0.0270   0.00    0.0
2026/01/15 05:17:00.000   67.857399152   20.968499955   389.6107   6   4   0.0775   0.0405   0.0871  -0.0422   0.0248  -0.0270   0.00    0.0
2026/01/15 05:17:30.000   67.857399153   20.968500016   389.6182   6   5   0.0775   0.0405   0.0871  -0.0423   0.0248  -0.0270   0.00    0.0
2026/01/15 05:18:00.000   67.857399158   20.968500060   389.6233   6   5   0.0775   0.0405   0.0871  -0.0423   0.0248  -0.0269   0.00    0.0
2026/01/15 05:19:30.000   67.857398998   20.968500599   389.6157   6   5   0.0775   0.0405   0.0871  -0.0423   0.0249  -0.0270   0.00    0.0
2026/01/15 05:20:00.000   67.857398666   20.968501568   389.5885   6   5   0.0776   0.0405   0.0871  -0.0424   0.0252  -0.0272   0.00    0.0
2026/01/15 05:21:00.000   67.857398351   20.968502316   389.5976   6   5   0.0779   0.0408   0.0871  -0.0427   0.0253  -0.0273   0.00    0.0
2026/01/15 05:21:30.000   67.857398297   20.968502504   389.6041   6   5   0.0779   0.0409   0.0871  -0.0427   0.0254  -0.0274   0.00    0.0
2026/01/15 05:22:00.000   67.857398274   20.968502609   389.6093   6   5   0.0779   0.0409   0.0871  -0.0428   0.0254  -0.0274   0.00    0.0
2026/01/15 05:22:30.000   67.857398269   20.968502687   389.6175   6   5   0.0780   0.0409   0.0871  -0.0428   0.0254  -0.0273   0.00    0.0
2026/01/15 05:23:00.000   67.857398258   20.968502778   389.6232   6   5   0.0780   0.0409   0.0871  -0.0428   0.0254  -0.0273   0.00    0.0
2026/01/15 05:23:30.000   67.857398216   20.968502941   389.6283   6   6   0.0780   0.0409   0.0871  -0.0428   0.0254  -0.0273   0.00    0.0
2026/01/15 05:25:00.000   67.857397524   20.968504764   389.5877   6   6   0.0780   0.0408   0.0871  -0.0428   0.0258  -0.0276   0.00    0.0
2026/01/15 05:25:30.000   67.857397324   20.968505349   389.5733   6   6   0.0781   0.0409   0.0870  -0.0428   0.0260  -0.0278   0.00    0.0
2026/01/15 05:26:00.000   67.857397165   20.968505784   389.5779   6   6   0.0781   0.0410   0.0870  -0.0430   0.0261  -0.0279   0.00    0.0
2026/01/15 05:28:30.000   67.857397113   20.968506013   389.5938   6   6   0.0783   0.0411   0.0871  -0.0431   0.0261  -0.0278   0.00    0.0
2026/01/15 05:29:00.000   67.857396952   20.968506453   389.5887   6   6   0.0783   0.0410   0.0871  -0.0431   0.0262  -0.0278   0.00    0.0
2026/01/15 05:29:30.000   67.857396621   20.968507340   389.5673   6   6   0.0782   0.0409   0.0871  -0.0429   0.0263  -0.0280   0.00    0.0
2026/01/15 05:30:00.000   67.857396490   20.968507871   389.5464   6   5   0.0782   0.0410   0.0870  -0.0430   0.0264  -0.0280   0.00    0.0
2026/01/15 05:30:30.000   67.857396083   20.968508893   389.5278   6   6   0.0783   0.0410   0.0870  -0.0430   0.0266  -0.0282   0.00    0.0
2026/01/15 05:31:00.000   67.857395932   20.968509301   389.5277   6   7   0.0783   0.0410   0.0870  -0.0431   0.0267  -0.0283   0.00    0.0
2026/01/15 05:32:00.000   67.857395894   20.968509514   389.5366   6   7   0.0784   0.0410   0.0870  -0.0431   0.0267  -0.0283   0.00    0.0
2026/01/15 05:32:30.000   67.857395908   20.968509574   389.5444   6   7   0.0784   0.0411   0.0870  -0.0432   0.0267  -0.0283   0.00    0.0
2026/01/15 05:33:00.000   67.857395896   20.968509688   389.5497   6   7   0.0784   0.0410   0.0870  -0.0431   0.0267  -0.0283   0.00    0.0
2026/01/15 05:33:30.000   67.857395855   20.968509877   389.5526   6   7   0.0784   0.0410   0.0870  -0.0431   0.0268  -0.0283   0.00    0.0
2026/01/15 05:34:00.000   67.857395740   20.968510249   389.5496   6   7   0.0783   0.0409   0.0870  -0.0430   0.0268  -0.0283   0.00    0.0
2026/01/15 05:34:30.000   67.857395777   20.968510376   389.5410   6   6   0.0784   0.0410   0.0869  -0.0431   0.0268  -0.0282   0.00    0.0
2026/01/15 05:35:00.000   67.857395919   20.968510393   389.5063   6   6   0.0786   0.0411   0.0869  -0.0433   0.0268  -0.0282   0.00    0.0
2026/01/15 05:35:30.000   67.857396003   20.968510383   389.4966   6   6   0.0786   0.0412   0.0869  -0.0434   0.0268  -0.0281   0.00    0.0
2026/01/15 05:36:00.000   67.857396159   20.968510190   389.5020   6   6   0.0788   0.0414   0.0869  -0.0436   0.0268  -0.0280   0.00    0.0
2026/01/15 05:36:30.000   67.857395997   20.968510560   389.5134   6   7   0.0790   0.0414   0.0869  -0.0437   0.0269  -0.0281   0.00    0.0
2026/01/15 05:37:00.000   67.857395919   20.968510766   389.5214   6   7   0.0790   0.0415   0.0869  -0.0438   0.0269  -0.0282   0.00    0.0
2026/01/15 05:37:30.000   67.857395883   20.968510895   389.5287   6   7   0.0791   0.0415   0.0869  -0.0438   0.0269  -0.0282   0.00    0.0
2026/01/15 05:38:00.000   67.857395838   20.968511047   389.5326   6   7   0.0791   0.0414   0.0869  -0.0438   0.0269  -0.0282   0.00    0.0
2026/01/15 05:38:30.000   67.857395828   20.968511125   389.5355   6   6   0.0791   0.0415   0.0869  -0.0439   0.0269  -0.0282   0.00    0.0
2026/01/15 05:39:00.000   67.857395812   20.968511232   389.5325   6   6   0.0792   0.0415   0.0869  -0.0439   0.0270  -0.0281   0.00    0.0
2026/01/15 05:39:30.000   67.857395787   20.968511313   389.5352   6   4   0.0793   0.0416   0.0869  -0.0441   0.0270  -0.0282   0.00    0.0
2026/01/15 05:40:30.000   67.857395628   20.968511710   389.5297   6   4   0.0800   0.0421   0.0870  -0.0448   0.0272  -0.0285   0.00    0.0
2026/01/15 05:41:00.000   67.857395650   20.968511719   389.5293   6   6   0.0804   0.0423   0.0870  -0.0452   0.0273  -0.0287   0.00    0.0
2026/01/15 05:41:30.000   67.857395637   20.968511806   389.5372   6   6   0.0806   0.0424   0.0870  -0.0453   0.0274  -0.0287   0.00    0.0
2026/01/15 05:42:00.000   67.857395631   20.968511884   389.5486   6   7   0.0806   0.0425   0.0870  -0.0454   0.0274  -0.0287   0.00    0.0
2026/01/15 05:42:30.000   67.857395643   20.968511928   389.5574   6   7   0.0807   0.0425   0.0870  -0.0455   0.0274  -0.0287   0.00    0.0
2026/01/15 05:43:00.000   67.857395659   20.968511967   389.5627   6   7   0.0807   0.0425   0.0870  -0.0455   0.0274  -0.0287   0.00    0.0
2026/01/15 05:43:30.000   67.857395669   20.968512017   389.5644   6   7   0.0808   0.0425   0.0870  -0.0455   0.0274  -0.0286   0.00    0.0
2026/01/15 05:44:00.000   67.857395704   20.968512007   389.5717   6   6   0.0808   0.0426   0.0870  -0.0456   0.0274  -0.0286   0.00    0.0
2026/01/15 05:44:30.000   67.857395762   20.968511946   389.5744   6   6   0.0809   0.0426   0.0870  -0.0457   0.0274  -0.0286   0.00    0.0
2026/01/15 05:45:30.000   67.857395650   20.968512157   389.5877   6   6   0.0815   0.0430   0.0871  -0.0463   0.0275  -0.0288   0.00    0.0
2026/01/15 05:46:30.000   67.857395659   20.968512199   389.6088   6   7   0.0819   0.0433   0.0871  -0.0467   0.0276  -0.0290   0.00    0.0
2026/01/15 05:47:00.000   67.857395674   20.968512225   389.6185   6   7   0.0820   0.0433   0.0871  -0.0468   0.0276  -0.0289   0.00    0.0
2026/01/15 05:47:30.000   67.857395667   20.968512298   389.6305   6   7   0.0820   0.0433   0.0872  -0.0468   0.0277  -0.0289   0.00    0.0
2026/01/15 05:48:00.000   67.857395681   20.968512333   389.6401   6   7   0.0821   0.0433   0.0872  -0.0468   0.0276  -0.0289   0.00    0.0
2026/01/15 05:48:30.000   67.857395695   20.968512364   389.6490   6   7   0.0821   0.0434   0.0872  -0.0468   0.0276  -0.0288   0.00    0.0
2026/01/15 05:49:30.000   67.857395710   20.968512421   389.6623   6   5   0.0822   0.0434   0.0872  -0.0469   0.0276  -0.0288   0.00    0.0
2026/01/15 05:50:00.000   67.857395763   20.968512403   389.6738   6   5   0.0822   0.0435   0.0872  -0.0470   0.0276  -0.0287   0.00    0.0
2026/01/15 05:50:30.000   67.857395793   20.968512418   389.6919   6   5   0.0826   0.0437   0.0873  -0.0473   0.0277  -0.0288   0.00    0.0
2026/01/15 05:51:00.000   67.857395781   20.968512501   389.7094   6   5   0.0828   0.0438   0.0873  -0.0476   0.0277  -0.0289   0.00    0.0
2026/01/15 05:51:30.000   67.857395730   20.968512672   389.7301   6   7   0.0829   0.0439   0.0873  -0.0477   0.0278  -0.0289   0.00    0.0
2026/01/15 05:52:00.000   67.857395706   20.968512777   389.7436   6   7   0.0830   0.0439   0.0873  -0.0477   0.0278  -0.0289   0.00    0.0
2026/01/15 05:52:30.000   67.857395705   20.968512840   389.7543   6   7   0.0830   0.0439   0.0874  -0.0477   0.0278  -0.0289   0.00    0.0
2026/01/15 05:53:00.000   67.857395707   20.968512887   389.7622   6   7   0.0830   0.0439   0.0874  -0.0477   0.0278  -0.0288   0.00    0.0
2026/01/15 05:53:30.000   67.857395705   20.968512942   389.7699   6   7   0.0830   0.0439   0.0874  -0.0477   0.0278  -0.0288   0.00    0.0
2026/01/15 05:54:00.000   67.857395687   20.968513015   389.7749   6   7   0.0830   0.0439   0.0874  -0.0477   0.0277  -0.0287   0.00    0.0
2026/01/15 05:54:30.000   67.857395673   20.968513075   389.7814   6   6   0.0830   0.0439   0.0874  -0.0477   0.0277  -0.0286   0.00    0.0
2026/01/15 05:55:00.000   67.857395652   20.968513167   389.7916   6   6   0.0829   0.0439   0.0874  -0.0476   0.0277  -0.0285   0.00    0.0
2026/01/15 05:55:30.000   67.857395566   20.968513383   389.8123   6   6   0.0831   0.0440   0.0875  -0.0478   0.0278  -0.0286   0.00    0.0
2026/01/15 05:56:00.000   67.857395527   20.968513512   389.8272   6   6   0.0832   0.0441   0.0875  -0.0480   0.0278  -0.0287   0.00    0.0
2026/01/15 05:57:00.000   67.857395511   20.968513613   389.8413   6   7   0.0834   0.0442   0.0875  -0.0481   0.0278  -0.0287   0.00    0.0
2026/01/15 05:57:30.000   67.857395524   20.968513643   389.8493   6   7   0.0834   0.0442   0.0876  -0.0481   0.0278  -0.0286   0.00    0.0
2026/01/15 05:58:00.000   67.857395547   20.968513655   389.8559   6   7   0.0834   0.0442   0.0876  -0.0481   0.0278  -0.0286   0.00    0.0
2026/01/15 05:58:30.000   67.857395584   20.968513644   389.8617   6   7   0.0834   0.0442   0.0876  -0.0481   0.0278  -0.0285   0.00    0.0
2026/01/15 05:59:00.000   67.857395593   20.968513674   389.8677   6   6   0.0834   0.0441   0.0876  -0.0480   0.0278  -0.0284   0.00    0.0
2026/01/15 05:59:30.000   67.857395628   20.968513665   389.8723   6   6   0.0832   0.0441   0.0876  -0.0479   0.0277  -0.0283   0.00    0.0
2026/01/15 06:00:00.000   67.857395660   20.968513685   389.8794   6   5   0.0830   0.0440   0.0876  -0.0477   0.0276  -0.0282   0.00    0.0
2026/01/15 06:00:30.000   67.857395541   20.968513949   389.8939   6   5   0.0831   0.0440   0.0876  -0.0478   0.0277  -0.0282   0.00    0.0
2026/01/15 06:01:30.000   67.857395470   20.968514172   389.9123   6   7   0.0831   0.0440   0.0876  -0.0478   0.0277  -0.0283   0.00    0.0
2026/01/15 06:02:00.000   67.857395463   20.968514265   389.9246   6   7   0.0831   0.0441   0.0876  -0.0478   0.0277  -0.0282   0.00    0.0
2026/01/15 06:02:30.000   67.857395438   20.968514379   389.9384   6   7   0.0832   0.0441   0.0877  -0.0479   0.0277  -0.0282   0.00    0.0
2026/01/15 06:03:00.000   67.857395442   20.968514442   389.9490   6   7   0.0831   0.0441   0.0877  -0.0478   0.0277  -0.0282   0.00    0.0
2026/01/15 06:03:30.000   67.857395435   20.968514525   389.9592   6   7   0.0831   0.0440   0.0877  -0.0478   0.0277  -0.0281   0.00    0.0
2026/01/15 06:04:00.000   67.857395410   20.968514637   389.9687   6   6   0.0831   0.0440   0.0877  -0.0478   0.0277  -0.0281   0.00    0.0
2026/01/15 06:05:30.000   67.857395497   20.968514694   389.9845   6   5   0.0826   0.0438   0.0877  -0.0474   0.0276  -0.0278   0.00    0.0
2026/01/15 06:06:00.000   67.857395476   20.968514830   389.9948   6   5   0.0826   0.0438   0.0878  -0.0474   0.0276  -0.0278   0.00    0.0
2026/01/15 06:06:30.000   67.857395475   20.968514923   390.0078   6   6   0.0827   0.0438   0.0878  -0.0474   0.0277  -0.0278   0.00    0.0
2026/01/15 06:07:00.000   67.857395482   20.968514987   390.0192   6   6   0.0827   0.0438   0.0878  -0.0474   0.0276  -0.0277   0.00    0.0
2026/01/15 06:07:30.000   67.857395515   20.968514995   390.0306   6   6   0.0827   0.0438   0.0878  -0.0474   0.0276  -0.0277   0.00    0.0
2026/01/15 06:08:00.000   67.857395549   20.968514998   390.0401   6   6   0.0826   0.0438   0.0878  -0.0473   0.0276  -0.0276   0.00    0.0
2026/01/15 06:08:30.000   67.857395598   20.968514975   390.0491   6   6   0.0826   0.0438   0.0878  -0.0473   0.0276  -0.0275   0.00    0.0
2026/01/15 06:09:00.000   67.857395639   20.968514957   390.0583   6   5   0.0825   0.0437   0.0878  -0.0472   0.0275  -0.0274   0.00    0.0
2026/01/15 06:09:30.000   67.857395703   20.968514918   390.0640   6   5   0.0822   0.0435   0.0878  -0.0469   0.0274  -0.0271   0.00    0.0
2026/01/15 06:10:00.000   67.857395882   20.968514728   390.0671   6   5   0.0817   0.0432   0.0878  -0.0464   0.0272  -0.0267   0.00    0.0
2026/01/15 06:10:30.000   67.857395945   20.968514750   390.0769   6   5   0.0815   0.0431   0.0878  -0.0462   0.0271  -0.0265   0.00    0.0
2026/01/15 06:11:00.000   67.857395949   20.968514821   390.0861   6   5   0.0815   0.0431   0.0878  -0.0462   0.0271  -0.0265   0.00    0.0
2026/01/15 06:11:30.000   67.857395990   20.968514824   390.0969   6   6   0.0815   0.0431   0.0878  -0.0462   0.0271  -0.0264   0.00    0.0
2026/01/15 06:12:00.000   67.857396011   20.968514842   390.1051   6   6   0.0815   0.0431   0.0878  -0.0462   0.0270  -0.0264   0.00    0.0
2026/01/15 06:12:30.000   67.857396030   20.968514859   390.1122   6   6   0.0815   0.0431   0.0879  -0.0462   0.0270  -0.0263   0.00    0.0
2026/01/15 06:13:00.000   67.857396056   20.968514867   390.1184   6   6   0.0814   0.0431   0.0879  -0.0461   0.0270  -0.0262   0.00    0.0
2026/01/15 06:13:30.000   67.857396086   20.968514867   390.1233   6   6   0.0814   0.0430   0.0879  -0.0461   0.0270  -0.0261   0.00    0.0
2026/01/15 06:14:00.000   67.857396162   20.968514786   390.1259   6   5   0.0813   0.0430   0.0879  -0.0459   0.0269  -0.0260   0.00    0.0
2026/01/15 06:14:30.000   67.857396339   20.968514556   390.1249   6   4   0.0809   0.0428   0.0879  -0.0456   0.0267  -0.0256   0.00    0.0
2026/01/15 06:15:00.000   67.857396713   20.968514041   390.1174   6   4   0.0802   0.0424   0.0878  -0.0449   0.0264  -0.0250   0.00    0.0
2026/01/15 06:15:30.000   67.857396854   20.968513883   390.1189   6   4   0.0800   0.0422   0.0878  -0.0447   0.0263  -0.0247   0.00    0.0
2026/01/15 06:16:30.000   67.857396927   20.968513854   390.1305   6   5   0.0798   0.0421   0.0878  -0.0445   0.0262  -0.0246   0.00    0.0
2026/01/15 06:17:00.000   67.857396849   20.968514019   390.1426   6   5   0.0799   0.0422   0.0878  -0.0446   0.0262  -0.0246   0.00    0.0
2026/01/15 06:17:30.000   67.857396816   20.968514116   390.1524   6   5   0.0799   0.0422   0.0878  -0.0446   0.0262  -0.0246   0.00    0.0
2026/01/15 06:18:00.000   67.857396821   20.968514151   390.1599   6   5   0.0799   0.0422   0.0879  -0.0445   0.0262  -0.0245   0.00    0.0
2026/01/15 06:18:30.000   67.857396834   20.968514176   390.1674   6   5   0.0798   0.0421   0.0879  -0.0445   0.0262  -0.0244   0.00    0.0
2026/01/15 06:19:00.000   67.857396845   20.968514208   390.1754   6   4   0.0797   0.0421   0.0879  -0.0444   0.0261  -0.0243   0.00    0.0
2026/01/15 06:21:30.000   67.857397990   20.968512707   390.1677   6   5   0.0781   0.0411   0.0877  -0.0427   0.0252  -0.0225   0.00    0.0
2026/01/15 06:22:00.000   67.857397987   20.968512760   390.1775   6   5   0.0781   0.0411   0.0878  -0.0427   0.0252  -0.0224   0.00    0.0
2026/01/15 06:22:30.000   67.857397998   20.968512796   390.1866   6   5   0.0781   0.0411   0.0878  -0.0427   0.0252  -0.0224   0.00    0.0
2026/01/15 06:23:00.000   67.857398020   20.968512807   390.1931   6   5   0.0781   0.0410   0.0878  -0.0427   0.0252  -0.0223   0.00    0.0
2026/01/15 06:23:30.000   67.857398057   20.968512790   390.1973   6   5   0.0780   0.0410   0.0878  -0.0426   0.0251  -0.0222   0.00    0.0
2026/01/15 06:24:00.000   67.857398178   20.968512646   390.1997   6   4   0.0779   0.0409   0.0878  -0.0424   0.0250  -0.0220   0.00    0.0
2026/01/15 06:24:30.000   67.857398515   20.968512183   390.1944   6   4   0.0775   0.0407   0.0878  -0.0420   0.0248  -0.0214   0.00    0.0
2026/01/15 06:26:00.000   67.857398796   20.968511800   390.1986   6   4   0.0771   0.0404   0.0878  -0.0416   0.0245  -0.0209   0.00    0.0
2026/01/15 06:27:00.000   67.857398747   20.968511945   390.2232   6   5   0.0771   0.0404   0.0877  -0.0416   0.0245  -0.0208   0.00    0.0
2026/01/15 06:27:30.000   67.857398774   20.968511944   390.2299   6   5   0.0771   0.0404   0.0877  -0.0416   0.0245  -0.0207   0.00    0.0
2026/01/15 06:28:00.000   67.857398833   20.968511897   390.2353   6   5   0.0771   0.0404   0.0878  -0.0416   0.0245  -0.0205   0.00    0.0
2026/01/15 06:28:30.000   67.857398938   20.968511779   390.2380   6   5   0.0770   0.0403   0.0877  -0.0415   0.0244  -0.0204   0.00    0.0
2026/01/15 06:29:00.000   67.857399168   20.968511469   390.2348   6   5   0.0768   0.0402   0.0877  -0.0412   0.0242  -0.0200   0.00    0.0
2026/01/15 06:31:30.000   67.857399228   20.968511530   390.2582   6   5   0.0766   0.0401   0.0877  -0.0410   0.0241  -0.0196   0.00    0.0
2026/01/15 06:32:00.000   67.857399363   20.968511377   390.2657   6   5   0.0765   0.0400   0.0877  -0.0409   0.0240  -0.0194   0.00    0.0
2026/01/15 06:32:30.000   67.857399467   20.968511274   390.2752   6   5   0.0765   0.0400   0.0878  -0.0409   0.0239  -0.0192   0.00    0.0
2026/01/15 06:33:00.000   67.857399586   20.968511139   390.2802   6   5   0.0764   0.0399   0.0878  -0.0408   0.0239  -0.0190   0.00    0.0
2026/01/15 06:37:00.000   67.857400026   20.968510779   390.3176   6   4   0.0757   0.0394   0.0877  -0.0400   0.0234  -0.0177   0.00    0.0
2026/01/15 06:37:30.000   67.857400134   20.968510655   390.3208   6   5   0.0756   0.0394   0.0877  -0.0399   0.0234  -0.0175   0.00    0.0
2026/01/15 06:38:00.000   67.857400298   20.968510446   390.3210   6   5   0.0756   0.0393   0.0877  -0.0398   0.0233  -0.0172   0.00    0.0
2026/01/15 06:38:30.000   67.857400346   20.968510395   390.3250   6   4   0.0755   0.0393   0.0877  -0.0397   0.0232  -0.0170   0.00    0.0
2026/01/15 06:41:00.000   67.857400501   20.968510296   390.3465   6   4   0.0754   0.0392   0.0878  -0.0395   0.0230  -0.0163   0.00    0.0
2026/01/15 06:41:30.000   67.857400499   20.968510336   390.3540   6   4   0.0754   0.0392   0.0878  -0.0395   0.0230  -0.0163   0.00    0.0
2026/01/15 06:42:00.000   67.857400496   20.968510370   390.3502   6   4   0.0754   0.0392   0.0877  -0.0395   0.0230  -0.0162   0.00    0.0
2026/01/15 06:42:30.000   67.857400500   20.968510407   390.3575   6   4   0.0754   0.0392   0.0877  -0.0395   0.0230  -0.0161   0.00    0.0
2026/01/15 06:43:00.000   67.857400499   20.968510441   390.3629   6   4   0.0754   0.0392   0.0877  -0.0395   0.0230  -0.0161   0.00    0.0
2026/01/15 06:46:30.000   67.857400700   20.968510338   390.3821   6   4   0.0753   0.0391   0.0877  -0.0394   0.0228  -0.0155   0.00    0.0
2026/01/15 06:47:00.000   67.857400678   20.968510436   390.3979   6   4   0.0753   0.0391   0.0877  -0.0394   0.0228  -0.0154   0.00    0.0
2026/01/15 06:47:30.000   67.857400657   20.968510516   390.3990   6   4   0.0753   0.0391   0.0876  -0.0394   0.0228  -0.0154   0.00    0.0
2026/01/15 06:48:00.000   67.857400638   20.968510581   390.3943   6   4   0.0753   0.0391   0.0875  -0.0394   0.0228  -0.0155   0.00    0.0
2026/01/15 06:48:30.000   67.857400637   20.968510633   390.4025   6   4   0.0753   0.0391   0.0875  -0.0394   0.0228  -0.0154   0.00    0.0
2026/01/15 06:49:00.000   67.857400643   20.968510669   390.4088   6   4   0.0754   0.0391   0.0875  -0.0394   0.0228  -0.0153   0.00    0.0
2026/01/15 06:51:30.000   67.857400713   20.968510748   390.4272   6   4   0.0753   0.0391   0.0875  -0.0393   0.0227  -0.0148   0.00    0.0
2026/01/15 06:52:00.000   67.857400712   20.968510789   390.4347   6   4   0.0753   0.0391   0.0876  -0.0393   0.0227  -0.0147   0.00    0.0
2026/01/15 06:53:00.000   67.857400736   20.968510823   390.4451   6   4   0.0753   0.0391   0.0875  -0.0393   0.0226  -0.0146   0.00    0.0
2026/01/15 06:53:30.000   67.857400764   20.968510803   390.4457   6   4   0.0753   0.0390   0.0875  -0.0393   0.0226  -0.0145   0.00    0.0
2026/01/15 06:56:30.000   67.857400827   20.968510954   390.4795   6   4   0.0752   0.0390   0.0876  -0.0392   0.0225  -0.0137   0.00    0.0
2026/01/15 06:57:00.000   67.857400829   20.968510997   390.4876   6   4   0.0752   0.0390   0.0876  -0.0392   0.0225  -0.0137   0.00    0.0
2026/01/15 06:57:30.000   67.857400827   20.968511040   390.4951   6   4   0.0752   0.0390   0.0876  -0.0392   0.0224  -0.0136   0.00    0.0
2026/01/15 06:58:00.000   67.857400832   20.968511073   390.5018   6   4   0.0752   0.0390   0.0877  -0.0392   0.0224  -0.0135   0.00    0.0
2026/01/15 06:58:30.000   67.857400837   20.968511104   390.5078   6   4   0.0753   0.0390   0.0877  -0.0392   0.0224  -0.0134   0.00    0.0
2026/01/15 07:01:30.000   67.857401226   20.968510879   390.5247   6   4   0.0752   0.0389   0.0877  -0.0391   0.0222  -0.0123   0.00    0.0
2026/01/15 07:02:00.000   67.857401324   20.968510818   390.5340   6   4   0.0752   0.0389   0.0877  -0.0391   0.0222  -0.0122   0.00    0.0
2026/01/15 07:02:30.000   67.857401381   20.968510797   390.5417   6   4   0.0752   0.0389   0.0877  -0.0392   0.0221  -0.0120   0.00    0.0
2026/01/15 07:03:00.000   67.857401422   20.968510793   390.5490   6   4   0.0753   0.0389   0.0877  -0.0392   0.0221  -0.0119   0.00    0.0
2026/01/15 07:07:00.000   67.857401988   20.968510360   390.5386   6   4   0.0754   0.0390   0.0875  -0.0392   0.0219  -0.0108   0.00    0.0
2026/01/15 07:07:30.000   67.857401973   20.968510438   390.5489   6   4   0.0754   0.0390   0.0875  -0.0392   0.0219  -0.0107   0.00    0.0
2026/01/15 07:08:00.000   67.857401968   20.968510497   390.5578   6   4   0.0755   0.0390   0.0875  -0.0393   0.0219  -0.0106   0.00    0.0
2026/01/15 07:08:30.000   67.857401961   20.968510558   390.5657   6   4   0.0755   0.0390   0.0875  -0.0393   0.0219  -0.0106   0.00    0.0
2026/01/15 07:11:00.000   67.857402866   20.968509777   390.5691   6   4   0.0761   0.0391   0.0875  -0.0397   0.0218  -0.0095   0.00    0.0
2026/01/15 07:11:30.000   67.857402868   20.968509839   390.5775   6   4   0.0762   0.0392   0.0875  -0.0398   0.0218  -0.0095   0.00    0.0
2026/01/15 07:12:30.000   67.857402873   20.968509919   390.5909   6   4   0.0762   0.0392   0.0875  -0.0398   0.0217  -0.0094   0.00    0.0
2026/01/15 07:13:00.000   67.857402879   20.968509947   390.5960   6   4   0.0763   0.0392   0.0875  -0.0398   0.0217  -0.0093   0.00    0.0
2026/01/15 07:13:30.000   67.857402898   20.968509956   390.5991   6   4   0.0763   0.0392   0.0875  -0.0398   0.0217  -0.0091   0.00    0.0
2026/01/15 07:17:30.000   67.857402980   20.968510058   390.6179   6   4   0.0767   0.0393   0.0876  -0.0401   0.0217  -0.0089   0.00    0.0
2026/01/15 07:23:30.000   67.857403154   20.968510004   390.6335   6   4   0.0773   0.0394   0.0877  -0.0404   0.0217  -0.0079   0.00    0.0
2026/01/15 07:24:00.000   67.857403174   20.968510013   390.6412   6   4   0.0772   0.0394   0.0878  -0.0404   0.0216  -0.0076   0.00    0.0
2026/01/15 07:27:00.000   67.857404147   20.968508855   390.7889   6   4   0.0764   0.0389   0.0870  -0.0395   0.0227  -0.0124   0.00    0.0
2026/01/15 07:27:30.000   67.857404072   20.968509003   390.8036   6   4   0.0764   0.0389   0.0870  -0.0395   0.0227  -0.0124   0.00    0.0
2026/01/15 07:28:00.000   67.857404038   20.968509086   390.8145   6   4   0.0765   0.0389   0.0871  -0.0395   0.0227  -0.0124   0.00    0.0
2026/01/15 07:28:30.000   67.857404009   20.968509162   390.8271   6   4   0.0765   0.0389   0.0871  -0.0395   0.0227  -0.0124   0.00    0.0
2026/01/15 07:31:30.000   67.857403378   20.968510128   390.9115   6   4   0.0767   0.0390   0.0871  -0.0397   0.0230  -0.0135   0.00    0.0
2026/01/15 07:32:00.000   67.857403271   20.968510303   390.9250   6   4   0.0768   0.0390   0.0871  -0.0398   0.0231  -0.0136   0.00    0.0
2026/01/15 07:32:30.000   67.857403209   20.968510416   390.9360   6   4   0.0768   0.0390   0.0871  -0.0398   0.0231  -0.0136   0.00    0.0
2026/01/15 07:33:00.000   67.857403173   20.968510502   390.9464   6   4   0.0768   0.0390   0.0871  -0.0398   0.0231  -0.0136   0.00    0.0
2026/01/15 07:33:30.000   67.857403122   20.968510603   390.9569   6   4   0.0769   0.0390   0.0872  -0.0398   0.0231  -0.0136   0.00    0.0
2026/01/15 07:34:00.000   67.857403046   20.968510736   390.9689   6   4   0.0769   0.0390   0.0872  -0.0398   0.0231  -0.0136   0.00    0.0
2026/01/15 07:36:00.000   67.857402736   20.968511383   391.0166   6   4   0.0770   0.0391   0.0872  -0.0400   0.0234  -0.0142   0.00    0.0
2026/01/15 07:36:30.000   67.857402634   20.968511548   391.0297   6   4   0.0771   0.0392   0.0872  -0.0401   0.0234  -0.0143   0.00    0.0
2026/01/15 07:37:00.000   67.857402581   20.968511648   391.0400   6   4   0.0771   0.0392   0.0872  -0.0401   0.0234  -0.0143   0.00    0.0
2026/01/15 07:37:30.000   67.857402550   20.968511720   391.0489   6   4   0.0771   0.0392   0.0873  -0.0401   0.0234  -0.0143   0.00    0.0
2026/01/15 07:38:00.000   67.857402528   20.968511780   391.0568   6   4   0.0771   0.0392   0.0873  -0.0401   0.0234  -0.0142   0.00    0.0
2026/01/15 07:38:30.000   67.857402506   20.968511836   391.0643   6   4   0.0771   0.0392   0.0873  -0.0401   0.0234  -0.0142   0.00    0.0
2026/01/15 07:39:00.000   67.857402482   20.968511881   391.0685   6   4   0.0772   0.0392   0.0873  -0.0401   0.0234  -0.0141   0.00    0.0
2026/01/15 07:42:30.000   67.857402302   20.968512186   391.1093   6   4   0.0774   0.0393   0.0874  -0.0403   0.0235  -0.0142   0.00    0.0
2026/01/15 07:43:00.000   67.857402309   20.968512195   391.1131   6   4   0.0774   0.0393   0.0874  -0.0403   0.0235  -0.0141   0.00    0.0
2026/01/15 07:46:00.000   67.857402432   20.968512059   391.1497   6   4   0.0776   0.0394   0.0874  -0.0405   0.0234  -0.0137   0.00    0.0
2026/01/15 07:46:30.000   67.857402469   20.968512032   391.1592   6   4   0.0776   0.0394   0.0874  -0.0405   0.0234  -0.0136   0.00    0.0
2026/01/15 07:47:00.000   67.857402485   20.968512040   391.1679   6   4   0.0776   0.0394   0.0874  -0.0405   0.0234  -0.0135   0.00    0.0
2026/01/15 07:47:30.000   67.857402491   20.968512062   391.1757   6   4   0.0776   0.0394   0.0875  -0.0405   0.0234  -0.0134   0.00    0.0
2026/01/15 07:48:00.000   67.857402493   20.968512089   391.1836   6   4   0.0777   0.0394   0.0875  -0.0405   0.0234  -0.0133   0.00    0.0
2026/01/15 07:52:00.000   67.857402623   20.968512127   391.2362   6   4   0.0777   0.0394   0.0875  -0.0405   0.0233  -0.0128   0.00    0.0
2026/01/15 17:54:30.000   67.857510741   20.968679445   401.9568   6   4   0.1413   0.0666   0.1106   0.0652  -0.0260   0.0391   0.00    0.0
2026/01/15 17:55:00.000   67.857510728   20.968679368   401.9830   6   4   0.1413   0.0666   0.1106   0.0652  -0.0260   0.0391   0.00    0.0
2026/01/15 17:56:30.000   67.857513053   20.968681041   402.1554   6   4   0.1427   0.0668   0.1110   0.0660  -0.0261   0.0387   0.00    0.0
2026/01/15 17:57:00.000   67.857513026   20.968681178   402.1691   6   4   0.1427   0.0668   0.1110   0.0660  -0.0260   0.0387   0.00    0.0
2026/01/15 17:57:30.000   67.857513011   20.968681255   402.1702   6   4   0.1427   0.0668   0.1110   0.0660  -0.0260   0.0387   0.00    0.0
2026/01/15 17:58:00.000   67.857512997   20.968681293   402.1656   6   4   0.1427   0.0668   0.1109   0.0660  -0.0260   0.0386   0.00    0.0
2026/01/15 17:58:30.000   67.857512985   20.968681326   402.1581   6   4   0.1427   0.0668   0.1109   0.0660  -0.0260   0.0386   0.00    0.0
2026/01/15 18:02:00.000   67.857512582   20.968682653   402.1291   6   4   0.1431   0.0669   0.1106   0.0660  -0.0259   0.0377   0.00    0.0
2026/01/15 18:02:30.000   67.857512619   20.968682668   402.1402   6   4   0.1431   0.0669   0.1106   0.0660  -0.0259   0.0377   0.00    0.0
2026/01/15 18:03:00.000   67.857513038   20.968682999   402.1416   6   4   0.1433   0.0670   0.1106   0.0662  -0.0259   0.0377   0.00    0.0
2026/01/15 18:03:30.000   67.857513066   20.968682968   402.1408   6   4   0.1433   0.0670   0.1105   0.0662  -0.0259   0.0377   0.00    0.0
2026/01/15 18:04:00.000   67.857513146   20.968682885   402.1361   6   4   0.1433   0.0670   0.1105   0.0662  -0.0259   0.0377   0.00    0.0
2026/01/15 18:11:30.000   67.857515069   20.968686337   402.2002   6   4   0.1440   0.0674   0.1105   0.0670  -0.0258   0.0372   0.00    0.0
2026/01/15 18:12:00.000   67.857515148   20.968686385   402.2146   6   4   0.1440   0.0674   0.1105   0.0670  -0.0258   0.0373   0.00    0.0
2026/01/15 18:12:30.000   67.857515168   20.968686392   402.2154   6   4   0.1440   0.0674   0.1104   0.0670  -0.0258   0.0373   0.00    0.0
2026/01/15 18:18:00.000   67.857514579   20.968686218   402.2495   6   4   0.1440   0.0677   0.1107   0.0674  -0.0267   0.0358   0.00    0.0
2026/01/15 18:22:00.000   67.857513000   20.968685940   402.2531   6   4   0.1444   0.0677   0.1106   0.0673  -0.0268   0.0346   0.00    0.0
2026/01/15 18:22:30.000   67.857512933   20.968685893   402.2496   6   4   0.1444   0.0676   0.1105   0.0673  -0.0267   0.0346   0.00    0.0
2026/01/15 18:23:00.000   67.857512893   20.968685867   402.2427   6   4   0.1444   0.0676   0.1105   0.0672  -0.0267   0.0346   0.00    0.0
2026/01/15 18:23:30.000   67.857512875   20.968685844   402.2348   6   4   0.1443   0.0676   0.1104   0.0672  -0.0267   0.0347   0.00    0.0
2026/01/15 18:24:00.000   67.857512915   20.968685838   402.2260   6   4   0.1443   0.0676   0.1104   0.0672  -0.0267   0.0347   0.00    0.0
2026/01/15 18:27:00.000   67.857513216   20.968685960   402.2428   6   4   0.1446   0.0676   0.1103   0.0672  -0.0264   0.0349   0.00    0.0
2026/01/15 18:27:30.000   67.857513218   20.968685979   402.2487   6   4   0.1447   0.0676   0.1103   0.0671  -0.0264   0.0349   0.00    0.0
2026/01/15 18:31:00.000   67.857515086   20.968683815   402.3367   6   4   0.1489   0.0681   0.1106   0.0670  -0.0282   0.0343   0.00    0.0
2026/01/15 18:31:30.000   67.857515170   20.968683813   402.3339   6   4   0.1491   0.0681   0.1106   0.0670  -0.0282   0.0344   0.00    0.0
2026/01/15 18:32:00.000   67.857515207   20.968683820   402.3260   6   4   0.1492   0.0681   0.1105   0.0669  -0.0282   0.0344   0.00    0.0
2026/01/15 18:32:30.000   67.857515229   20.968683837   402.3169   6   4   0.1493   0.0681   0.1105   0.0669  -0.0282   0.0344   0.00    0.0
2026/01/15 18:33:00.000   67.857515234   20.968683849   402.3046   6   4   0.1493   0.0681   0.1104   0.0669  -0.0281   0.0344   0.00    0.0
2026/01/15 18:36:00.000   67.857516971   20.968683489   402.2960   6   4   0.1511   0.0682   0.1103   0.0666  -0.0281   0.0355   0.00    0.0
2026/01/15 18:36:30.000   67.857517113   20.968683485   402.3060   6   4   0.1512   0.0682   0.1103   0.0666  -0.0281   0.0356   0.00    0.0
2026/01/15 18:37:00.000   67.857517168   20.968683494   402.3034   6   4   0.1512   0.0682   0.1102   0.0666  -0.0281   0.0356   0.00    0.0
2026/01/15 18:37:30.000   67.857517188   20.968683506   402.2971   6   4   0.1512   0.0682   0.1102   0.0666  -0.0281   0.0356   0.00    0.0
2026/01/15 18:38:00.000   67.857517196   20.968683526   402.2858   6   4   0.1512   0.0682   0.1101   0.0666  -0.0280   0.0356   0.00    0.0
2026/01/15 18:38:30.000   67.857517214   20.968683547   402.2721   6   4   0.1512   0.0682   0.1101   0.0666  -0.0280   0.0356   0.00    0.0
2026/01/15 18:43:00.000   67.857518875   20.968683477   402.2229   6   4   0.1512   0.0682   0.1099   0.0668  -0.0280   0.0364   0.00    0.0
2026/01/15 18:43:30.000   67.857518767   20.968683527   402.2112   6   4   0.1511   0.0682   0.1099   0.0668  -0.0279   0.0363   0.00    0.0
2026/01/15 18:44:00.000   67.857518536   20.968683613   402.1958   6   4   0.1508   0.0682   0.1098   0.0669  -0.0279   0.0362   0.00    0.0
2026/01/15 18:46:00.000   67.857518260   20.968683949   402.1778   6   4   0.1473   0.0681   0.1097   0.0678  -0.0276   0.0357   0.00    0.0
2026/01/15 18:46:30.000   67.857518065   20.968684030   402.1657   6   4   0.1472   0.0681   0.1097   0.0679  -0.0275   0.0356   0.00    0.0
2026/01/15 18:47:00.000   67.857517940   20.968684088   402.1580   6   4   0.1471   0.0681   0.1097   0.0679  -0.0275   0.0355   0.00    0.0
2026/01/15 18:47:30.000   67.857517844   20.968684137   402.1468   6   4   0.1471   0.0681   0.1096   0.0679  -0.0274   0.0355   0.00    0.0
2026/01/15 18:48:00.000   67.857517802   20.968684175   402.1385   6   4   0.1470   0.0681   0.1096   0.0679  -0.0274   0.0355   0.00    0.0
2026/01/15 18:48:30.000   67.857517735   20.968684212   402.1281   6   4   0.1470   0.0681   0.1095   0.0679  -0.0274   0.0355   0.00    0.0
2026/01/15 18:49:00.000   67.857517582   20.968684288   402.1157   6   4   0.1469   0.0681   0.1095   0.0679  -0.0273   0.0354   0.00    0.0
2026/01/15 18:51:30.000   67.857514231   20.968680944   402.1719   6   4   0.1424   0.0666   0.1093   0.0642  -0.0256   0.0384   0.00    0.0
2026/01/15 18:52:00.000   67.857513989   20.968680836   402.1655   6   4   0.1423   0.0666   0.1093   0.0641  -0.0256   0.0383   0.00    0.0
2026/01/15 18:52:30.000   67.857513824   20.968680780   402.1550   6   4   0.1421   0.0666   0.1093   0.0641  -0.0256   0.0383   0.00    0.0
2026/01/15 18:53:30.000   67.857513469   20.968680604   402.1485   6   4   0.1417   0.0665   0.1092   0.0638  -0.0255   0.0385   0.00    0.0
2026/01/15 18:56:30.000   67.857513693   20.968680942   402.1419   6   4   0.1411   0.0663   0.1092   0.0632  -0.0249   0.0394   0.00    0.0
