% program   : RTKLIB ver.EX 2.5.0
% inp file  : C:\Users\tevin\Desktop\GNSS - MASTA\SPRING SEM\4.SAT NAV DATA PROCESSING\TEAM PROJECT\SNDP-PROJECT\New_Data\obs\RNXDATA\KIRU00SWE_R_20260150000_01D_30S_MO.rnx
% inp file  : C:\Users\tevin\Desktop\GNSS - MASTA\SPRING SEM\4.SAT NAV DATA PROCESSING\TEAM PROJECT\SNDP-PROJECT\Old_data\products\nav\BRDC00IGS_R_20260150000_01D_MN.rnx
% inp file  : C:\Users\tevin\Desktop\GNSS - MASTA\SPRING SEM\4.SAT NAV DATA PROCESSING\TEAM PROJECT\SNDP-PROJECT\Old_data\products\sp3\COD0MGXFIN_20260150000_01D_05M_ORB.SP3
% inp file  : C:\Users\tevin\Desktop\GNSS - MASTA\SPRING SEM\4.SAT NAV DATA PROCESSING\TEAM PROJECT\SNDP-PROJECT\Old_data\products\clk\COD0MGXFIN_20260150000_01D_30S_CLK.CLK
% obs start : 2026/01/15 00:00:00.0 GPST (week2401 345600.0s)
% obs end   : 2026/01/15 23:59:30.0 GPST (week2401 431970.0s)
% pos mode  : PPP Static
% freqs     : L1+L2/E5b
% solution  : Forward
% elev mask : 15.0 deg
% dynamics  : on
% tidecorr  :
% ionos opt : Iono-Free LC
% tropo opt : Saastamoinen
% ephemeris : Precise
% navi sys  : GPS GLONASS Galileo QZSS BDS
% antenna1  : SEPCHOKE_B3E6   SPKE  ( 0.0000  0.0000  0.0620)
%
% (lat/lon/height=WGS84/ellipsoidal,Q=1:fix,2:float,3:sbas,4:dgps,5:single,6:ppp,ns=# of satellites)
%  GPST                  latitude(deg) longitude(deg)  height(m)   Q  ns   sdn(m)   sde(m)   sdu(m)  sdne(m)  sdeu(m)  sdun(m) age(s)  ratio
2026/01/15 00:00:00.000   67.857349408   20.968477922   392.0885   6  10   2.7352   2.7655   6.6883  -0.5684  -0.9100   2.4179   0.00    0.0
2026/01/15 00:21:30.000   67.857349704   20.968464930   391.9022   6   4   0.4113   0.3719   0.9820  -0.0155  -0.2630   0.3664   0.00    0.0
2026/01/15 00:22:00.000   67.857349773   20.968465073   391.9048   6   4   0.4069   0.3676   0.9713  -0.0218  -0.2604   0.3623   0.00    0.0
2026/01/15 00:22:30.000   67.857349792   20.968465355   391.8920   6   4   0.4026   0.3635   0.9609  -0.0265  -0.2578   0.3582   0.00    0.0
2026/01/15 00:23:00.000   67.857349897   20.968465512   391.8925   6   4   0.3985   0.3595   0.9505  -0.0301  -0.2553   0.3542   0.00    0.0
2026/01/15 00:23:30.000   67.857349831   20.968465526   391.8700   6   4   0.3944   0.3556   0.9403  -0.0331  -0.2527   0.3500   0.00    0.0
2026/01/15 00:24:00.000   67.857349701   20.968465478   391.8283   6   4   0.3904   0.3518   0.9301  -0.0357  -0.2502   0.3458   0.00    0.0
2026/01/15 00:24:30.000   67.857349629   20.968465292   391.8004   6   4   0.3864   0.3482   0.9198  -0.0378  -0.2476   0.3415   0.00    0.0
2026/01/15 00:25:00.000   67.857349591   20.968465325   391.8203   6   4   0.3825   0.3446   0.9095  -0.0397  -0.2451   0.3370   0.00    0.0
2026/01/15 00:25:30.000   67.857349649   20.968465544   391.8261   6   4   0.3787   0.3412   0.8995  -0.0406  -0.2420   0.3326   0.00    0.0
2026/01/15 00:26:00.000   67.857349708   20.968465767   391.8160   6   4   0.3749   0.3378   0.8893  -0.0413  -0.2390   0.3281   0.00    0.0
2026/01/15 00:26:30.000   67.857349758   20.968465929   391.8050   6   4   0.3711   0.3346   0.8790  -0.0420  -0.2359   0.3233   0.00    0.0
2026/01/15 00:27:00.000   67.857349774   20.968465980   391.8101   6   4   0.3672   0.3314   0.8684  -0.0425  -0.2328   0.3183   0.00    0.0
2026/01/15 00:27:30.000   67.857349734   20.968466193   391.8001   6   4   0.3634   0.3282   0.8577  -0.0430  -0.2296   0.3130   0.00    0.0
2026/01/15 00:28:00.000   67.857349644   20.968466216   391.7937   6   4   0.3596   0.3252   0.8467  -0.0433  -0.2265   0.3075   0.00    0.0
2026/01/15 00:28:30.000   67.857349674   20.968466068   391.7913   6   4   0.3557   0.3221   0.8355  -0.0436  -0.2232   0.3017   0.00    0.0
2026/01/15 00:29:00.000   67.857349693   20.968466067   391.7964   6   4   0.3519   0.3192   0.8241  -0.0438  -0.2200   0.2957   0.00    0.0
2026/01/15 00:29:30.000   67.857349623   20.968465795   391.7797   6   4   0.3480   0.3163   0.8126  -0.0439  -0.2167   0.2894   0.00    0.0
2026/01/15 00:30:00.000   67.857349639   20.968465910   391.7747   6   4   0.3441   0.3134   0.8006  -0.0441  -0.2134   0.2827   0.00    0.0
2026/01/15 00:30:30.000   67.857349723   20.968466137   391.7494   6   4   0.3410   0.3108   0.7918  -0.0473  -0.2122   0.2790   0.00    0.0
2026/01/15 00:31:00.000   67.857349721   20.968466227   391.7367   6   5   0.3378   0.3082   0.7830  -0.0502  -0.2111   0.2750   0.00    0.0
2026/01/15 00:31:30.000   67.857349603   20.968466225   391.7336   6   5   0.3347   0.3057   0.7740  -0.0530  -0.2099   0.2709   0.00    0.0
2026/01/15 00:32:00.000   67.857349610   20.968466340   391.7149   6   5   0.3316   0.3032   0.7649  -0.0555  -0.2087   0.2666   0.00    0.0
2026/01/15 00:32:30.000   67.857349589   20.968466269   391.7077   6   5   0.3284   0.3008   0.7556  -0.0579  -0.2075   0.2621   0.00    0.0
2026/01/15 00:33:00.000   67.857349569   20.968466293   391.6898   6   5   0.3252   0.2985   0.7462  -0.0601  -0.2062   0.2574   0.00    0.0
2026/01/15 00:33:30.000   67.857349579   20.968466232   391.6783   6   5   0.3220   0.2961   0.7365  -0.0622  -0.2049   0.2525   0.00    0.0
2026/01/15 00:34:00.000   67.857349547   20.968466113   391.6481   6   5   0.3190   0.2939   0.7269  -0.0635  -0.2037   0.2470   0.00    0.0
2026/01/15 00:34:30.000   67.857349498   20.968466171   391.6294   6   6   0.3159   0.2917   0.7174  -0.0650  -0.2028   0.2417   0.00    0.0
2026/01/15 00:35:00.000   67.857349449   20.968466136   391.6009   6   6   0.3129   0.2896   0.7078  -0.0663  -0.2019   0.2361   0.00    0.0
2026/01/15 00:35:30.000   67.857349402   20.968466285   391.5733   6   6   0.3099   0.2876   0.6980  -0.0675  -0.2009   0.2304   0.00    0.0
2026/01/15 00:36:00.000   67.857349293   20.968466367   391.5402   6   6   0.3068   0.2855   0.6881  -0.0687  -0.1999   0.2245   0.00    0.0
2026/01/15 00:36:30.000   67.857349165   20.968466199   391.4976   6   6   0.3038   0.2835   0.6782  -0.0697  -0.1988   0.2184   0.00    0.0
2026/01/15 00:37:00.000   67.857349027   20.968466147   391.4553   6   6   0.3009   0.2815   0.6681  -0.0706  -0.1976   0.2121   0.00    0.0
2026/01/15 00:37:30.000   67.857348940   20.968466157   391.4160   6   6   0.2979   0.2796   0.6579  -0.0715  -0.1964   0.2058   0.00    0.0
2026/01/15 00:38:00.000   67.857348859   20.968466317   391.3594   6   6   0.2950   0.2776   0.6477  -0.0723  -0.1950   0.1992   0.00    0.0
2026/01/15 00:38:30.000   67.857348803   20.968466313   391.3282   6   6   0.2921   0.2757   0.6374  -0.0729  -0.1936   0.1925   0.00    0.0
2026/01/15 00:39:00.000   67.857348744   20.968466239   391.3077   6   6   0.2892   0.2738   0.6270  -0.0736  -0.1921   0.1857   0.00    0.0
2026/01/15 00:39:30.000   67.857348701   20.968466272   391.2677   6   6   0.2864   0.2719   0.6166  -0.0741  -0.1904   0.1787   0.00    0.0
2026/01/15 00:40:00.000   67.857348650   20.968466277   391.2480   6   6   0.2835   0.2700   0.6062  -0.0746  -0.1887   0.1716   0.00    0.0
2026/01/15 00:40:30.000   67.857348544   20.968466272   391.2258   6   6   0.2808   0.2681   0.5958  -0.0751  -0.1869   0.1644   0.00    0.0
2026/01/15 00:41:00.000   67.857348479   20.968466281   391.2016   6   6   0.2781   0.2663   0.5855  -0.0754  -0.1850   0.1571   0.00    0.0
2026/01/15 00:41:30.000   67.857348449   20.968466281   391.1798   6   7   0.2754   0.2644   0.5751  -0.0758  -0.1831   0.1498   0.00    0.0
2026/01/15 00:42:00.000   67.857348400   20.968466478   391.1577   6   7   0.2728   0.2626   0.5649  -0.0761  -0.1810   0.1423   0.00    0.0
2026/01/15 00:42:30.000   67.857348372   20.968466524   391.1345   6   7   0.2706   0.2610   0.5550  -0.0752  -0.1783   0.1356   0.00    0.0
2026/01/15 00:43:00.000   67.857348366   20.968466506   391.1129   6   8   0.2684   0.2595   0.5451  -0.0743  -0.1755   0.1289   0.00    0.0
2026/01/15 00:43:30.000   67.857348382   20.968466678   391.1005   6   9   0.2663   0.2579   0.5353  -0.0734  -0.1727   0.1220   0.00    0.0
2026/01/15 00:44:00.000   67.857348400   20.968466607   391.0845   6   6   0.2642   0.2564   0.5256  -0.0724  -0.1698   0.1149   0.00    0.0
2026/01/15 00:44:30.000   67.857348391   20.968466699   391.0658   6   7   0.2624   0.2549   0.5162  -0.0717  -0.1673   0.1088   0.00    0.0
2026/01/15 00:45:00.000   67.857348343   20.968466689   391.0441   6   7   0.2605   0.2535   0.5069  -0.0710  -0.1648   0.1025   0.00    0.0
2026/01/15 00:45:30.000   67.857348305   20.968466720   391.0322   6   7   0.2587   0.2521   0.4978  -0.0704  -0.1623   0.0961   0.00    0.0
2026/01/15 00:46:00.000   67.857348253   20.968466876   391.0219   6   7   0.2569   0.2506   0.4887  -0.0697  -0.1598   0.0895   0.00    0.0
2026/01/15 00:46:30.000   67.857348290   20.968466883   391.0026   6  10   0.2552   0.2493   0.4798  -0.0692  -0.1574   0.0831   0.00    0.0
2026/01/15 00:47:00.000   67.857348277   20.968466969   390.9929   6  15   0.2535   0.2479   0.4711  -0.0687  -0.1550   0.0764   0.00    0.0
2026/01/15 00:47:30.000   67.857348252   20.968466958   390.9803   6  12   0.2519   0.2466   0.4625  -0.0683  -0.1525   0.0692   0.00    0.0
2026/01/15 00:48:00.000   67.857348229   20.968466972   390.9758   6   6   0.2502   0.2453   0.4539  -0.0679  -0.1500   0.0614   0.00    0.0
2026/01/15 00:48:30.000   67.857348215   20.968466998   390.9645   6   8   0.2486   0.2440   0.4455  -0.0675  -0.1476   0.0529   0.00    0.0
2026/01/15 00:49:00.000   67.857348193   20.968467023   390.9570   6   7   0.2471   0.2427   0.4373  -0.0673  -0.1451   0.0427   0.00    0.0
2026/01/15 00:49:30.000   67.857348184   20.968467069   390.9508   6   6   0.2459   0.2414   0.4313  -0.0674  -0.1431   0.0381   0.00    0.0
2026/01/15 00:50:00.000   67.857348211   20.968467138   390.9381   6   6   0.2448   0.2402   0.4254  -0.0675  -0.1411   0.0333   0.00    0.0
2026/01/15 00:50:30.000   67.857348213   20.968467151   390.9289   6   6   0.2438   0.2390   0.4197  -0.0675  -0.1390   0.0293   0.00    0.0
2026/01/15 00:51:00.000   67.857348245   20.968467185   390.9260   6  15   0.2427   0.2378   0.4135  -0.0674  -0.1367   0.0248   0.00    0.0
2026/01/15 00:51:30.000   67.857348273   20.968467220   390.9223   6  21   0.2417   0.2366   0.4075  -0.0673  -0.1345   0.0196   0.00    0.0
2026/01/15 00:52:00.000   67.857348263   20.968467236   390.9178   6  13   0.2407   0.2354   0.4017  -0.0672  -0.1323   0.0126   0.00    0.0
2026/01/15 00:52:30.000   67.857348252   20.968467236   390.9143   6  13   0.2397   0.2342   0.3958  -0.0671  -0.1302  -0.0076   0.00    0.0
2026/01/15 00:53:00.000   67.857348254   20.968467310   390.9078   6  17   0.2387   0.2330   0.3900  -0.0670  -0.1280  -0.0163   0.00    0.0
2026/01/15 00:53:30.000   67.857348237   20.968467385   390.9027   6  13   0.2378   0.2319   0.3842  -0.0669  -0.1258  -0.0216   0.00    0.0
2026/01/15 00:54:00.000   67.857348262   20.968467466   390.8995   6  14   0.2368   0.2308   0.3785  -0.0669  -0.1235  -0.0261   0.00    0.0
2026/01/15 00:54:30.000   67.857348276   20.968467416   390.8975   6  13   0.2359   0.2297   0.3728  -0.0668  -0.1213  -0.0298   0.00    0.0
2026/01/15 00:55:00.000   67.857348275   20.968467405   390.8996   6  20   0.2349   0.2285   0.3671  -0.0667  -0.1190  -0.0333   0.00    0.0
2026/01/15 00:55:30.000   67.857348298   20.968467323   390.9017   6  20   0.2339   0.2274   0.3615  -0.0666  -0.1168  -0.0363   0.00    0.0
2026/01/15 00:56:00.000   67.857348311   20.968467279   390.9009   6  21   0.2330   0.2263   0.3559  -0.0666  -0.1145  -0.0389   0.00    0.0
2026/01/15 00:56:30.000   67.857348314   20.968467079   390.9001   6  20   0.2320   0.2253   0.3503  -0.0665  -0.1122  -0.0413   0.00    0.0
2026/01/15 00:57:00.000   67.857348336   20.968467044   390.8981   6  20   0.2311   0.2242   0.3448  -0.0665  -0.1100  -0.0437   0.00    0.0
2026/01/15 00:57:30.000   67.857348370   20.968467019   390.8934   6  18   0.2302   0.2232   0.3393  -0.0665  -0.1077  -0.0460   0.00    0.0
2026/01/15 00:58:00.000   67.857348406   20.968467099   390.8906   6  20   0.2294   0.2222   0.3341  -0.0664  -0.1053  -0.0475   0.00    0.0
2026/01/15 00:58:30.000   67.857348386   20.968467040   390.8924   6  20   0.2286   0.2212   0.3290  -0.0663  -0.1031  -0.0491   0.00    0.0
2026/01/15 00:59:00.000   67.857348410   20.968467025   390.8923   6  20   0.2278   0.2202   0.3239  -0.0662  -0.1009  -0.0507   0.00    0.0
2026/01/15 00:59:30.000   67.857348402   20.968467013   390.8976   6  19   0.2270   0.2192   0.3189  -0.0661  -0.0986  -0.0521   0.00    0.0
2026/01/15 01:00:00.000   67.857348422   20.968466898   390.8976   6  20   0.2262   0.2183   0.3140  -0.0660  -0.0963  -0.0534   0.00    0.0
2026/01/15 01:00:30.000   67.857348441   20.968466837   390.8971   6  20   0.2254   0.2174   0.3118  -0.0659  -0.0952  -0.0539   0.00    0.0
2026/01/15 01:01:00.000   67.857348446   20.968466852   390.8973   6  20   0.2247   0.2166   0.3100  -0.0659  -0.0942  -0.0543   0.00    0.0
2026/01/15 01:01:30.000   67.857348469   20.968466798   390.8952   6  20   0.2239   0.2157   0.3083  -0.0659  -0.0933  -0.0547   0.00    0.0
2026/01/15 01:02:00.000   67.857348489   20.968466736   390.8951   6  20   0.2231   0.2149   0.3066  -0.0659  -0.0924  -0.0552   0.00    0.0
2026/01/15 01:02:30.000   67.857348523   20.968466682   390.8966   6  20   0.2224   0.2140   0.3050  -0.0658  -0.0915  -0.0559   0.00    0.0
2026/01/15 01:03:00.000   67.857348550   20.968466598   390.8986   6  20   0.2216   0.2132   0.3033  -0.0657  -0.0905  -0.0566   0.00    0.0
2026/01/15 01:03:30.000   67.857348592   20.968466477   390.9012   6  21   0.2208   0.2123   0.3016  -0.0656  -0.0895  -0.0574   0.00    0.0
2026/01/15 01:04:00.000   67.857348605   20.968466475   390.9030   6  21   0.2201   0.2115   0.3003  -0.0656  -0.0886  -0.0579   0.00    0.0
2026/01/15 01:04:30.000   67.857348592   20.968466407   390.9093   6  21   0.2193   0.2106   0.2990  -0.0655  -0.0877  -0.0584   0.00    0.0
2026/01/15 01:05:00.000   67.857348626   20.968466350   390.9091   6  20   0.2186   0.2098   0.2978  -0.0654  -0.0868  -0.0589   0.00    0.0
2026/01/15 01:05:30.000   67.857348653   20.968466315   390.9108   6  19   0.2179   0.2090   0.2966  -0.0653  -0.0859  -0.0595   0.00    0.0
2026/01/15 01:06:00.000   67.857348682   20.968466332   390.9127   6  19   0.2171   0.2082   0.2953  -0.0652  -0.0849  -0.0601   0.00    0.0
2026/01/15 01:06:30.000   67.857348696   20.968466277   390.9144   6  19   0.2163   0.2074   0.2940  -0.0651  -0.0840  -0.0609   0.00    0.0
2026/01/15 01:07:00.000   67.857348726   20.968466172   390.9158   6  20   0.2156   0.2065   0.2926  -0.0649  -0.0830  -0.0616   0.00    0.0
2026/01/15 01:07:30.000   67.857348726   20.968466130   390.9199   6  20   0.2148   0.2057   0.2912  -0.0648  -0.0819  -0.0625   0.00    0.0
2026/01/15 01:08:00.000   67.857348735   20.968466043   390.9236   6  20   0.2140   0.2049   0.2897  -0.0647  -0.0809  -0.0634   0.00    0.0
2026/01/15 01:08:30.000   67.857348768   20.968465991   390.9256   6  19   0.2132   0.2042   0.2882  -0.0645  -0.0798  -0.0644   0.00    0.0
2026/01/15 01:09:00.000   67.857348775   20.968465993   390.9297   6  19   0.2125   0.2034   0.2866  -0.0644  -0.0787  -0.0654   0.00    0.0
2026/01/15 01:09:30.000   67.857348764   20.968465989   390.9339   6  19   0.2116   0.2026   0.2850  -0.0642  -0.0776  -0.0665   0.00    0.0
2026/01/15 01:10:00.000   67.857348773   20.968465942   390.9374   6  18   0.2108   0.2018   0.2833  -0.0640  -0.0765  -0.0676   0.00    0.0
2026/01/15 01:10:30.000   67.857348777   20.968465837   390.9432   6  15   0.2100   0.2010   0.2816  -0.0638  -0.0754  -0.0687   0.00    0.0
2026/01/15 01:11:00.000   67.857348780   20.968465829   390.9466   6  15   0.2092   0.2002   0.2800  -0.0636  -0.0742  -0.0698   0.00    0.0
2026/01/15 01:11:30.000   67.857348798   20.968465734   390.9495   6  19   0.2083   0.1994   0.2781  -0.0634  -0.0730  -0.0711   0.00    0.0
2026/01/15 01:12:00.000   67.857348837   20.968465719   390.9491   6  19   0.2074   0.1986   0.2762  -0.0632  -0.0717  -0.0724   0.00    0.0
2026/01/15 01:12:30.000   67.857348827   20.968465696   390.9524   6  15   0.2066   0.1979   0.2744  -0.0630  -0.0706  -0.0734   0.00    0.0
2026/01/15 01:13:00.000   67.857348860   20.968465693   390.9521   6  19   0.2056   0.1971   0.2724  -0.0628  -0.0695  -0.0746   0.00    0.0
2026/01/15 01:13:30.000   67.857348865   20.968465645   390.9550   6  15   0.2048   0.1963   0.2706  -0.0627  -0.0683  -0.0756   0.00    0.0
2026/01/15 01:14:00.000   67.857348899   20.968465657   390.9565   6  15   0.2039   0.1956   0.2687  -0.0626  -0.0672  -0.0766   0.00    0.0
2026/01/15 01:14:30.000   67.857348926   20.968465576   390.9577   6  19   0.2029   0.1948   0.2666  -0.0625  -0.0661  -0.0779   0.00    0.0
2026/01/15 01:15:00.000   67.857348957   20.968465500   390.9608   6  15   0.2020   0.1941   0.2647  -0.0624  -0.0650  -0.0789   0.00    0.0
2026/01/15 01:15:30.000   67.857348995   20.968465446   390.9628   6  15   0.2011   0.1934   0.2627  -0.0622  -0.0638  -0.0799   0.00    0.0
2026/01/15 01:16:00.000   67.857349019   20.968465448   390.9660   6  15   0.2001   0.1926   0.2608  -0.0621  -0.0626  -0.0808   0.00    0.0
2026/01/15 01:16:30.000   67.857349034   20.968465457   390.9690   6  15   0.1991   0.1919   0.2588  -0.0619  -0.0614  -0.0818   0.00    0.0
2026/01/15 01:17:00.000   67.857349073   20.968465388   390.9704   6  15   0.1981   0.1912   0.2568  -0.0618  -0.0603  -0.0827   0.00    0.0
2026/01/15 01:17:30.000   67.857349079   20.968465367   390.9722   6  15   0.1971   0.1905   0.2548  -0.0617  -0.0591  -0.0835   0.00    0.0
2026/01/15 01:18:00.000   67.857349115   20.968465344   390.9755   6  15   0.1961   0.1897   0.2527  -0.0616  -0.0579  -0.0844   0.00    0.0
2026/01/15 01:18:30.000   67.857349144   20.968465366   390.9787   6  16   0.1950   0.1890   0.2506  -0.0614  -0.0567  -0.0852   0.00    0.0
2026/01/15 01:19:00.000   67.857349167   20.968465275   390.9825   6  15   0.1940   0.1883   0.2485  -0.0613  -0.0556  -0.0859   0.00    0.0
2026/01/15 01:19:30.000   67.857349217   20.968465289   390.9849   6  15   0.1929   0.1875   0.2464  -0.0612  -0.0544  -0.0867   0.00    0.0
2026/01/15 01:20:00.000   67.857349261   20.968465248   390.9863   6  15   0.1918   0.1868   0.2443  -0.0611  -0.0532  -0.0873   0.00    0.0
2026/01/15 01:20:30.000   67.857349290   20.968465163   390.9882   6  17   0.1907   0.1861   0.2421  -0.0610  -0.0521  -0.0878   0.00    0.0
2026/01/15 01:21:00.000   67.857349319   20.968465134   390.9892   6  17   0.1895   0.1853   0.2399  -0.0609  -0.0510  -0.0883   0.00    0.0
2026/01/15 01:21:30.000   67.857349361   20.968465108   390.9919   6  17   0.1883   0.1846   0.2378  -0.0608  -0.0499  -0.0887   0.00    0.0
2026/01/15 01:22:00.000   67.857349412   20.968464983   390.9929   6  17   0.1871   0.1838   0.2356  -0.0607  -0.0489  -0.0892   0.00    0.0
2026/01/15 01:22:30.000   67.857349474   20.968464878   390.9937   6  17   0.1859   0.1830   0.2334  -0.0606  -0.0479  -0.0895   0.00    0.0
2026/01/15 01:23:00.000   67.857349508   20.968464789   390.9948   6  17   0.1847   0.1823   0.2313  -0.0605  -0.0470  -0.0899   0.00    0.0
2026/01/15 01:23:30.000   67.857349506   20.968464759   390.9875   6  10   0.1842   0.1815   0.2297  -0.0606  -0.0468  -0.0899   0.00    0.0
2026/01/15 01:24:00.000   67.857349548   20.968464608   390.9835   6  15   0.1832   0.1806   0.2270  -0.0607  -0.0465  -0.0901   0.00    0.0
2026/01/15 01:24:30.000   67.857349550   20.968464499   390.9772   6  11   0.1828   0.1798   0.2257  -0.0607  -0.0465  -0.0900   0.00    0.0
2026/01/15 01:25:00.000   67.857349544   20.968464376   390.9731   6   7   0.1823   0.1791   0.2245  -0.0608  -0.0466  -0.0899   0.00    0.0
2026/01/15 01:25:30.000   67.857349527   20.968464298   390.9687   6   7   0.1819   0.1784   0.2234  -0.0609  -0.0466  -0.0898   0.00    0.0
2026/01/15 01:26:00.000   67.857349563   20.968464147   390.9739   6  20   0.1804   0.1775   0.2206  -0.0609  -0.0452  -0.0902   0.00    0.0
2026/01/15 01:26:30.000   67.857349587   20.968464106   390.9758   6  13   0.1793   0.1767   0.2186  -0.0609  -0.0442  -0.0901   0.00    0.0
2026/01/15 01:27:00.000   67.857349643   20.968464045   390.9783   6  21   0.1778   0.1759   0.2159  -0.0609  -0.0428  -0.0904   0.00    0.0
2026/01/15 01:27:30.000   67.857349691   20.968464058   390.9801   6  20   0.1762   0.1750   0.2131  -0.0610  -0.0414  -0.0906   0.00    0.0
2026/01/15 01:28:00.000   67.857349757   20.968463958   390.9818   6  20   0.1747   0.1742   0.2105  -0.0610  -0.0400  -0.0907   0.00    0.0
2026/01/15 01:28:30.000   67.857349816   20.968463904   390.9825   6  21   0.1731   0.1734   0.2079  -0.0611  -0.0386  -0.0908   0.00    0.0
2026/01/15 01:29:00.000   67.857349859   20.968463784   390.9858   6  21   0.1716   0.1725   0.2053  -0.0612  -0.0373  -0.0908   0.00    0.0
2026/01/15 01:29:30.000   67.857349903   20.968463717   390.9881   6  21   0.1701   0.1717   0.2028  -0.0612  -0.0359  -0.0908   0.00    0.0
2026/01/15 01:30:00.000   67.857349949   20.968463639   390.9900   6  20   0.1686   0.1708   0.2003  -0.0613  -0.0346  -0.0907   0.00    0.0
2026/01/15 01:30:30.000   67.857350019   20.968463563   390.9894   6  21   0.1670   0.1700   0.1979  -0.0613  -0.0333  -0.0906   0.00    0.0
2026/01/15 01:31:00.000   67.857350077   20.968463570   390.9880   6  21   0.1655   0.1691   0.1955  -0.0614  -0.0320  -0.0905   0.00    0.0
2026/01/15 01:31:30.000   67.857350131   20.968463486   390.9894   6  22   0.1640   0.1683   0.1931  -0.0614  -0.0308  -0.0903   0.00    0.0
2026/01/15 01:32:00.000   67.857350172   20.968463421   390.9906   6  21   0.1625   0.1674   0.1908  -0.0615  -0.0295  -0.0900   0.00    0.0
2026/01/15 01:32:30.000   67.857350227   20.968463374   390.9903   6  20   0.1610   0.1666   0.1885  -0.0615  -0.0283  -0.0897   0.00    0.0
2026/01/15 01:33:00.000   67.857350290   20.968463317   390.9888   6  21   0.1595   0.1657   0.1862  -0.0616  -0.0271  -0.0894   0.00    0.0
2026/01/15 01:33:30.000   67.857350348   20.968463268   390.9884   6  21   0.1580   0.1648   0.1840  -0.0616  -0.0259  -0.0891   0.00    0.0
2026/01/15 01:34:00.000   67.857350393   20.968463176   390.9887   6  21   0.1565   0.1640   0.1818  -0.0617  -0.0248  -0.0887   0.00    0.0
2026/01/15 01:34:30.000   67.857350442   20.968463195   390.9882   6  21   0.1550   0.1631   0.1796  -0.0617  -0.0236  -0.0883   0.00    0.0
2026/01/15 01:35:00.000   67.857350474   20.968463111   390.9892   6  21   0.1536   0.1622   0.1775  -0.0617  -0.0224  -0.0879   0.00    0.0
2026/01/15 01:35:30.000   67.857350512   20.968463155   390.9894   6  22   0.1521   0.1613   0.1753  -0.0619  -0.0210  -0.0874   0.00    0.0
2026/01/15 01:36:00.000   67.857350559   20.968463042   390.9897   6  22   0.1507   0.1605   0.1732  -0.0620  -0.0196  -0.0870   0.00    0.0
2026/01/15 01:36:30.000   67.857350575   20.968463003   390.9915   6  22   0.1496   0.1598   0.1713  -0.0626  -0.0169  -0.0870   0.00    0.0
2026/01/15 01:37:00.000   67.857350607   20.968462995   390.9911   6  22   0.1485   0.1590   0.1695  -0.0632  -0.0137  -0.0869   0.00    0.0
2026/01/15 01:37:30.000   67.857350618   20.968462960   390.9931   6  22   0.1475   0.1583   0.1676  -0.0638  -0.0097  -0.0869   0.00    0.0
2026/01/15 01:38:00.000   67.857350636   20.968462978   390.9949   6  22   0.1464   0.1575   0.1658  -0.0644  -0.0016  -0.0867   0.00    0.0
2026/01/15 01:38:30.000   67.857350657   20.968462952   390.9953   6  22   0.1453   0.1568   0.1640  -0.0649   0.0093  -0.0866   0.00    0.0
2026/01/15 01:39:00.000   67.857350679   20.968462886   390.9960   6  22   0.1443   0.1560   0.1622  -0.0654   0.0132  -0.0865   0.00    0.0
2026/01/15 01:39:30.000   67.857350705   20.968462798   390.9964   6  22   0.1432   0.1553   0.1604  -0.0660   0.0161  -0.0863   0.00    0.0
2026/01/15 01:40:00.000   67.857350730   20.968462814   390.9962   6  22   0.1422   0.1545   0.1587  -0.0664   0.0184  -0.0861   0.00    0.0
2026/01/15 01:40:30.000   67.857350760   20.968462743   390.9967   6  22   0.1411   0.1537   0.1570  -0.0669   0.0205  -0.0858   0.00    0.0
2026/01/15 01:41:00.000   67.857350774   20.968462720   390.9973   6  22   0.1401   0.1530   0.1553  -0.0674   0.0222  -0.0856   0.00    0.0
2026/01/15 01:41:30.000   67.857350786   20.968462688   390.9984   6  22   0.1390   0.1522   0.1536  -0.0678   0.0238  -0.0853   0.00    0.0
2026/01/15 01:42:00.000   67.857350822   20.968462665   390.9973   6  22   0.1380   0.1514   0.1519  -0.0682   0.0252  -0.0850   0.00    0.0
2026/01/15 01:42:30.000   67.857350847   20.968462642   390.9973   6  22   0.1370   0.1506   0.1503  -0.0686   0.0265  -0.0847   0.00    0.0
2026/01/15 01:43:00.000   67.857350872   20.968462622   390.9977   6  22   0.1359   0.1498   0.1486  -0.0689   0.0277  -0.0844   0.00    0.0
2026/01/15 01:43:30.000   67.857350893   20.968462633   390.9973   6  22   0.1349   0.1490   0.1470  -0.0693   0.0288  -0.0840   0.00    0.0
2026/01/15 01:44:00.000   67.857350909   20.968462642   390.9976   6  22   0.1339   0.1482   0.1454  -0.0696   0.0298  -0.0837   0.00    0.0
2026/01/15 01:44:30.000   67.857350943   20.968462597   390.9966   6  22   0.1328   0.1474   0.1438  -0.0698   0.0307  -0.0833   0.00    0.0
2026/01/15 01:45:00.000   67.857350976   20.968462550   390.9951   6  22   0.1318   0.1466   0.1423  -0.0701   0.0315  -0.0829   0.00    0.0
2026/01/15 01:45:30.000   67.857350999   20.968462504   390.9944   6  22   0.1308   0.1458   0.1407  -0.0704   0.0323  -0.0825   0.00    0.0
2026/01/15 01:46:00.000   67.857351027   20.968462442   390.9941   6  22   0.1298   0.1450   0.1392  -0.0706   0.0331  -0.0820   0.00    0.0
2026/01/15 01:46:30.000   67.857351055   20.968462368   390.9932   6  22   0.1288   0.1442   0.1377  -0.0708   0.0338  -0.0816   0.00    0.0
2026/01/15 01:47:00.000   67.857351074   20.968462362   390.9923   6  22   0.1278   0.1434   0.1362  -0.0710   0.0344  -0.0812   0.00    0.0
2026/01/15 01:47:30.000   67.857351096   20.968462327   390.9911   6  22   0.1268   0.1426   0.1348  -0.0713   0.0351  -0.0808   0.00    0.0
2026/01/15 01:48:00.000   67.857351117   20.968462310   390.9906   6  22   0.1259   0.1418   0.1333  -0.0715   0.0356  -0.0803   0.00    0.0
2026/01/15 01:48:30.000   67.857351150   20.968462240   390.9887   6  22   0.1249   0.1410   0.1319  -0.0717   0.0361  -0.0799   0.00    0.0
2026/01/15 01:49:00.000   67.857351172   20.968462199   390.9873   6  22   0.1240   0.1403   0.1305  -0.0718   0.0366  -0.0794   0.00    0.0
2026/01/15 01:49:30.000   67.857351188   20.968462181   390.9859   6  23   0.1231   0.1395   0.1291  -0.0720   0.0371  -0.0790   0.00    0.0
2026/01/15 01:50:00.000   67.857351212   20.968462142   390.9844   6  23   0.1221   0.1387   0.1277  -0.0721   0.0375  -0.0785   0.00    0.0
2026/01/15 01:50:30.000   67.857351237   20.968462102   390.9828   6  23   0.1212   0.1378   0.1263  -0.0722   0.0378  -0.0780   0.00    0.0
2026/01/15 01:51:00.000   67.857351267   20.968462054   390.9808   6  23   0.1202   0.1370   0.1250  -0.0723   0.0381  -0.0775   0.00    0.0
2026/01/15 01:51:30.000   67.857351296   20.968461998   390.9789   6  23   0.1193   0.1362   0.1236  -0.0723   0.0384  -0.0769   0.00    0.0
2026/01/15 01:52:00.000   67.857351324   20.968461910   390.9765   6  23   0.1184   0.1354   0.1223  -0.0724   0.0387  -0.0764   0.00    0.0
2026/01/15 01:52:30.000   67.857351336   20.968461893   390.9756   6  17   0.1176   0.1350   0.1213  -0.0725   0.0388  -0.0760   0.00    0.0
2026/01/15 01:53:00.000   67.857351360   20.968461839   390.9726   6  23   0.1167   0.1341   0.1200  -0.0725   0.0390  -0.0754   0.00    0.0
2026/01/15 01:53:30.000   67.857351384   20.968461758   390.9696   6  23   0.1158   0.1332   0.1187  -0.0725   0.0392  -0.0749   0.00    0.0
2026/01/15 01:54:00.000   67.857351410   20.968461707   390.9662   6  23   0.1149   0.1324   0.1174  -0.0724   0.0394  -0.0744   0.00    0.0
2026/01/15 01:54:30.000   67.857351437   20.968461598   390.9626   6  23   0.1139   0.1315   0.1161  -0.0724   0.0395  -0.0738   0.00    0.0
2026/01/15 01:55:00.000   67.857351466   20.968461537   390.9595   6  23   0.1130   0.1306   0.1149  -0.0723   0.0396  -0.0733   0.00    0.0
2026/01/15 01:55:30.000   67.857351489   20.968461465   390.9570   6  23   0.1121   0.1298   0.1136  -0.0722   0.0397  -0.0727   0.00    0.0
2026/01/15 01:56:00.000   67.857351517   20.968461381   390.9543   6  23   0.1112   0.1289   0.1124  -0.0720   0.0398  -0.0722   0.00    0.0
2026/01/15 01:56:30.000   67.857351533   20.968461393   390.9530   6  17   0.1105   0.1285   0.1115  -0.0721   0.0398  -0.0717   0.00    0.0
2026/01/15 01:57:00.000   67.857351557   20.968461364   390.9511   6  17   0.1099   0.1280   0.1106  -0.0722   0.0397  -0.0712   0.00    0.0
2026/01/15 01:57:30.000   67.857351580   20.968461278   390.9479   6  24   0.1090   0.1271   0.1094  -0.0720   0.0397  -0.0707   0.00    0.0
2026/01/15 01:58:00.000   67.857351606   20.968461206   390.9451   6  24   0.1080   0.1261   0.1082  -0.0717   0.0397  -0.0701   0.00    0.0
2026/01/15 01:58:30.000   67.857351631   20.968461116   390.9425   6  24   0.1071   0.1252   0.1070  -0.0715   0.0396  -0.0695   0.00    0.0
2026/01/15 01:59:00.000   67.857351652   20.968461045   390.9398   6  24   0.1062   0.1242   0.1058  -0.0712   0.0395  -0.0689   0.00    0.0
2026/01/15 01:59:30.000   67.857351681   20.968460971   390.9365   6  24   0.1053   0.1232   0.1047  -0.0709   0.0395  -0.0683   0.00    0.0
2026/01/15 02:00:00.000   67.857351703   20.968460891   390.9339   6  24   0.1044   0.1223   0.1036  -0.0706   0.0393  -0.0678   0.00    0.0
2026/01/15 02:00:30.000   67.857351746   20.968460764   390.9305   6  24   0.1035   0.1213   0.1025  -0.0702   0.0392  -0.0672   0.00    0.0
2026/01/15 02:01:00.000   67.857351783   20.968460665   390.9273   6  24   0.1026   0.1204   0.1014  -0.0699   0.0391  -0.0666   0.00    0.0
2026/01/15 02:01:30.000   67.857351816   20.968460574   390.9243   6  24   0.1017   0.1194   0.1003  -0.0696   0.0389  -0.0660   0.00    0.0
2026/01/15 02:02:00.000   67.857351848   20.968460482   390.9213   6  24   0.1008   0.1184   0.0992  -0.0692   0.0387  -0.0654   0.00    0.0
2026/01/15 02:02:30.000   67.857351878   20.968460406   390.9181   6  25   0.1000   0.1175   0.0982  -0.0688   0.0386  -0.0649   0.00    0.0
2026/01/15 02:03:00.000   67.857351910   20.968460318   390.9152   6  25   0.0991   0.1165   0.0972  -0.0684   0.0383  -0.0644   0.00    0.0
2026/01/15 02:03:30.000   67.857351939   20.968460238   390.9124   6  25   0.0983   0.1155   0.0963  -0.0680   0.0381  -0.0638   0.00    0.0
2026/01/15 02:04:00.000   67.857351965   20.968460168   390.9098   6  26   0.0974   0.1146   0.0953  -0.0676   0.0379  -0.0633   0.00    0.0
2026/01/15 02:04:30.000   67.857352001   20.968460069   390.9070   6  25   0.0966   0.1136   0.0944  -0.0672   0.0377  -0.0628   0.00    0.0
2026/01/15 02:05:00.000   67.857352021   20.968459997   390.9049   6  26   0.0958   0.1126   0.0934  -0.0668   0.0374  -0.0622   0.00    0.0
2026/01/15 02:05:30.000   67.857352045   20.968459927   390.9029   6  27   0.0949   0.1117   0.0925  -0.0663   0.0371  -0.0617   0.00    0.0
2026/01/15 02:06:00.000   67.857352069   20.968459857   390.9009   6  27   0.0941   0.1107   0.0916  -0.0659   0.0369  -0.0612   0.00    0.0
2026/01/15 02:06:30.000   67.857352097   20.968459769   390.8984   6  27   0.0933   0.1098   0.0907  -0.0654   0.0366  -0.0607   0.00    0.0
2026/01/15 02:07:00.000   67.857352123   20.968459677   390.8962   6  27   0.0925   0.1088   0.0898  -0.0650   0.0363  -0.0601   0.00    0.0
2026/01/15 02:07:30.000   67.857352154   20.968459567   390.8938   6  27   0.0917   0.1079   0.0889  -0.0645   0.0360  -0.0596   0.00    0.0
2026/01/15 02:08:00.000   67.857352187   20.968459464   390.8908   6  27   0.0909   0.1069   0.0880  -0.0640   0.0357  -0.0591   0.00    0.0
2026/01/15 02:08:30.000   67.857352216   20.968459370   390.8881   6  28   0.0901   0.1060   0.0872  -0.0636   0.0355  -0.0586   0.00    0.0
2026/01/15 02:09:00.000   67.857352240   20.968459298   390.8858   6  28   0.0893   0.1050   0.0864  -0.0631   0.0352  -0.0581   0.00    0.0
2026/01/15 02:09:30.000   67.857352250   20.968459223   390.8856   6   8   0.0889   0.1043   0.0861  -0.0626   0.0350  -0.0579   0.00    0.0
2026/01/15 02:10:00.000   67.857352263   20.968459147   390.8854   6   8   0.0886   0.1037   0.0858  -0.0621   0.0348  -0.0577   0.00    0.0
2026/01/15 02:10:30.000   67.857352269   20.968459091   390.8853   6   8   0.0882   0.1030   0.0856  -0.0616   0.0346  -0.0575   0.00    0.0
2026/01/15 02:11:00.000   67.857352275   20.968459050   390.8855   6   8   0.0878   0.1023   0.0853  -0.0611   0.0344  -0.0573   0.00    0.0
2026/01/15 02:11:30.000   67.857352292   20.968458975   390.8851   6   8   0.0874   0.1016   0.0850  -0.0606   0.0342  -0.0571   0.00    0.0
2026/01/15 02:12:00.000   67.857352310   20.968458894   390.8848   6   8   0.0870   0.1009   0.0848  -0.0601   0.0340  -0.0569   0.00    0.0
2026/01/15 02:12:30.000   67.857352327   20.968458803   390.8847   6   8   0.0866   0.1002   0.0845  -0.0596   0.0338  -0.0567   0.00    0.0
2026/01/15 02:13:00.000   67.857352342   20.968458720   390.8848   6   8   0.0862   0.0996   0.0842  -0.0591   0.0335  -0.0565   0.00    0.0
2026/01/15 02:13:30.000   67.857352357   20.968458660   390.8847   6   8   0.0859   0.0989   0.0839  -0.0586   0.0333  -0.0562   0.00    0.0
2026/01/15 02:14:00.000   67.857352375   20.968458586   390.8844   6   8   0.0855   0.0982   0.0837  -0.0581   0.0331  -0.0560   0.00    0.0
2026/01/15 02:14:30.000   67.857352393   20.968458513   390.8840   6   8   0.0851   0.0976   0.0834  -0.0576   0.0329  -0.0558   0.00    0.0
2026/01/15 02:15:00.000   67.857352410   20.968458457   390.8835   6   8   0.0847   0.0969   0.0831  -0.0571   0.0326  -0.0556   0.00    0.0
2026/01/15 02:15:30.000   67.857352429   20.968458378   390.8832   6   8   0.0843   0.0962   0.0828  -0.0566   0.0324  -0.0553   0.00    0.0
2026/01/15 02:16:00.000   67.857352441   20.968458318   390.8830   6   8   0.0839   0.0956   0.0825  -0.0561   0.0322  -0.0551   0.00    0.0
2026/01/15 02:16:30.000   67.857352459   20.968458237   390.8826   6   8   0.0835   0.0949   0.0822  -0.0556   0.0319  -0.0549   0.00    0.0
2026/01/15 02:17:00.000   67.857352473   20.968458182   390.8825   6   8   0.0831   0.0942   0.0819  -0.0551   0.0317  -0.0547   0.00    0.0
2026/01/15 02:17:30.000   67.857352492   20.968458115   390.8820   6   9   0.0827   0.0936   0.0816  -0.0546   0.0314  -0.0545   0.00    0.0
2026/01/15 02:18:00.000   67.857352507   20.968458093   390.8819   6  14   0.0820   0.0927   0.0812  -0.0542   0.0313  -0.0541   0.00    0.0
2026/01/15 02:18:30.000   67.857352524   20.968458022   390.8817   6   8   0.0816   0.0921   0.0809  -0.0537   0.0310  -0.0538   0.00    0.0
2026/01/15 02:19:00.000   67.857352539   20.968457973   390.8815   6  10   0.0812   0.0914   0.0806  -0.0532   0.0308  -0.0536   0.00    0.0
2026/01/15 02:19:30.000   67.857352557   20.968457920   390.8808   6  10   0.0808   0.0908   0.0803  -0.0527   0.0305  -0.0534   0.00    0.0
2026/01/15 02:20:00.000   67.857352571   20.968457854   390.8805   6  10   0.0804   0.0902   0.0800  -0.0522   0.0302  -0.0532   0.00    0.0
2026/01/15 02:20:30.000   67.857352585   20.968457792   390.8804   6  11   0.0800   0.0895   0.0797  -0.0517   0.0300  -0.0529   0.00    0.0
2026/01/15 02:21:00.000   67.857352598   20.968457737   390.8803   6   8   0.0796   0.0889   0.0794  -0.0512   0.0297  -0.0527   0.00    0.0
2026/01/15 02:21:30.000   67.857352610   20.968457680   390.8805   6   8   0.0793   0.0883   0.0791  -0.0507   0.0294  -0.0525   0.00    0.0
2026/01/15 02:22:00.000   67.857352627   20.968457627   390.8800   6   9   0.0789   0.0876   0.0788  -0.0502   0.0292  -0.0522   0.00    0.0
2026/01/15 02:22:30.000   67.857352645   20.968457568   390.8795   6  10   0.0785   0.0870   0.0785  -0.0497   0.0289  -0.0520   0.00    0.0
2026/01/15 02:23:00.000   67.857352649   20.968457555   390.8800   6   9   0.0782   0.0865   0.0783  -0.0495   0.0289  -0.0519   0.00    0.0
2026/01/15 02:23:30.000   67.857352654   20.968457527   390.8804   6   8   0.0780   0.0861   0.0780  -0.0492   0.0289  -0.0519   0.00    0.0
2026/01/15 02:24:00.000   67.857352663   20.968457483   390.8804   6   8   0.0777   0.0856   0.0778  -0.0490   0.0289  -0.0518   0.00    0.0
2026/01/15 02:24:30.000   67.857352669   20.968457475   390.8808   6  17   0.0772   0.0849   0.0774  -0.0489   0.0291  -0.0515   0.00    0.0
2026/01/15 02:25:00.000   67.857352680   20.968457459   390.8809   6  17   0.0767   0.0843   0.0770  -0.0488   0.0292  -0.0513   0.00    0.0
2026/01/15 02:25:30.000   67.857352684   20.968457436   390.8813   6   9   0.0764   0.0838   0.0767  -0.0486   0.0292  -0.0512   0.00    0.0
2026/01/15 02:26:00.000   67.857352693   20.968457424   390.8816   6  14   0.0759   0.0832   0.0763  -0.0485   0.0293  -0.0509   0.00    0.0
2026/01/15 02:26:30.000   67.857352703   20.968457391   390.8820   6  11   0.0757   0.0827   0.0760  -0.0482   0.0292  -0.0508   0.00    0.0
2026/01/15 02:27:00.000   67.857352712   20.968457349   390.8821   6   8   0.0754   0.0822   0.0757  -0.0480   0.0292  -0.0507   0.00    0.0
2026/01/15 02:27:30.000   67.857352721   20.968457320   390.8820   6   9   0.0752   0.0818   0.0755  -0.0477   0.0291  -0.0507   0.00    0.0
2026/01/15 02:28:00.000   67.857352727   20.968457290   390.8821   6   8   0.0749   0.0813   0.0753  -0.0474   0.0291  -0.0506   0.00    0.0
2026/01/15 02:28:30.000   67.857352731   20.968457257   390.8824   6   8   0.0747   0.0809   0.0750  -0.0472   0.0291  -0.0505   0.00    0.0
2026/01/15 02:29:00.000   67.857352739   20.968457224   390.8822   6   8   0.0744   0.0804   0.0748  -0.0469   0.0290  -0.0504   0.00    0.0
2026/01/15 02:29:30.000   67.857352747   20.968457180   390.8820   6   8   0.0742   0.0800   0.0746  -0.0466   0.0290  -0.0503   0.00    0.0
2026/01/15 02:30:00.000   67.857352759   20.968457161   390.8818   6  13   0.0737   0.0794   0.0741  -0.0466   0.0290  -0.0501   0.00    0.0
2026/01/15 02:30:30.000   67.857352770   20.968457125   390.8810   6  10   0.0734   0.0789   0.0739  -0.0463   0.0290  -0.0500   0.00    0.0
2026/01/15 02:31:00.000   67.857352784   20.968457106   390.8802   6  18   0.0729   0.0783   0.0735  -0.0462   0.0290  -0.0497   0.00    0.0
2026/01/15 02:31:30.000   67.857352798   20.968457089   390.8797   6  20   0.0724   0.0776   0.0730  -0.0461   0.0290  -0.0494   0.00    0.0
2026/01/15 02:32:00.000   67.857352808   20.968457077   390.8792   6  21   0.0719   0.0770   0.0726  -0.0460   0.0291  -0.0491   0.00    0.0
2026/01/15 02:32:30.000   67.857352818   20.968457068   390.8788   6  16   0.0714   0.0764   0.0722  -0.0458   0.0291  -0.0489   0.00    0.0
2026/01/15 02:33:00.000   67.857352831   20.968457048   390.8782   6  23   0.0709   0.0758   0.0718  -0.0457   0.0291  -0.0486   0.00    0.0
2026/01/15 02:33:30.000   67.857352842   20.968457018   390.8774   6  24   0.0704   0.0752   0.0713  -0.0455   0.0291  -0.0483   0.00    0.0
2026/01/15 02:34:00.000   67.857352848   20.968457018   390.8779   6  23   0.0699   0.0747   0.0710  -0.0454   0.0292  -0.0481   0.00    0.0
2026/01/15 02:34:30.000   67.857352862   20.968456995   390.8779   6  23   0.0695   0.0741   0.0707  -0.0452   0.0292  -0.0478   0.00    0.0
2026/01/15 02:35:00.000   67.857352873   20.968456974   390.8782   6  23   0.0690   0.0736   0.0704  -0.0451   0.0293  -0.0476   0.00    0.0
2026/01/15 02:35:30.000   67.857352886   20.968456956   390.8782   6  23   0.0686   0.0730   0.0701  -0.0449   0.0293  -0.0473   0.00    0.0
2026/01/15 02:36:00.000   67.857352898   20.968456941   390.8782   6  23   0.0681   0.0725   0.0698  -0.0448   0.0294  -0.0471   0.00    0.0
2026/01/15 02:36:30.000   67.857352909   20.968456921   390.8783   6  23   0.0677   0.0720   0.0695  -0.0446   0.0294  -0.0469   0.00    0.0
2026/01/15 02:37:00.000   67.857352920   20.968456906   390.8785   6  23   0.0672   0.0714   0.0692  -0.0444   0.0294  -0.0466   0.00    0.0
2026/01/15 02:37:30.000   67.857352932   20.968456886   390.8787   6  23   0.0668   0.0709   0.0688  -0.0442   0.0294  -0.0464   0.00    0.0
2026/01/15 02:38:00.000   67.857352945   20.968456859   390.8788   6  23   0.0664   0.0704   0.0685  -0.0440   0.0294  -0.0462   0.00    0.0
2026/01/15 02:38:30.000   67.857352955   20.968456843   390.8790   6  23   0.0659   0.0699   0.0682  -0.0438   0.0294  -0.0459   0.00    0.0
2026/01/15 02:39:00.000   67.857352966   20.968456828   390.8791   6  23   0.0655   0.0694   0.0679  -0.0436   0.0294  -0.0457   0.00    0.0
2026/01/15 02:39:30.000   67.857352978   20.968456809   390.8789   6  23   0.0651   0.0689   0.0676  -0.0434   0.0294  -0.0455   0.00    0.0
2026/01/15 02:40:00.000   67.857352989   20.968456780   390.8790   6  23   0.0647   0.0684   0.0673  -0.0432   0.0293  -0.0452   0.00    0.0
2026/01/15 02:40:30.000   67.857353001   20.968456758   390.8790   6  23   0.0643   0.0679   0.0670  -0.0430   0.0293  -0.0450   0.00    0.0
2026/01/15 02:41:00.000   67.857353011   20.968456745   390.8791   6  23   0.0639   0.0674   0.0667  -0.0428   0.0292  -0.0448   0.00    0.0
2026/01/15 02:41:30.000   67.857353021   20.968456720   390.8790   6  23   0.0635   0.0669   0.0664  -0.0426   0.0292  -0.0446   0.00    0.0
2026/01/15 02:42:00.000   67.857353030   20.968456704   390.8790   6  23   0.0631   0.0665   0.0662  -0.0424   0.0291  -0.0443   0.00    0.0
2026/01/15 02:42:30.000   67.857353043   20.968456678   390.8786   6  23   0.0627   0.0660   0.0659  -0.0422   0.0291  -0.0441   0.00    0.0
2026/01/15 02:43:00.000   67.857353053   20.968456654   390.8784   6  23   0.0623   0.0655   0.0656  -0.0419   0.0290  -0.0439   0.00    0.0
2026/01/15 02:43:30.000   67.857353063   20.968456634   390.8782   6  23   0.0619   0.0651   0.0653  -0.0417   0.0289  -0.0437   0.00    0.0
2026/01/15 02:44:00.000   67.857353074   20.968456617   390.8779   6  23   0.0615   0.0646   0.0650  -0.0415   0.0288  -0.0434   0.00    0.0
2026/01/15 02:44:30.000   67.857353082   20.968456598   390.8777   6  23   0.0611   0.0641   0.0647  -0.0412   0.0287  -0.0432   0.00    0.0
2026/01/15 02:45:00.000   67.857353088   20.968456587   390.8777   6  23   0.0607   0.0637   0.0644  -0.0410   0.0287  -0.0430   0.00    0.0
2026/01/15 02:45:30.000   67.857353098   20.968456569   390.8776   6  23   0.0604   0.0632   0.0641  -0.0408   0.0286  -0.0428   0.00    0.0
2026/01/15 02:46:00.000   67.857353110   20.968456551   390.8774   6  23   0.0600   0.0628   0.0638  -0.0405   0.0285  -0.0426   0.00    0.0
2026/01/15 02:46:30.000   67.857353123   20.968456523   390.8771   6  23   0.0596   0.0624   0.0635  -0.0403   0.0283  -0.0424   0.00    0.0
2026/01/15 02:47:00.000   67.857353134   20.968456505   390.8766   6  23   0.0592   0.0619   0.0632  -0.0400   0.0282  -0.0421   0.00    0.0
2026/01/15 02:47:30.000   67.857353147   20.968456479   390.8761   6  23   0.0589   0.0615   0.0630  -0.0398   0.0281  -0.0419   0.00    0.0
2026/01/15 02:48:00.000   67.857353157   20.968456454   390.8756   6  23   0.0585   0.0610   0.0627  -0.0395   0.0280  -0.0417   0.00    0.0
2026/01/15 02:48:30.000   67.857353167   20.968456426   390.8753   6  23   0.0581   0.0606   0.0624  -0.0393   0.0279  -0.0415   0.00    0.0
2026/01/15 02:49:00.000   67.857353178   20.968456403   390.8747   6  23   0.0578   0.0602   0.0621  -0.0390   0.0278  -0.0413   0.00    0.0
2026/01/15 02:49:30.000   67.857353190   20.968456374   390.8742   6  23   0.0574   0.0598   0.0618  -0.0388   0.0276  -0.0410   0.00    0.0
2026/01/15 02:50:00.000   67.857353200   20.968456347   390.8737   6  23   0.0571   0.0593   0.0615  -0.0385   0.0275  -0.0408   0.00    0.0
2026/01/15 02:50:30.000   67.857353209   20.968456326   390.8732   6  23   0.0567   0.0589   0.0612  -0.0383   0.0273  -0.0406   0.00    0.0
2026/01/15 02:51:00.000   67.857353216   20.968456308   390.8729   6  23   0.0564   0.0585   0.0610  -0.0380   0.0272  -0.0404   0.00    0.0
2026/01/15 02:51:30.000   67.857353225   20.968456286   390.8724   6  23   0.0560   0.0581   0.0607  -0.0377   0.0271  -0.0402   0.00    0.0
2026/01/15 02:52:00.000   67.857353233   20.968456260   390.8720   6  23   0.0557   0.0577   0.0604  -0.0375   0.0269  -0.0400   0.00    0.0
2026/01/15 02:52:30.000   67.857353243   20.968456234   390.8714   6  23   0.0553   0.0573   0.0601  -0.0372   0.0268  -0.0398   0.00    0.0
2026/01/15 02:53:00.000   67.857353252   20.968456216   390.8708   6  23   0.0550   0.0569   0.0598  -0.0370   0.0266  -0.0395   0.00    0.0
2026/01/15 02:53:30.000   67.857353263   20.968456196   390.8700   6  23   0.0546   0.0565   0.0596  -0.0367   0.0265  -0.0393   0.00    0.0
2026/01/15 02:54:00.000   67.857353273   20.968456174   390.8693   6  23   0.0543   0.0561   0.0593  -0.0365   0.0263  -0.0391   0.00    0.0
2026/01/15 02:54:30.000   67.857353282   20.968456157   390.8685   6  23   0.0540   0.0557   0.0590  -0.0362   0.0262  -0.0389   0.00    0.0
2026/01/15 02:55:00.000   67.857353290   20.968456145   390.8678   6  23   0.0537   0.0553   0.0587  -0.0360   0.0261  -0.0387   0.00    0.0
2026/01/15 02:55:30.000   67.857353298   20.968456125   390.8671   6  23   0.0533   0.0550   0.0585  -0.0357   0.0259  -0.0385   0.00    0.0
2026/01/15 02:56:00.000   67.857353308   20.968456103   390.8664   6  23   0.0530   0.0546   0.0582  -0.0355   0.0258  -0.0383   0.00    0.0
2026/01/15 02:56:30.000   67.857353317   20.968456078   390.8657   6  23   0.0527   0.0542   0.0579  -0.0352   0.0256  -0.0381   0.00    0.0
2026/01/15 02:57:00.000   67.857353325   20.968456059   390.8649   6  23   0.0524   0.0538   0.0576  -0.0350   0.0255  -0.0379   0.00    0.0
2026/01/15 02:57:30.000   67.857353334   20.968456039   390.8640   6  24   0.0520   0.0535   0.0574  -0.0347   0.0253  -0.0377   0.00    0.0
2026/01/15 02:58:00.000   67.857353342   20.968456017   390.8632   6  23   0.0517   0.0531   0.0571  -0.0345   0.0251  -0.0375   0.00    0.0
2026/01/15 02:58:30.000   67.857353349   20.968456006   390.8624   6  24   0.0514   0.0527   0.0568  -0.0342   0.0250  -0.0373   0.00    0.0
2026/01/15 02:59:00.000   67.857353355   20.968455995   390.8617   6  24   0.0511   0.0524   0.0566  -0.0340   0.0248  -0.0371   0.00    0.0
2026/01/15 02:59:30.000   67.857353364   20.968455974   390.8608   6  24   0.0508   0.0520   0.0563  -0.0337   0.0246  -0.0369   0.00    0.0
2026/01/15 03:00:00.000   67.857353369   20.968455959   390.8602   6  24   0.0505   0.0517   0.0560  -0.0335   0.0245  -0.0367   0.00    0.0
2026/01/15 03:00:30.000   67.857353378   20.968455935   390.8594   6  24   0.0502   0.0513   0.0557  -0.0332   0.0243  -0.0365   0.00    0.0
2026/01/15 03:01:00.000   67.857353386   20.968455908   390.8584   6  24   0.0499   0.0510   0.0555  -0.0330   0.0241  -0.0363   0.00    0.0
2026/01/15 03:01:30.000   67.857353392   20.968455891   390.8575   6  24   0.0496   0.0506   0.0552  -0.0327   0.0240  -0.0361   0.00    0.0
2026/01/15 03:02:00.000   67.857353402   20.968455866   390.8564   6  24   0.0493   0.0503   0.0549  -0.0325   0.0238  -0.0359   0.00    0.0
2026/01/15 03:02:30.000   67.857353411   20.968455850   390.8554   6  24   0.0490   0.0499   0.0547  -0.0322   0.0236  -0.0357   0.00    0.0
2026/01/15 03:03:00.000   67.857353418   20.968455836   390.8544   6  24   0.0487   0.0496   0.0544  -0.0320   0.0235  -0.0355   0.00    0.0
2026/01/15 03:03:30.000   67.857353426   20.968455816   390.8533   6  24   0.0484   0.0493   0.0541  -0.0317   0.0233  -0.0353   0.00    0.0
2026/01/15 03:04:00.000   67.857353431   20.968455799   390.8522   6  24   0.0481   0.0489   0.0539  -0.0315   0.0231  -0.0351   0.00    0.0
2026/01/15 03:04:30.000   67.857353438   20.968455784   390.8510   6  24   0.0478   0.0486   0.0536  -0.0313   0.0229  -0.0349   0.00    0.0
2026/01/15 03:05:00.000   67.857353444   20.968455769   390.8499   6  24   0.0475   0.0483   0.0534  -0.0310   0.0227  -0.0348   0.00    0.0
2026/01/15 03:05:30.000   67.857353452   20.968455746   390.8487   6  24   0.0472   0.0480   0.0531  -0.0308   0.0226  -0.0346   0.00    0.0
2026/01/15 03:06:00.000   67.857353458   20.968455731   390.8476   6  24   0.0469   0.0476   0.0528  -0.0305   0.0224  -0.0344   0.00    0.0
2026/01/15 03:06:30.000   67.857353464   20.968455717   390.8465   6  25   0.0467   0.0473   0.0526  -0.0303   0.0222  -0.0342   0.00    0.0
2026/01/15 03:07:00.000   67.857353472   20.968455696   390.8453   6  25   0.0464   0.0470   0.0523  -0.0300   0.0220  -0.0340   0.00    0.0
2026/01/15 03:07:30.000   67.857353480   20.968455676   390.8441   6  25   0.0461   0.0467   0.0520  -0.0298   0.0219  -0.0338   0.00    0.0
2026/01/15 03:08:00.000   67.857353486   20.968455662   390.8430   6  25   0.0458   0.0464   0.0518  -0.0296   0.0217  -0.0336   0.00    0.0
2026/01/15 03:08:30.000   67.857353490   20.968455653   390.8418   6  25   0.0456   0.0461   0.0515  -0.0293   0.0215  -0.0334   0.00    0.0
2026/01/15 03:09:00.000   67.857353497   20.968455635   390.8402   6  25   0.0453   0.0458   0.0513  -0.0291   0.0213  -0.0332   0.00    0.0
2026/01/15 03:09:30.000   67.857353504   20.968455620   390.8387   6  25   0.0450   0.0455   0.0510  -0.0289   0.0212  -0.0330   0.00    0.0
2026/01/15 03:10:00.000   67.857353512   20.968455601   390.8371   6  25   0.0448   0.0452   0.0508  -0.0286   0.0210  -0.0329   0.00    0.0
2026/01/15 03:10:30.000   67.857353520   20.968455593   390.8361   6  24   0.0445   0.0449   0.0506  -0.0284   0.0208  -0.0327   0.00    0.0
2026/01/15 03:11:00.000   67.857353528   20.968455580   390.8350   6  24   0.0442   0.0446   0.0503  -0.0282   0.0207  -0.0325   0.00    0.0
2026/01/15 03:11:30.000   67.857353535   20.968455574   390.8341   6  24   0.0440   0.0444   0.0501  -0.0280   0.0206  -0.0323   0.00    0.0
2026/01/15 03:12:00.000   67.857353542   20.968455567   390.8331   6  24   0.0437   0.0441   0.0499  -0.0277   0.0204  -0.0321   0.00    0.0
2026/01/15 03:12:30.000   67.857353549   20.968455557   390.8320   6  24   0.0435   0.0438   0.0497  -0.0275   0.0203  -0.0319   0.00    0.0
2026/01/15 03:13:00.000   67.857353557   20.968455549   390.8309   6  24   0.0432   0.0435   0.0494  -0.0273   0.0201  -0.0317   0.00    0.0
2026/01/15 03:13:30.000   67.857353563   20.968455543   390.8297   6  24   0.0430   0.0433   0.0492  -0.0271   0.0200  -0.0315   0.00    0.0
2026/01/15 03:14:00.000   67.857353570   20.968455530   390.8284   6  24   0.0427   0.0430   0.0490  -0.0268   0.0198  -0.0313   0.00    0.0
2026/01/15 03:14:30.000   67.857353578   20.968455521   390.8270   6  24   0.0425   0.0427   0.0488  -0.0266   0.0197  -0.0311   0.00    0.0
2026/01/15 03:15:00.000   67.857353586   20.968455511   390.8257   6  24   0.0422   0.0425   0.0486  -0.0264   0.0195  -0.0310   0.00    0.0
2026/01/15 03:15:30.000   67.857353593   20.968455503   390.8244   6  24   0.0420   0.0422   0.0484  -0.0262   0.0194  -0.0308   0.00    0.0
2026/01/15 03:16:00.000   67.857353599   20.968455492   390.8231   6  24   0.0417   0.0420   0.0481  -0.0260   0.0192  -0.0306   0.00    0.0
2026/01/15 03:16:30.000   67.857353606   20.968455485   390.8216   6  24   0.0415   0.0417   0.0479  -0.0257   0.0191  -0.0304   0.00    0.0
2026/01/15 03:17:00.000   67.857353614   20.968455476   390.8202   6  24   0.0413   0.0415   0.0477  -0.0255   0.0189  -0.0302   0.00    0.0
2026/01/15 03:17:30.000   67.857353621   20.968455462   390.8196   6  23   0.0410   0.0412   0.0475  -0.0253   0.0187  -0.0301   0.00    0.0
2026/01/15 03:18:00.000   67.857353629   20.968455450   390.8191   6  23   0.0408   0.0410   0.0474  -0.0251   0.0186  -0.0299   0.00    0.0
2026/01/15 03:18:30.000   67.857353635   20.968455433   390.8187   6   5   0.0406   0.0408   0.0473  -0.0249   0.0183  -0.0298   0.00    0.0
2026/01/15 03:19:00.000   67.857353641   20.968455420   390.8185   6   5   0.0405   0.0406   0.0473  -0.0247   0.0181  -0.0297   0.00    0.0
2026/01/15 03:19:30.000   67.857353645   20.968455408   390.8184   6   7   0.0403   0.0404   0.0472  -0.0245   0.0179  -0.0296   0.00    0.0
2026/01/15 03:20:00.000   67.857353651   20.968455397   390.8182   6   6   0.0402   0.0403   0.0471  -0.0243   0.0177  -0.0295   0.00    0.0
2026/01/15 03:20:30.000   67.857353656   20.968455387   390.8179   6   6   0.0400   0.0401   0.0471  -0.0241   0.0175  -0.0294   0.00    0.0
2026/01/15 03:21:00.000   67.857353660   20.968455378   390.8178   6   7   0.0399   0.0399   0.0470  -0.0239   0.0173  -0.0293   0.00    0.0
2026/01/15 03:21:30.000   67.857353666   20.968455367   390.8175   6   6   0.0397   0.0398   0.0470  -0.0237   0.0171  -0.0292   0.00    0.0
2026/01/15 03:22:00.000   67.857353671   20.968455356   390.8173   6   6   0.0396   0.0396   0.0469  -0.0235   0.0169  -0.0291   0.00    0.0
2026/01/15 03:22:30.000   67.857353676   20.968455343   390.8170   6   6   0.0394   0.0394   0.0468  -0.0233   0.0167  -0.0290   0.00    0.0
2026/01/15 03:23:00.000   67.857353680   20.968455331   390.8168   6   6   0.0393   0.0392   0.0468  -0.0231   0.0164  -0.0290   0.00    0.0
2026/01/15 03:23:30.000   67.857353686   20.968455318   390.8166   6   6   0.0392   0.0391   0.0467  -0.0229   0.0162  -0.0289   0.00    0.0
2026/01/15 03:24:00.000   67.857353691   20.968455302   390.8163   6   6   0.0390   0.0389   0.0466  -0.0227   0.0160  -0.0288   0.00    0.0
2026/01/15 03:24:30.000   67.857353695   20.968455291   390.8160   6   6   0.0389   0.0388   0.0466  -0.0225   0.0158  -0.0287   0.00    0.0
2026/01/15 03:25:00.000   67.857353699   20.968455280   390.8159   6   6   0.0387   0.0386   0.0465  -0.0223   0.0156  -0.0286   0.00    0.0
2026/01/15 03:25:30.000   67.857353703   20.968455268   390.8157   6   6   0.0386   0.0384   0.0464  -0.0222   0.0153  -0.0285   0.00    0.0
2026/01/15 03:26:00.000   67.857353706   20.968455258   390.8154   6   7   0.0384   0.0383   0.0464  -0.0220   0.0151  -0.0284   0.00    0.0
2026/01/15 03:26:30.000   67.857353709   20.968455242   390.8152   6   7   0.0383   0.0381   0.0463  -0.0218   0.0149  -0.0283   0.00    0.0
2026/01/15 03:27:00.000   67.857353712   20.968455231   390.8149   6   7   0.0381   0.0380   0.0463  -0.0216   0.0147  -0.0282   0.00    0.0
2026/01/15 03:27:30.000   67.857353717   20.968455215   390.8148   6   6   0.0380   0.0378   0.0462  -0.0214   0.0144  -0.0281   0.00    0.0
2026/01/15 03:28:00.000   67.857353721   20.968455201   390.8145   6   7   0.0379   0.0376   0.0461  -0.0212   0.0142  -0.0280   0.00    0.0
2026/01/15 03:28:30.000   67.857353726   20.968455187   390.8142   6  10   0.0377   0.0375   0.0461  -0.0210   0.0140  -0.0279   0.00    0.0
2026/01/15 03:29:00.000   67.857353729   20.968455172   390.8139   6   8   0.0376   0.0373   0.0460  -0.0208   0.0137  -0.0279   0.00    0.0
2026/01/15 03:29:30.000   67.857353732   20.968455162   390.8138   6  11   0.0374   0.0372   0.0459  -0.0206   0.0135  -0.0278   0.00    0.0
2026/01/15 03:30:00.000   67.857353736   20.968455148   390.8136   6   8   0.0373   0.0370   0.0458  -0.0204   0.0133  -0.0277   0.00    0.0
2026/01/15 03:30:30.000   67.857353739   20.968455136   390.8134   6   9   0.0372   0.0369   0.0458  -0.0203   0.0130  -0.0276   0.00    0.0
2026/01/15 03:31:00.000   67.857353742   20.968455124   390.8132   6   8   0.0370   0.0367   0.0457  -0.0201   0.0128  -0.0275   0.00    0.0
2026/01/15 03:31:30.000   67.857353747   20.968455112   390.8128   6  13   0.0369   0.0366   0.0456  -0.0199   0.0125  -0.0274   0.00    0.0
2026/01/15 03:32:00.000   67.857353750   20.968455100   390.8125   6   7   0.0368   0.0364   0.0456  -0.0197   0.0123  -0.0273   0.00    0.0
2026/01/15 03:32:30.000   67.857353753   20.968455092   390.8123   6  15   0.0366   0.0363   0.0455  -0.0195   0.0121  -0.0272   0.00    0.0
2026/01/15 03:33:00.000   67.857353757   20.968455080   390.8120   6   6   0.0365   0.0361   0.0454  -0.0193   0.0118  -0.0271   0.00    0.0
2026/01/15 03:33:30.000   67.857353760   20.968455071   390.8117   6  15   0.0364   0.0360   0.0454  -0.0192   0.0115  -0.0271   0.00    0.0
2026/01/15 03:34:00.000   67.857353764   20.968455059   390.8114   6  21   0.0362   0.0359   0.0453  -0.0190   0.0113  -0.0270   0.00    0.0
2026/01/15 03:34:30.000   67.857353767   20.968455050   390.8112   6  21   0.0361   0.0357   0.0452  -0.0188   0.0110  -0.0269   0.00    0.0
2026/01/15 03:35:00.000   67.857353770   20.968455039   390.8109   6  21   0.0360   0.0356   0.0451  -0.0186   0.0108  -0.0268   0.00    0.0
2026/01/15 03:35:30.000   67.857353773   20.968455028   390.8107   6  21   0.0358   0.0354   0.0451  -0.0184   0.0105  -0.0267   0.00    0.0
2026/01/15 03:36:00.000   67.857353774   20.968455016   390.8104   6  21   0.0357   0.0353   0.0450  -0.0183   0.0102  -0.0266   0.00    0.0
2026/01/15 03:36:30.000   67.857353772   20.968455017   390.8106   6  17   0.0357   0.0353   0.0450  -0.0183   0.0102  -0.0266   0.00    0.0
2026/01/15 03:37:00.000   67.857353771   20.968455019   390.8106   6  17   0.0357   0.0353   0.0450  -0.0183   0.0102  -0.0266   0.00    0.0
2026/01/15 03:37:30.000   67.857353771   20.968455020   390.8107   6  17   0.0357   0.0353   0.0450  -0.0182   0.0102  -0.0266   0.00    0.0
2026/01/15 03:38:00.000   67.857353771   20.968455020   390.8108   6  17   0.0357   0.0353   0.0450  -0.0182   0.0102  -0.0266   0.00    0.0
2026/01/15 03:38:30.000   67.857353771   20.968455020   390.8108   6  17   0.0357   0.0353   0.0450  -0.0182   0.0102  -0.0266   0.00    0.0
2026/01/15 03:39:00.000   67.857353770   20.968455023   390.8109   6  17   0.0357   0.0353   0.0450  -0.0182   0.0102  -0.0266   0.00    0.0
2026/01/15 03:39:30.000   67.857353771   20.968455021   390.8108   6  17   0.0357   0.0353   0.0450  -0.0182   0.0102  -0.0266   0.00    0.0
2026/01/15 03:40:00.000   67.857353770   20.968455021   390.8108   6  17   0.0357   0.0353   0.0450  -0.0182   0.0102  -0.0266   0.00    0.0
2026/01/15 03:40:30.000   67.857353769   20.968455024   390.8110   6  17   0.0357   0.0353   0.0450  -0.0182   0.0102  -0.0266   0.00    0.0
2026/01/15 03:41:00.000   67.857353769   20.968455023   390.8109   6  17   0.0357   0.0353   0.0450  -0.0182   0.0102  -0.0266   0.00    0.0
2026/01/15 03:41:30.000   67.857353770   20.968455024   390.8109   6  17   0.0357   0.0352   0.0450  -0.0182   0.0102  -0.0266   0.00    0.0
2026/01/15 03:42:00.000   67.857353769   20.968455025   390.8109   6  17   0.0357   0.0352   0.0450  -0.0182   0.0102  -0.0266   0.00    0.0
2026/01/15 03:42:30.000   67.857353769   20.968455026   390.8110   6  17   0.0357   0.0352   0.0449  -0.0182   0.0102  -0.0266   0.00    0.0
2026/01/15 03:43:00.000   67.857353769   20.968455026   390.8110   6  17   0.0356   0.0352   0.0449  -0.0182   0.0102  -0.0265   0.00    0.0
2026/01/15 03:43:30.000   67.857353769   20.968455026   390.8110   6  18   0.0356   0.0352   0.0449  -0.0182   0.0102  -0.0265   0.00    0.0
2026/01/15 03:44:00.000   67.857353769   20.968455025   390.8110   6  17   0.0356   0.0352   0.0449  -0.0182   0.0102  -0.0265   0.00    0.0
2026/01/15 03:44:30.000   67.857353771   20.968455025   390.8108   6  17   0.0356   0.0352   0.0449  -0.0182   0.0102  -0.0265   0.00    0.0
2026/01/15 03:45:00.000   67.857353770   20.968455025   390.8108   6  17   0.0356   0.0352   0.0449  -0.0182   0.0102  -0.0265   0.00    0.0
2026/01/15 03:45:30.000   67.857353770   20.968455023   390.8108   6  17   0.0356   0.0352   0.0449  -0.0182   0.0102  -0.0265   0.00    0.0
2026/01/15 03:46:00.000   67.857353771   20.968455023   390.8108   6  17   0.0356   0.0352   0.0449  -0.0182   0.0102  -0.0265   0.00    0.0
2026/01/15 03:46:30.000   67.857353771   20.968455027   390.8107   6  17   0.0356   0.0352   0.0449  -0.0182   0.0102  -0.0265   0.00    0.0
2026/01/15 03:47:00.000   67.857353772   20.968455027   390.8106   6  17   0.0356   0.0352   0.0449  -0.0182   0.0102  -0.0265   0.00    0.0
2026/01/15 03:47:30.000   67.857353772   20.968455026   390.8106   6  17   0.0356   0.0352   0.0449  -0.0182   0.0101  -0.0265   0.00    0.0
2026/01/15 03:48:00.000   67.857353773   20.968455025   390.8105   6  17   0.0356   0.0352   0.0449  -0.0181   0.0101  -0.0265   0.00    0.0
