% program   : RTKPOST-EX 2.5.0
% inp file  : C:\Users\tevin\Desktop\GNSS - MASTA\SPRING SEM\4.SAT NAV DATA PROCESSING\TEAM PROJECT\SNDP-PROJECT\New_Data\obs\RNXDATA\KIRU00SWE_R_20260150000_01D_30S_MO.rnx
% inp file  : C:\Users\tevin\Desktop\GNSS - MASTA\SPRING SEM\4.SAT NAV DATA PROCESSING\TEAM PROJECT\SNDP-PROJECT\Old_data\products\nav\BRD400DLR_S_20260150000_01D_MN.rnx
% obs start : 2026/01/15 00:00:00.0 GPST (week2401 345600.0s)
% obs end   : 2026/01/15 23:59:30.0 GPST (week2401 431970.0s)
% pos mode  : PPP Static
% freqs     : L1+L2/E5b
% solution  : Forward
% elev mask : 15.0 deg
% dynamics  : on
% tidecorr  :
% ionos opt : Broadcast
% tropo opt : Saastamoinen
% ephemeris : Broadcast
% navi sys  : GPS
% antenna1  :                       ( 0.0000  0.0000  0.0620)
%
% (lat/lon/height=WGS84/ellipsoidal,Q=1:fix,2:float,3:sbas,4:dgps,5:single,6:ppp,ns=# of satellites)
%  GPST                  latitude(deg) longitude(deg)  height(m)   Q  ns   sdn(m)   sde(m)   sdu(m)  sdne(m)  sdeu(m)  sdun(m) age(s)  ratio
2026/01/15 01:19:00.000   67.857345092   20.968478593   384.8471   6   4   0.1820   0.1330   0.4366  -0.0947  -0.1371   0.2153   0.00    0.0
2026/01/15 01:20:00.000   67.857345676   20.968477860   384.9801   6   4   0.1809   0.1316   0.4331  -0.0933  -0.1342   0.2137   0.00    0.0
2026/01/15 01:21:00.000   67.857346243   20.968477152   385.1079   6   4   0.1798   0.1304   0.4298  -0.0919  -0.1313   0.2121   0.00    0.0
2026/01/15 01:22:00.000   67.857346807   20.968476460   385.2321   6   4   0.1787   0.1292   0.4265  -0.0905  -0.1285   0.2106   0.00    0.0
2026/01/15 01:22:30.000   67.857347092   20.968476113   385.2931   6   4   0.1782   0.1286   0.4248  -0.0899  -0.1271   0.2099   0.00    0.0
2026/01/15 01:23:00.000   67.857347370   20.968475787   385.3508   6   4   0.1777   0.1280   0.4232  -0.0892  -0.1258   0.2091   0.00    0.0
2026/01/15 01:23:30.000   67.857347644   20.968475470   385.4096   6   4   0.1772   0.1274   0.4217  -0.0886  -0.1244   0.2084   0.00    0.0
2026/01/15 01:24:00.000   67.857347911   20.968475149   385.4680   6   4   0.1767   0.1268   0.4201  -0.0879  -0.1231   0.2076   0.00    0.0
2026/01/15 01:24:30.000   67.857348173   20.968474831   385.5259   6   4   0.1762   0.1263   0.4186  -0.0873  -0.1217   0.2069   0.00    0.0
2026/01/15 01:25:00.000   67.857348434   20.968474471   385.5913   6   4   0.1757   0.1257   0.4172  -0.0866  -0.1205   0.2062   0.00    0.0
2026/01/15 01:25:30.000   67.857348667   20.968474197   385.6486   6   4   0.1752   0.1252   0.4159  -0.0860  -0.1193   0.2054   0.00    0.0
2026/01/15 01:26:30.000   67.857349160   20.968473588   385.7700   6   4   0.1742   0.1242   0.4132  -0.0847  -0.1169   0.2039   0.00    0.0
2026/01/15 01:27:30.000   67.857349632   20.968473004   385.8865   6   4   0.1733   0.1232   0.4106  -0.0835  -0.1146   0.2025   0.00    0.0
2026/01/15 01:28:00.000   67.857349871   20.968472697   385.9456   6   4   0.1728   0.1227   0.4093  -0.0829  -0.1134   0.2018   0.00    0.0
2026/01/15 01:28:30.000   67.857350094   20.968472423   386.0019   6   4   0.1724   0.1222   0.4081  -0.0823  -0.1123   0.2011   0.00    0.0
2026/01/15 01:29:00.000   67.857350330   20.968472126   386.0613   6   4   0.1719   0.1217   0.4068  -0.0817  -0.1111   0.2003   0.00    0.0
2026/01/15 01:29:30.000   67.857350560   20.968471847   386.1183   6   4   0.1714   0.1213   0.4055  -0.0812  -0.1100   0.1996   0.00    0.0
2026/01/15 01:30:00.000   67.857350783   20.968471569   386.1753   6   4   0.1710   0.1208   0.4043  -0.0806  -0.1089   0.1989   0.00    0.0
2026/01/15 01:30:30.000   67.857351005   20.968471290   386.2313   6   4   0.1705   0.1203   0.4031  -0.0800  -0.1077   0.1982   0.00    0.0
2026/01/15 01:31:00.000   67.857351195   20.968471112   386.2763   6   4   0.1701   0.1199   0.4018  -0.0795  -0.1066   0.1975   0.00    0.0
2026/01/15 01:31:30.000   67.857351406   20.968470878   386.3255   6   4   0.1696   0.1194   0.4006  -0.0789  -0.1055   0.1969   0.00    0.0
2026/01/15 01:32:30.000   67.857351851   20.968470370   386.4332   6   4   0.1687   0.1186   0.3982  -0.0778  -0.1033   0.1955   0.00    0.0
2026/01/15 01:33:00.000   67.857352059   20.968470141   386.4834   6   4   0.1683   0.1181   0.3970  -0.0773  -0.1023   0.1948   0.00    0.0
2026/01/15 01:33:30.000   67.857352279   20.968469880   386.5359   6   4   0.1679   0.1177   0.3958  -0.0767  -0.1012   0.1941   0.00    0.0
2026/01/15 01:34:00.000   67.857352487   20.968469655   386.5859   6   4   0.1674   0.1173   0.3946  -0.0762  -0.1001   0.1935   0.00    0.0
2026/01/15 01:34:30.000   67.857352682   20.968469464   386.6332   6   4   0.1670   0.1169   0.3934  -0.0757  -0.0991   0.1928   0.00    0.0
2026/01/15 01:35:00.000   67.857352880   20.968469229   386.6815   6   4   0.1665   0.1165   0.3922  -0.0752  -0.0980   0.1921   0.00    0.0
2026/01/15 01:35:30.000   67.857353053   20.968469068   386.7232   6   4   0.1661   0.1161   0.3910  -0.0747  -0.0970   0.1915   0.00    0.0
2026/01/15 01:36:00.000   67.857353250   20.968468846   386.7708   6   4   0.1657   0.1157   0.3898  -0.0742  -0.0959   0.1908   0.00    0.0
2026/01/15 01:36:30.000   67.857353447   20.968468622   386.8193   6   4   0.1653   0.1153   0.3887  -0.0737  -0.0949   0.1901   0.00    0.0
2026/01/15 01:37:00.000   67.857353645   20.968468391   386.8676   6   4   0.1648   0.1149   0.3875  -0.0732  -0.0939   0.1895   0.00    0.0
2026/01/15 01:37:30.000   67.857353839   20.968468167   386.9139   6   4   0.1644   0.1145   0.3863  -0.0727  -0.0928   0.1888   0.00    0.0
2026/01/15 01:38:00.000   67.857354027   20.968467975   386.9605   6   4   0.1640   0.1142   0.3852  -0.0722  -0.0918   0.1881   0.00    0.0
2026/01/15 01:38:30.000   67.857354208   20.968467775   387.0059   6   4   0.1636   0.1138   0.3840  -0.0718  -0.0908   0.1875   0.00    0.0
2026/01/15 01:39:00.000   67.857354379   20.968467587   387.0515   6   4   0.1632   0.1134   0.3829  -0.0713  -0.0898   0.1868   0.00    0.0
2026/01/15 01:39:30.000   67.857354553   20.968467384   387.0946   6   4   0.1627   0.1131   0.3817  -0.0708  -0.0888   0.1862   0.00    0.0
2026/01/15 01:40:00.000   67.857354743   20.968467195   387.1384   6   4   0.1623   0.1127   0.3806  -0.0704  -0.0878   0.1855   0.00    0.0
2026/01/15 01:40:30.000   67.857354932   20.968466970   387.1839   6   4   0.1619   0.1124   0.3795  -0.0699  -0.0868   0.1849   0.00    0.0
2026/01/15 01:41:00.000   67.857355102   20.968466803   387.2233   6   4   0.1615   0.1120   0.3783  -0.0695  -0.0859   0.1842   0.00    0.0
2026/01/15 01:41:30.000   67.857355270   20.968466636   387.2658   6   4   0.1611   0.1117   0.3772  -0.0691  -0.0849   0.1836   0.00    0.0
2026/01/15 01:42:00.000   67.857355440   20.968466446   387.3081   6   4   0.1607   0.1113   0.3761  -0.0686  -0.0839   0.1829   0.00    0.0
2026/01/15 01:42:30.000   67.857355597   20.968466270   387.3472   6   4   0.1603   0.1110   0.3749  -0.0682  -0.0830   0.1823   0.00    0.0
2026/01/15 01:43:00.000   67.857355761   20.968466100   387.3886   6   4   0.1599   0.1107   0.3738  -0.0678  -0.0820   0.1816   0.00    0.0
2026/01/15 01:43:30.000   67.857355917   20.968465947   387.4275   6   4   0.1595   0.1103   0.3727  -0.0674  -0.0811   0.1810   0.00    0.0
2026/01/15 01:44:00.000   67.857356059   20.968465790   387.4643   6   4   0.1591   0.1100   0.3715  -0.0670  -0.0801   0.1804   0.00    0.0
2026/01/15 01:44:30.000   67.857356217   20.968465638   387.5030   6   4   0.1587   0.1097   0.3704  -0.0665  -0.0792   0.1797   0.00    0.0
2026/01/15 01:45:00.000   67.857356360   20.968465507   387.5368   6   4   0.1583   0.1094   0.3693  -0.0661  -0.0782   0.1791   0.00    0.0
2026/01/15 01:45:30.000   67.857356514   20.968465366   387.5745   6   4   0.1579   0.1091   0.3682  -0.0658  -0.0773   0.1784   0.00    0.0
2026/01/15 01:46:00.000   67.857356659   20.968465232   387.6118   6   4   0.1575   0.1088   0.3671  -0.0654  -0.0764   0.1778   0.00    0.0
2026/01/15 01:46:30.000   67.857356796   20.968465097   387.6460   6   4   0.1571   0.1085   0.3660  -0.0650  -0.0755   0.1772   0.00    0.0
2026/01/15 01:47:00.000   67.857356937   20.968464958   387.6797   6   4   0.1567   0.1082   0.3649  -0.0646  -0.0746   0.1765   0.00    0.0
2026/01/15 01:47:30.000   67.857357078   20.968464834   387.7125   6   4   0.1563   0.1079   0.3637  -0.0642  -0.0737   0.1759   0.00    0.0
2026/01/15 01:48:00.000   67.857357209   20.968464711   387.7453   6   4   0.1559   0.1076   0.3626  -0.0639  -0.0728   0.1752   0.00    0.0
2026/01/15 01:48:30.000   67.857357339   20.968464591   387.7754   6   4   0.1555   0.1073   0.3615  -0.0635  -0.0719   0.1746   0.00    0.0
2026/01/15 01:49:00.000   67.857357463   20.968464493   387.8047   6   4   0.1551   0.1070   0.3604  -0.0631  -0.0710   0.1740   0.00    0.0
2026/01/15 01:49:30.000   67.857357601   20.968464384   387.8322   6   4   0.1547   0.1068   0.3593  -0.0628  -0.0702   0.1734   0.00    0.0
2026/01/15 01:50:00.000   67.857357747   20.968464265   387.8607   6   4   0.1543   0.1065   0.3581  -0.0624  -0.0693   0.1728   0.00    0.0
2026/01/15 01:50:30.000   67.857357881   20.968464168   387.8859   6   4   0.1538   0.1062   0.3570  -0.0620  -0.0685   0.1722   0.00    0.0
2026/01/15 01:51:00.000   67.857358019   20.968464053   387.9125   6   4   0.1534   0.1059   0.3558  -0.0617  -0.0677   0.1717   0.00    0.0
2026/01/15 01:51:30.000   67.857358157   20.968463927   387.9397   6   4   0.1530   0.1057   0.3547  -0.0613  -0.0668   0.1711   0.00    0.0
2026/01/15 01:52:00.000   67.857358305   20.968463790   387.9661   6   4   0.1526   0.1054   0.3536  -0.0610  -0.0660   0.1705   0.00    0.0
2026/01/15 01:52:30.000   67.857358452   20.968463674   387.9947   6   4   0.1521   0.1051   0.3524  -0.0606  -0.0652   0.1699   0.00    0.0
2026/01/15 01:53:00.000   67.857358583   20.968463563   388.0201   6   4   0.1517   0.1049   0.3513  -0.0603  -0.0644   0.1694   0.00    0.0
2026/01/15 01:53:30.000   67.857358715   20.968463450   388.0440   6   4   0.1513   0.1046   0.3502  -0.0600  -0.0636   0.1688   0.00    0.0
2026/01/15 01:54:00.000   67.857358848   20.968463343   388.0684   6   4   0.1509   0.1044   0.3490  -0.0596  -0.0629   0.1682   0.00    0.0
2026/01/15 01:54:30.000   67.857358965   20.968463228   388.0910   6   4   0.1505   0.1041   0.3479  -0.0593  -0.0621   0.1676   0.00    0.0
2026/01/15 01:55:00.000   67.857359103   20.968463118   388.1157   6   4   0.1500   0.1039   0.3468  -0.0590  -0.0613   0.1671   0.00    0.0
2026/01/15 01:55:30.000   67.857359238   20.968462991   388.1399   6   4   0.1496   0.1036   0.3457  -0.0587  -0.0605   0.1665   0.00    0.0
2026/01/15 01:56:00.000   67.857359362   20.968462874   388.1643   6   4   0.1492   0.1034   0.3446  -0.0584  -0.0598   0.1659   0.00    0.0
2026/01/15 01:56:30.000   67.857359490   20.968462760   388.1893   6   4   0.1488   0.1031   0.3435  -0.0581  -0.0590   0.1653   0.00    0.0
2026/01/15 01:57:00.000   67.857359614   20.968462655   388.2121   6   4   0.1484   0.1029   0.3424  -0.0578  -0.0583   0.1648   0.00    0.0
2026/01/15 01:57:30.000   67.857359743   20.968462477   388.2236   6   5   0.1480   0.1026   0.3412  -0.0575  -0.0578   0.1642   0.00    0.0
2026/01/15 01:58:00.000   67.857359867   20.968462310   388.2379   6   5   0.1476   0.1023   0.3399  -0.0572  -0.0573   0.1636   0.00    0.0
2026/01/15 01:58:30.000   67.857359981   20.968462152   388.2505   6   5   0.1472   0.1021   0.3387  -0.0569  -0.0568   0.1631   0.00    0.0
2026/01/15 01:59:00.000   67.857360092   20.968461994   388.2628   6   5   0.1468   0.1018   0.3375  -0.0566  -0.0563   0.1625   0.00    0.0
2026/01/15 01:59:30.000   67.857360206   20.968461827   388.2730   6   5   0.1464   0.1015   0.3364  -0.0563  -0.0558   0.1620   0.00    0.0
2026/01/15 02:00:00.000   67.857360297   20.968461655   388.2860   6   5   0.1460   0.1013   0.3352  -0.0560  -0.0554   0.1614   0.00    0.0
2026/01/15 02:00:30.000   67.857360403   20.968461485   388.2992   6   5   0.1456   0.1010   0.3340  -0.0557  -0.0549   0.1609   0.00    0.0
2026/01/15 02:01:00.000   67.857360498   20.968461298   388.3117   6   5   0.1452   0.1008   0.3329  -0.0554  -0.0544   0.1603   0.00    0.0
2026/01/15 02:01:30.000   67.857360601   20.968461129   388.3242   6   5   0.1448   0.1005   0.3317  -0.0551  -0.0540   0.1598   0.00    0.0
2026/01/15 02:02:00.000   67.857360703   20.968460946   388.3373   6   5   0.1445   0.1003   0.3306  -0.0548  -0.0535   0.1593   0.00    0.0
2026/01/15 02:02:30.000   67.857360776   20.968460820   388.3395   6   5   0.1440   0.1000   0.3292  -0.0544  -0.0528   0.1586   0.00    0.0
2026/01/15 02:03:00.000   67.857360839   20.968460688   388.3407   6   5   0.1436   0.0997   0.3279  -0.0540  -0.0521   0.1579   0.00    0.0
2026/01/15 02:03:30.000   67.857360903   20.968460566   388.3431   6   5   0.1432   0.0994   0.3266  -0.0537  -0.0514   0.1573   0.00    0.0
2026/01/15 02:04:00.000   67.857360954   20.968460451   388.3408   6   5   0.1428   0.0992   0.3253  -0.0533  -0.0507   0.1566   0.00    0.0
2026/01/15 02:04:30.000   67.857361023   20.968460318   388.3450   6   5   0.1424   0.0989   0.3240  -0.0530  -0.0500   0.1560   0.00    0.0
2026/01/15 02:05:00.000   67.857361094   20.968460180   388.3499   6   5   0.1420   0.0986   0.3228  -0.0526  -0.0494   0.1554   0.00    0.0
2026/01/15 02:05:30.000   67.857361164   20.968460050   388.3509   6   5   0.1416   0.0984   0.3215  -0.0523  -0.0487   0.1547   0.00    0.0
2026/01/15 02:06:00.000   67.857361230   20.968459916   388.3529   6   5   0.1412   0.0981   0.3203  -0.0519  -0.0481   0.1541   0.00    0.0
2026/01/15 02:06:30.000   67.857361294   20.968459769   388.3528   6   5   0.1408   0.0979   0.3190  -0.0516  -0.0474   0.1535   0.00    0.0
2026/01/15 02:07:00.000   67.857361355   20.968459626   388.3563   6   5   0.1404   0.0976   0.3178  -0.0513  -0.0468   0.1529   0.00    0.0
2026/01/15 02:07:30.000   67.857361420   20.968459491   388.3617   6   5   0.1400   0.0973   0.3166  -0.0509  -0.0462   0.1523   0.00    0.0
2026/01/15 02:08:00.000   67.857361470   20.968459352   388.3631   6   5   0.1396   0.0971   0.3154  -0.0506  -0.0456   0.1517   0.00    0.0
2026/01/15 02:08:30.000   67.857361435   20.968459242   388.3457   6   5   0.1390   0.0968   0.3139  -0.0503  -0.0449   0.1508   0.00    0.0
2026/01/15 02:09:00.000   67.857361392   20.968459145   388.3258   6   5   0.1385   0.0966   0.3124  -0.0500  -0.0443   0.1499   0.00    0.0
2026/01/15 02:09:30.000   67.857361346   20.968459028   388.3026   6   5   0.1380   0.0963   0.3110  -0.0496  -0.0437   0.1490   0.00    0.0
2026/01/15 02:10:00.000   67.857361307   20.968458923   388.2856   6   5   0.1374   0.0961   0.3095  -0.0493  -0.0431   0.1481   0.00    0.0
2026/01/15 02:10:30.000   67.857361240   20.968458831   388.2603   6   5   0.1369   0.0958   0.3081  -0.0490  -0.0425   0.1473   0.00    0.0
2026/01/15 02:11:00.000   67.857361175   20.968458745   388.2374   6   5   0.1364   0.0956   0.3067  -0.0487  -0.0419   0.1464   0.00    0.0
2026/01/15 02:11:30.000   67.857361145   20.968458625   388.2229   6   5   0.1359   0.0954   0.3054  -0.0484  -0.0413   0.1456   0.00    0.0
2026/01/15 02:12:00.000   67.857361101   20.968458507   388.2025   6   4   0.1355   0.0951   0.3044  -0.0483  -0.0412   0.1451   0.00    0.0
2026/01/15 02:12:30.000   67.857361061   20.968458389   388.1846   6   4   0.1352   0.0949   0.3034  -0.0481  -0.0410   0.1446   0.00    0.0
2026/01/15 18:48:30.000   67.857357489   20.968457591   389.2074   6   4   0.0427   0.0329   0.1003  -0.0080   0.0111   0.0412   0.00    0.0
2026/01/15 18:49:30.000   67.857357492   20.968457602   389.2005   6   4   0.0427   0.0329   0.1002  -0.0081   0.0111   0.0412   0.00    0.0
2026/01/15 18:50:00.000   67.857357493   20.968457609   389.1969   6   4   0.0427   0.0329   0.1002  -0.0081   0.0111   0.0412   0.00    0.0
2026/01/15 18:50:30.000   67.857357494   20.968457613   389.1933   6   4   0.0427   0.0329   0.1002  -0.0081   0.0111   0.0412   0.00    0.0
2026/01/15 18:51:00.000   67.857357496   20.968457619   389.1898   6   4   0.0427   0.0329   0.1002  -0.0081   0.0111   0.0412   0.00    0.0
2026/01/15 18:51:30.000   67.857357498   20.968457625   389.1861   6   4   0.0426   0.0329   0.1001  -0.0081   0.0111   0.0412   0.00    0.0
2026/01/15 18:52:00.000   67.857357500   20.968457628   389.1827   6   4   0.0426   0.0329   0.1001  -0.0081   0.0111   0.0412   0.00    0.0
2026/01/15 18:52:30.000   67.857357501   20.968457632   389.1791   6   4   0.0426   0.0328   0.1001  -0.0081   0.0111   0.0412   0.00    0.0
2026/01/15 18:53:00.000   67.857357504   20.968457637   389.1756   6   4   0.0426   0.0328   0.1001  -0.0081   0.0111   0.0412   0.00    0.0
2026/01/15 18:53:30.000   67.857357505   20.968457640   389.1722   6   4   0.0426   0.0328   0.1001  -0.0081   0.0111   0.0412   0.00    0.0
2026/01/15 18:54:30.000   67.857357510   20.968457649   389.1655   6   4   0.0426   0.0328   0.1000  -0.0081   0.0111   0.0412   0.00    0.0
2026/01/15 18:55:00.000   67.857357513   20.968457653   389.1621   6   4   0.0426   0.0328   0.1000  -0.0081   0.0111   0.0412   0.00    0.0
2026/01/15 18:55:30.000   67.857357516   20.968457656   389.1588   6   4   0.0426   0.0328   0.1000  -0.0081   0.0111   0.0412   0.00    0.0
2026/01/15 19:02:00.000   67.857357557   20.968457645   389.1177   6   4   0.0425   0.0327   0.0997  -0.0082   0.0112   0.0411   0.00    0.0
2026/01/15 19:12:00.000   67.857357669   20.968457492   389.0622   6   4   0.0424   0.0326   0.0994  -0.0083   0.0110   0.0410   0.00    0.0
2026/01/15 19:12:30.000   67.857357675   20.968457481   389.0596   6   4   0.0424   0.0326   0.0994  -0.0083   0.0110   0.0410   0.00    0.0
2026/01/15 19:13:00.000   67.857357681   20.968457470   389.0569   6   4   0.0424   0.0326   0.0994  -0.0084   0.0110   0.0410   0.00    0.0
2026/01/15 19:13:30.000   67.857357687   20.968457460   389.0544   6   4   0.0424   0.0326   0.0994  -0.0084   0.0109   0.0410   0.00    0.0
2026/01/15 19:14:00.000   67.857357693   20.968457449   389.0519   6   4   0.0424   0.0326   0.0994  -0.0084   0.0109   0.0410   0.00    0.0
2026/01/15 20:18:30.000   67.857359083   20.968454446   389.1047   6   4   0.0408   0.0317   0.0959  -0.0074   0.0111   0.0393   0.00    0.0
2026/01/15 20:19:00.000   67.857359095   20.968454411   389.1089   6   4   0.0407   0.0317   0.0958  -0.0074   0.0111   0.0393   0.00    0.0
2026/01/15 20:21:00.000   67.857359142   20.968454272   389.1259   6   4   0.0407   0.0317   0.0957  -0.0073   0.0112   0.0392   0.00    0.0
2026/01/15 20:21:30.000   67.857359155   20.968454236   389.1303   6   4   0.0407   0.0317   0.0957  -0.0073   0.0112   0.0391   0.00    0.0
2026/01/15 20:22:00.000   67.857359168   20.968454204   389.1347   6   4   0.0406   0.0317   0.0956  -0.0073   0.0112   0.0391   0.00    0.0
2026/01/15 20:22:30.000   67.857359180   20.968454172   389.1389   6   4   0.0406   0.0317   0.0956  -0.0073   0.0112   0.0391   0.00    0.0
2026/01/15 20:23:00.000   67.857359192   20.968454140   389.1431   6   4   0.0406   0.0317   0.0955  -0.0073   0.0112   0.0391   0.00    0.0
2026/01/15 20:23:30.000   67.857359204   20.968454107   389.1478   6   4   0.0406   0.0317   0.0955  -0.0073   0.0112   0.0390   0.00    0.0
2026/01/15 20:24:00.000   67.857359216   20.968454074   389.1523   6   4   0.0406   0.0316   0.0955  -0.0073   0.0112   0.0390   0.00    0.0
2026/01/15 20:24:30.000   67.857359228   20.968454043   389.1568   6   4   0.0405   0.0316   0.0954  -0.0072   0.0112   0.0390   0.00    0.0
2026/01/15 20:25:00.000   67.857359239   20.968454010   389.1611   6   4   0.0405   0.0316   0.0954  -0.0072   0.0112   0.0390   0.00    0.0
2026/01/15 20:25:30.000   67.857359248   20.968453979   389.1648   6   4   0.0405   0.0316   0.0953  -0.0072   0.0113   0.0389   0.00    0.0
2026/01/15 20:26:00.000   67.857359259   20.968453949   389.1692   6   4   0.0405   0.0316   0.0953  -0.0072   0.0113   0.0389   0.00    0.0
2026/01/15 20:26:30.000   67.857359271   20.968453919   389.1733   6   4   0.0405   0.0316   0.0953  -0.0072   0.0113   0.0389   0.00    0.0
2026/01/15 20:27:00.000   67.857359281   20.968453889   389.1776   6   4   0.0405   0.0316   0.0952  -0.0072   0.0113   0.0389   0.00    0.0
2026/01/15 20:27:30.000   67.857359292   20.968453854   389.1819   6   4   0.0404   0.0316   0.0952  -0.0072   0.0113   0.0388   0.00    0.0
2026/01/15 20:28:00.000   67.857359304   20.968453821   389.1863   6   4   0.0404   0.0316   0.0951  -0.0072   0.0113   0.0388   0.00    0.0
2026/01/15 20:28:30.000   67.857359316   20.968453789   389.1906   6   4   0.0404   0.0316   0.0951  -0.0071   0.0113   0.0388   0.00    0.0
2026/01/15 20:29:00.000   67.857359326   20.968453760   389.1947   6   4   0.0404   0.0316   0.0951  -0.0071   0.0113   0.0388   0.00    0.0
