% program   : RTKLIB ver.EX 2.5.0
% inp file  : C:\Users\tevin\Desktop\GNSS - MASTA\SPRING SEM\4.SAT NAV DATA PROCESSING\TEAM PROJECT\SNDP-PROJECT\New_Data\obs\RNXDATA\KIRU00SWE_R_20260150000_01D_30S_MO.rnx
% inp file  : C:\Users\tevin\Desktop\GNSS - MASTA\SPRING SEM\4.SAT NAV DATA PROCESSING\TEAM PROJECT\SNDP-PROJECT\Old_data\products\nav\BRDC00IGS_R_20260150000_01D_MN.rnx
% inp file  : C:\Users\tevin\Desktop\GNSS - MASTA\SPRING SEM\4.SAT NAV DATA PROCESSING\TEAM PROJECT\SNDP-PROJECT\Old_data\products\sp3\COD0MGXFIN_20260150000_01D_05M_ORB.SP3
% inp file  : C:\Users\tevin\Desktop\GNSS - MASTA\SPRING SEM\4.SAT NAV DATA PROCESSING\TEAM PROJECT\SNDP-PROJECT\Old_data\products\clk\COD0MGXFIN_20260150000_01D_30S_CLK.CLK
% obs start : 2026/01/15 00:00:00.0 GPST (week2401 345600.0s)
% obs end   : 2026/01/15 01:00:00.0 GPST (week2401 349200.0s)
% pos mode  : PPP Static
% freqs     : L1+L2/E5b
% solution  : Forward
% elev mask : 15.0 deg
% dynamics  : on
% tidecorr  :
% ionos opt : Iono-Free LC
% tropo opt : Saastamoinen
% ephemeris : Precise
% navi sys  : GPS Galileo BDS
% antenna1  : SEPCHOKE_B3E6   SPKE  ( 0.0000  0.0000  0.0620)
%
% (lat/lon/height=WGS84/ellipsoidal,Q=1:fix,2:float,3:sbas,4:dgps,5:single,6:ppp,ns=# of satellites)
%  GPST                  latitude(deg) longitude(deg)  height(m)   Q  ns   sdn(m)   sde(m)   sdu(m)  sdne(m)  sdeu(m)  sdun(m) age(s)  ratio
2026/01/15 00:00:00.000   67.857347835   20.968477933   392.0471   6   9   2.9458   2.7869   7.0697  -0.7086  -1.2424   2.5553   0.00    0.0
2026/01/15 00:46:30.000   67.857350238   20.968466476   391.9649   6   4   0.3120   0.2698   0.7581  -0.0932  -0.2329   0.3041   0.00    0.0
2026/01/15 00:47:00.000   67.857350274   20.968466533   391.9782   6   9   0.3110   0.2685   0.7556  -0.0936  -0.2321   0.3041   0.00    0.0
2026/01/15 00:47:30.000   67.857350260   20.968466493   391.9781   6   8   0.3099   0.2672   0.7534  -0.0938  -0.2311   0.3042   0.00    0.0
2026/01/15 00:51:00.000   67.857350279   20.968466724   391.9606   6   8   0.3020   0.2585   0.7332  -0.0956  -0.2240   0.2998   0.00    0.0
2026/01/15 00:51:30.000   67.857350318   20.968466781   391.9583   6  15   0.3008   0.2573   0.7291  -0.0956  -0.2225   0.2985   0.00    0.0
2026/01/15 00:52:00.000   67.857350299   20.968466792   391.9569   6   7   0.2996   0.2561   0.7252  -0.0956  -0.2211   0.2972   0.00    0.0
2026/01/15 00:52:30.000   67.857350257   20.968466776   391.9506   6   7   0.2984   0.2549   0.7214  -0.0955  -0.2197   0.2960   0.00    0.0
2026/01/15 00:53:00.000   67.857350226   20.968466837   391.9355   6  13   0.2972   0.2537   0.7173  -0.0955  -0.2182   0.2947   0.00    0.0
2026/01/15 00:53:30.000   67.857350187   20.968466935   391.9241   6   7   0.2960   0.2525   0.7132  -0.0954  -0.2168   0.2933   0.00    0.0
2026/01/15 00:54:00.000   67.857350197   20.968467009   391.9206   6  14   0.2947   0.2514   0.7091  -0.0952  -0.2151   0.2918   0.00    0.0
2026/01/15 00:54:30.000   67.857350194   20.968466951   391.9150   6  13   0.2935   0.2502   0.7049  -0.0950  -0.2134   0.2901   0.00    0.0
2026/01/15 00:55:00.000   67.857350165   20.968466988   391.9086   6  14   0.2922   0.2490   0.7004  -0.0948  -0.2116   0.2883   0.00    0.0
2026/01/15 00:55:30.000   67.857350177   20.968466955   391.9055   6  14   0.2908   0.2478   0.6957  -0.0944  -0.2098   0.2864   0.00    0.0
2026/01/15 00:56:00.000   67.857350176   20.968466914   391.8990   6  15   0.2894   0.2467   0.6906  -0.0941  -0.2078   0.2842   0.00    0.0
2026/01/15 00:56:30.000   67.857350154   20.968466756   391.8897   6  14   0.2880   0.2455   0.6852  -0.0936  -0.2056   0.2819   0.00    0.0
2026/01/15 00:57:00.000   67.857350142   20.968466781   391.8703   6  14   0.2866   0.2443   0.6795  -0.0931  -0.2034   0.2792   0.00    0.0
2026/01/15 00:57:30.000   67.857350131   20.968466800   391.8504   6  13   0.2851   0.2432   0.6737  -0.0924  -0.2009   0.2765   0.00    0.0
2026/01/15 00:58:00.000   67.857350128   20.968466965   391.8272   6  14   0.2836   0.2420   0.6674  -0.0917  -0.1983   0.2735   0.00    0.0
2026/01/15 00:58:30.000   67.857350090   20.968466942   391.8242   6  14   0.2821   0.2409   0.6615  -0.0910  -0.1960   0.2703   0.00    0.0
2026/01/15 00:59:00.000   67.857350097   20.968466968   391.8129   6  14   0.2805   0.2399   0.6555  -0.0902  -0.1936   0.2670   0.00    0.0
2026/01/15 00:59:30.000   67.857350046   20.968466985   391.8029   6  14   0.2788   0.2388   0.6491  -0.0893  -0.1911   0.2634   0.00    0.0
2026/01/15 01:00:00.000   67.857350019   20.968466940   391.7820   6  14   0.2773   0.2377   0.6426  -0.0884  -0.1884   0.2599   0.00    0.0
