% program   : RTKPOST-EX 2.5.0
% inp file  : C:\Users\tevin\Desktop\GNSS - MASTA\SPRING SEM\4.SAT NAV DATA PROCESSING\TEAM PROJECT\SNDP-PROJECT\New_Data\obs\RNXDATA\KIRU00SWE_R_20260150000_01D_30S_MO.rnx
% inp file  : C:\Users\tevin\Desktop\GNSS - MASTA\SPRING SEM\4.SAT NAV DATA PROCESSING\TEAM PROJECT\SNDP-PROJECT\Old_data\products\nav\BRDC00IGS_R_20260150000_01D_MN.rnx
% inp file  : C:\Users\tevin\Desktop\GNSS - MASTA\SPRING SEM\4.SAT NAV DATA PROCESSING\TEAM PROJECT\SNDP-PROJECT\Old_data\products\sp3\COD0MGXFIN_20260150000_01D_05M_ORB.SP3
% inp file  : C:\Users\tevin\Desktop\GNSS - MASTA\SPRING SEM\4.SAT NAV DATA PROCESSING\TEAM PROJECT\SNDP-PROJECT\New_Data\DATA_FINAL_ANT_EXTRA\COD0MGXFIN_20260150000_01D_05M_ORB.SP3
% inp file  : C:\Users\tevin\Desktop\GNSS - MASTA\SPRING SEM\4.SAT NAV DATA PROCESSING\TEAM PROJECT\SNDP-PROJECT\Old_data\products\atx\igs20_2401.atx
% obs start : 2026/01/15 00:00:00.0 GPST (week2401 345600.0s)
% obs end   : 2026/01/15 23:59:30.0 GPST (week2401 431970.0s)
% pos mode  : PPP Static
% freqs     : L1+L2/E5b
% solution  : Forward
% elev mask : 15.0 deg
% dynamics  : on
% tidecorr  :
% ionos opt : Iono-Free LC
% tropo opt : Saastamoinen
% ephemeris : Precise
% navi sys  : GPS
% antenna1  : SEPCHOKE_B3E6   SPKE  ( 0.0000  0.0000  0.0620)
%
% (lat/lon/height=WGS84/ellipsoidal,Q=1:fix,2:float,3:sbas,4:dgps,5:single,6:ppp,ns=# of satellites)
%  GPST                  latitude(deg) longitude(deg)  height(m)   Q  ns   sdn(m)   sde(m)   sdu(m)  sdne(m)  sdeu(m)  sdun(m) age(s)  ratio
2026/01/15 00:00:00.000   67.857351097   20.968478884   392.8189   6   8   3.8667   3.2286   9.8408  -0.8208  -2.5354   3.5331   0.00    0.0
2026/01/15 00:01:00.000   67.857347978   20.968478480   392.2189   6   8   2.2336   1.8698   5.6550  -0.4794  -1.4716   2.0155   0.00    0.0
2026/01/15 00:10:00.000   67.857348885   20.968475435   391.7513   6   8   0.7810   0.6986   1.7086  -0.1690  -0.5046   0.4632   0.00    0.0
2026/01/15 00:10:30.000   67.857349072   20.968474941   391.6825   6   8   0.7462   0.6769   1.5464  -0.1372  -0.4573   0.3637   0.00    0.0
2026/01/15 00:15:30.000   67.857348566   20.968473979   391.4959   6   9   0.6202   0.5606   1.2121  -0.1337  -0.3610   0.2092   0.00    0.0
2026/01/15 00:18:30.000   67.857348527   20.968474566   391.4735   6   9   0.5660   0.5120   1.0539  -0.1182  -0.3129  -0.0478   0.00    0.0
2026/01/15 00:20:30.000   67.857348575   20.968474160   391.3752   6   9   0.5339   0.4839   0.9467  -0.1031  -0.2792  -0.1726   0.00    0.0
2026/01/15 00:21:00.000   67.857348528   20.968474040   391.3296   6   9   0.5228   0.4750   0.8918  -0.0891  -0.2614  -0.2172   0.00    0.0
2026/01/15 00:23:00.000   67.857348547   20.968474982   391.3239   6   6   0.4982   0.4555   0.8490  -0.0863  -0.2437  -0.2321   0.00    0.0
2026/01/15 00:25:00.000   67.857348272   20.968474241   391.2802   6   7   0.4782   0.4381   0.7953  -0.0882  -0.2335  -0.2419   0.00    0.0
2026/01/15 00:25:30.000   67.857348372   20.968473818   391.2631   6   8   0.4710   0.4296   0.7565  -0.0738  -0.2187  -0.2516   0.00    0.0
2026/01/15 00:27:00.000   67.857348426   20.968474359   391.2316   6   5   0.4591   0.4192   0.7310  -0.0753  -0.2124  -0.2479   0.00    0.0
2026/01/15 00:27:30.000   67.857348367   20.968474476   391.2017   6   6   0.4542   0.4155   0.7086  -0.0738  -0.2078  -0.2482   0.00    0.0
2026/01/15 00:28:00.000   67.857348362   20.968473920   391.1966   6   7   0.4483   0.4091   0.6850  -0.0609  -0.1955  -0.2526   0.00    0.0
2026/01/15 00:28:30.000   67.857348431   20.968473387   391.1975   6   7   0.4428   0.4032   0.6640  -0.0476  -0.1851  -0.2556   0.00    0.0
2026/01/15 00:29:00.000   67.857348587   20.968473038   391.1850   6   8   0.4374   0.3978   0.6452  -0.0326  -0.1763  -0.2576   0.00    0.0
2026/01/15 00:29:30.000   67.857348621   20.968472317   391.1778   6   7   0.4324   0.3928   0.6284  -0.0072  -0.1688  -0.2588   0.00    0.0
2026/01/15 00:30:00.000   67.857348698   20.968472046   391.1641   6   8   0.4275   0.3881   0.6133   0.0280  -0.1624  -0.2594   0.00    0.0
2026/01/15 00:30:30.000   67.857348907   20.968471963   391.1678   6   7   0.4231   0.3838   0.6064   0.0380  -0.1565  -0.2578   0.00    0.0
2026/01/15 00:31:00.000   67.857348998   20.968471786   391.1747   6   7   0.4189   0.3797   0.6001   0.0446  -0.1512  -0.2560   0.00    0.0
2026/01/15 00:31:30.000   67.857348908   20.968471669   391.1998   6   7   0.4151   0.3758   0.5941   0.0495  -0.1466  -0.2541   0.00    0.0
2026/01/15 00:32:00.000   67.857349031   20.968471702   391.1995   6   7   0.4115   0.3722   0.5886   0.0531  -0.1424  -0.2521   0.00    0.0
2026/01/15 00:32:30.000   67.857349073   20.968471467   391.2097   6   7   0.4080   0.3687   0.5835   0.0558  -0.1387  -0.2501   0.00    0.0
2026/01/15 00:33:00.000   67.857349116   20.968471405   391.2197   6   7   0.4045   0.3653   0.5781   0.0586  -0.1349  -0.2482   0.00    0.0
2026/01/15 00:33:30.000   67.857349110   20.968471233   391.2315   6   7   0.4020   0.3621   0.5726   0.0578  -0.1304  -0.2469   0.00    0.0
2026/01/15 00:34:00.000   67.857349153   20.968471141   391.2325   6   7   0.3994   0.3590   0.5671   0.0570  -0.1260  -0.2458   0.00    0.0
2026/01/15 00:34:30.000   67.857349151   20.968471197   391.2425   6   7   0.3969   0.3560   0.5615   0.0562  -0.1216  -0.2447   0.00    0.0
2026/01/15 00:35:00.000   67.857349233   20.968471082   391.2460   6   7   0.3944   0.3530   0.5560   0.0555  -0.1173  -0.2436   0.00    0.0
2026/01/15 00:35:30.000   67.857349260   20.968471243   391.2562   6   7   0.3919   0.3500   0.5505   0.0547  -0.1132  -0.2426   0.00    0.0
2026/01/15 00:36:00.000   67.857349267   20.968471223   391.2599   6   7   0.3895   0.3471   0.5453   0.0539  -0.1094  -0.2415   0.00    0.0
2026/01/15 00:36:30.000   67.857349245   20.968470940   391.2697   6   7   0.3871   0.3443   0.5402   0.0530  -0.1058  -0.2404   0.00    0.0
2026/01/15 00:37:00.000   67.857349199   20.968470836   391.2778   6   7   0.3848   0.3416   0.5354   0.0520  -0.1025  -0.2393   0.00    0.0
2026/01/15 00:37:30.000   67.857349205   20.968470766   391.2818   6   7   0.3826   0.3389   0.5308   0.0510  -0.0996  -0.2381   0.00    0.0
2026/01/15 00:38:00.000   67.857349313   20.968470780   391.2742   6   7   0.3803   0.3362   0.5260   0.0502  -0.0965  -0.2370   0.00    0.0
2026/01/15 00:38:30.000   67.857349390   20.968470730   391.2711   6   7   0.3780   0.3334   0.5208   0.0496  -0.0933  -0.2361   0.00    0.0
2026/01/15 00:39:00.000   67.857349456   20.968470616   391.2682   6   7   0.3757   0.3306   0.5155   0.0491  -0.0901  -0.2353   0.00    0.0
2026/01/15 00:39:30.000   67.857349523   20.968470509   391.2642   6   7   0.3734   0.3278   0.5101   0.0488  -0.0870  -0.2344   0.00    0.0
2026/01/15 00:40:00.000   67.857349540   20.968470470   391.2680   6   7   0.3711   0.3250   0.5047   0.0485  -0.0841  -0.2337   0.00    0.0
2026/01/15 00:40:30.000   67.857349501   20.968470319   391.2683   6   6   0.3688   0.3222   0.4994   0.0483  -0.0813  -0.2329   0.00    0.0
2026/01/15 00:41:00.000   67.857349518   20.968470162   391.2677   6   7   0.3666   0.3195   0.4942   0.0480  -0.0787  -0.2320   0.00    0.0
2026/01/15 00:41:30.000   67.857349520   20.968470081   391.2706   6   7   0.3645   0.3169   0.4892   0.0473  -0.0762  -0.2313   0.00    0.0
2026/01/15 00:42:00.000   67.857349523   20.968470228   391.2766   6   6   0.3625   0.3151   0.4849   0.0456  -0.0707  -0.2307   0.00    0.0
2026/01/15 00:42:30.000   67.857349526   20.968470270   391.2769   6   6   0.3605   0.3135   0.4809   0.0436  -0.0651  -0.2300   0.00    0.0
2026/01/15 00:43:00.000   67.857349575   20.968470259   391.2751   6   6   0.3586   0.3118   0.4766   0.0416  -0.0586  -0.2295   0.00    0.0
2026/01/15 00:43:30.000   67.857349596   20.968470479   391.2818   6   7   0.3565   0.3102   0.4721   0.0395  -0.0511  -0.2291   0.00    0.0
2026/01/15 00:44:00.000   67.857349643   20.968470427   391.2810   6   7   0.3545   0.3085   0.4675   0.0373  -0.0421  -0.2287   0.00    0.0
2026/01/15 00:44:30.000   67.857349715   20.968470536   391.2787   6   7   0.3522   0.3069   0.4626   0.0360  -0.0320  -0.2280   0.00    0.0
2026/01/15 00:45:00.000   67.857349658   20.968470497   391.2876   6   8   0.3500   0.3052   0.4577   0.0347  -0.0174  -0.2274   0.00    0.0
2026/01/15 00:45:30.000   67.857349683   20.968470510   391.2917   6   8   0.3477   0.3036   0.4529   0.0332   0.0196  -0.2267   0.00    0.0
2026/01/15 00:46:00.000   67.857349676   20.968470629   391.2991   6   6   0.3455   0.3020   0.4482   0.0318   0.0319  -0.2259   0.00    0.0
2026/01/15 00:46:30.000   67.857349727   20.968470617   391.2972   6   4   0.3438   0.3007   0.4471   0.0289   0.0299  -0.2243   0.00    0.0
2026/01/15 00:47:00.000   67.857349776   20.968470740   391.3020   6   8   0.3418   0.2993   0.4426   0.0283   0.0381  -0.2237   0.00    0.0
2026/01/15 00:47:30.000   67.857349746   20.968470635   391.3103   6   8   0.3398   0.2978   0.4384   0.0277   0.0442  -0.2229   0.00    0.0
2026/01/15 00:48:00.000   67.857349739   20.968470663   391.3179   6   8   0.3378   0.2964   0.4340   0.0272   0.0497  -0.2223   0.00    0.0
2026/01/15 00:48:30.000   67.857349790   20.968470645   391.3176   6   8   0.3358   0.2950   0.4294   0.0264   0.0549  -0.2218   0.00    0.0
2026/01/15 00:49:00.000   67.857349806   20.968470698   391.3216   6   8   0.3338   0.2936   0.4246   0.0256   0.0596  -0.2213   0.00    0.0
2026/01/15 00:49:30.000   67.857349823   20.968470759   391.3246   6   8   0.3319   0.2922   0.4198   0.0247   0.0640  -0.2209   0.00    0.0
2026/01/15 00:50:00.000   67.857349867   20.968470799   391.3202   6   5   0.3302   0.2911   0.4188   0.0217   0.0631  -0.2194   0.00    0.0
2026/01/15 00:50:30.000   67.857349909   20.968470796   391.3209   6   8   0.3282   0.2897   0.4138   0.0210   0.0671  -0.2190   0.00    0.0
2026/01/15 00:51:00.000   67.857349958   20.968470863   391.3193   6   8   0.3263   0.2884   0.4090   0.0201   0.0706  -0.2185   0.00    0.0
2026/01/15 00:51:30.000   67.857350022   20.968470899   391.3171   6   8   0.3243   0.2871   0.4044   0.0191   0.0735  -0.2179   0.00    0.0
2026/01/15 00:52:00.000   67.857350018   20.968470944   391.3202   6   7   0.3224   0.2858   0.4001   0.0179   0.0761  -0.2172   0.00    0.0
2026/01/15 00:52:30.000   67.857350008   20.968470913   391.3214   6   7   0.3206   0.2846   0.3960   0.0165   0.0782  -0.2165   0.00    0.0
2026/01/15 00:53:00.000   67.857350027   20.968470924   391.3192   6   7   0.3186   0.2834   0.3917   0.0151   0.0803  -0.2157   0.00    0.0
2026/01/15 00:53:30.000   67.857350056   20.968471027   391.3181   6   7   0.3167   0.2821   0.3872   0.0135   0.0824  -0.2150   0.00    0.0
2026/01/15 00:54:00.000   67.857350057   20.968471140   391.3209   6   7   0.3148   0.2809   0.3829   0.0094   0.0847  -0.2145   0.00    0.0
2026/01/15 00:54:30.000   67.857350084   20.968471114   391.3193   6   7   0.3129   0.2797   0.3785  -0.0013   0.0870  -0.2140   0.00    0.0
2026/01/15 00:55:30.000   67.857350110   20.968471042   391.3199   6   7   0.3099   0.2776   0.3732  -0.0121   0.0888  -0.2122   0.00    0.0
2026/01/15 00:56:00.000   67.857350158   20.968470987   391.3172   6   8   0.3080   0.2765   0.3688  -0.0157   0.0908  -0.2117   0.00    0.0
2026/01/15 00:56:30.000   67.857350141   20.968470753   391.3185   6   8   0.3061   0.2754   0.3647  -0.0186   0.0925  -0.2111   0.00    0.0
2026/01/15 00:59:30.000   67.857350199   20.968470756   391.3154   6   4   0.3001   0.2704   0.3574  -0.0255   0.0935  -0.2067   0.00    0.0
2026/01/15 01:01:00.000   67.857350258   20.968470636   391.3076   6   4   0.2977   0.2681   0.3560  -0.0273   0.0931  -0.2039   0.00    0.0
2026/01/15 01:03:00.000   67.857350336   20.968470446   391.2980   6   8   0.2944   0.2650   0.3494  -0.0289   0.0947  -0.2014   0.00    0.0
2026/01/15 01:03:30.000   67.857350382   20.968470327   391.2945   6   8   0.2935   0.2641   0.3441  -0.0289   0.0965  -0.2016   0.00    0.0
2026/01/15 01:04:00.000   67.857350374   20.968470334   391.2968   6   8   0.2926   0.2633   0.3388  -0.0289   0.0982  -0.2018   0.00    0.0
2026/01/15 01:04:30.000   67.857350339   20.968470263   391.3009   6   8   0.2917   0.2625   0.3337  -0.0289   0.0998  -0.2020   0.00    0.0
2026/01/15 01:05:00.000   67.857350362   20.968470212   391.2985   6   8   0.2909   0.2616   0.3288  -0.0289   0.1011  -0.2021   0.00    0.0
2026/01/15 01:05:30.000   67.857350367   20.968470176   391.2986   6   8   0.2900   0.2608   0.3242  -0.0290   0.1023  -0.2022   0.00    0.0
2026/01/15 01:06:00.000   67.857350413   20.968470270   391.2967   6   8   0.2891   0.2600   0.3199  -0.0291   0.1032  -0.2022   0.00    0.0
2026/01/15 01:06:30.000   67.857350420   20.968470243   391.2944   6   5   0.2883   0.2592   0.3183  -0.0298   0.1033  -0.2017   0.00    0.0
2026/01/15 01:07:00.000   67.857350448   20.968470142   391.2933   6   8   0.2875   0.2585   0.3145  -0.0300   0.1041  -0.2016   0.00    0.0
2026/01/15 01:07:30.000   67.857350422   20.968470084   391.2964   6   8   0.2867   0.2577   0.3110  -0.0303   0.1047  -0.2015   0.00    0.0
2026/01/15 01:08:00.000   67.857350381   20.968470052   391.3014   6   8   0.2858   0.2569   0.3074  -0.0306   0.1053  -0.2014   0.00    0.0
2026/01/15 01:08:30.000   67.857350375   20.968470034   391.3032   6   8   0.2850   0.2561   0.3038  -0.0309   0.1058  -0.2013   0.00    0.0
2026/01/15 01:09:00.000   67.857350370   20.968470080   391.3040   6   8   0.2841   0.2554   0.3002  -0.0312   0.1063  -0.2013   0.00    0.0
2026/01/15 01:10:00.000   67.857350351   20.968470031   391.3046   6   8   0.2825   0.2539   0.2960  -0.0321   0.1066  -0.2004   0.00    0.0
2026/01/15 01:10:30.000   67.857350324   20.968469880   391.3073   6   8   0.2815   0.2532   0.2925  -0.0325   0.1070  -0.2003   0.00    0.0
2026/01/15 01:11:00.000   67.857350313   20.968469888   391.3084   6   8   0.2806   0.2524   0.2891  -0.0329   0.1072  -0.2002   0.00    0.0
2026/01/15 01:11:30.000   67.857350312   20.968469829   391.3090   6   8   0.2797   0.2516   0.2860  -0.0332   0.1074  -0.2000   0.00    0.0
2026/01/15 01:12:00.000   67.857350358   20.968469790   391.3045   6   8   0.2788   0.2509   0.2832  -0.0336   0.1075  -0.1997   0.00    0.0
2026/01/15 01:12:30.000   67.857350320   20.968469731   391.3066   6   8   0.2779   0.2502   0.2806  -0.0341   0.1075  -0.1994   0.00    0.0
2026/01/15 01:13:00.000   67.857350361   20.968469746   391.3030   6   8   0.2770   0.2494   0.2779  -0.0347   0.1075  -0.1991   0.00    0.0
2026/01/15 01:13:30.000   67.857350348   20.968469694   391.3033   6   8   0.2760   0.2487   0.2751  -0.0353   0.1074  -0.1987   0.00    0.0
2026/01/15 01:14:00.000   67.857350368   20.968469655   391.3010   6   8   0.2750   0.2480   0.2722  -0.0358   0.1073  -0.1984   0.00    0.0
2026/01/15 01:14:30.000   67.857350396   20.968469566   391.2975   6   8   0.2739   0.2472   0.2694  -0.0364   0.1072  -0.1981   0.00    0.0
2026/01/15 01:15:00.000   67.857350414   20.968469540   391.2962   6   8   0.2729   0.2465   0.2667  -0.0369   0.1070  -0.1977   0.00    0.0
2026/01/15 01:15:30.000   67.857350452   20.968469479   391.2910   6   8   0.2718   0.2458   0.2640  -0.0375   0.1068  -0.1972   0.00    0.0
2026/01/15 01:16:00.000   67.857350458   20.968469457   391.2907   6   8   0.2707   0.2450   0.2614  -0.0381   0.1066  -0.1968   0.00    0.0
2026/01/15 01:16:30.000   67.857350462   20.968469489   391.2905   6   8   0.2696   0.2443   0.2591  -0.0386   0.1064  -0.1963   0.00    0.0
2026/01/15 01:17:00.000   67.857350500   20.968469483   391.2871   6   8   0.2686   0.2436   0.2568  -0.0391   0.1061  -0.1957   0.00    0.0
2026/01/15 01:17:30.000   67.857350509   20.968469509   391.2855   6   8   0.2675   0.2428   0.2547  -0.0396   0.1058  -0.1951   0.00    0.0
2026/01/15 01:18:00.000   67.857350519   20.968469454   391.2841   6   8   0.2663   0.2421   0.2525  -0.0401   0.1055  -0.1945   0.00    0.0
2026/01/15 01:18:30.000   67.857350532   20.968469491   391.2829   6   8   0.2651   0.2413   0.2502  -0.0406   0.1051  -0.1939   0.00    0.0
2026/01/15 01:19:00.000   67.857350525   20.968469374   391.2818   6   8   0.2638   0.2406   0.2479  -0.0410   0.1047  -0.1931   0.00    0.0
2026/01/15 01:19:30.000   67.857350559   20.968469405   391.2785   6   8   0.2624   0.2398   0.2455  -0.0415   0.1042  -0.1924   0.00    0.0
2026/01/15 01:20:00.000   67.857350607   20.968469347   391.2728   6   8   0.2610   0.2390   0.2431  -0.0419   0.1037  -0.1916   0.00    0.0
2026/01/15 01:20:30.000   67.857350658   20.968469284   391.2674   6   8   0.2596   0.2382   0.2408  -0.0424   0.1032  -0.1907   0.00    0.0
2026/01/15 01:21:00.000   67.857350696   20.968469246   391.2624   6   8   0.2582   0.2374   0.2386  -0.0429   0.1027  -0.1899   0.00    0.0
2026/01/15 01:21:30.000   67.857350759   20.968469148   391.2561   6   8   0.2568   0.2367   0.2364  -0.0434   0.1022  -0.1889   0.00    0.0
2026/01/15 01:22:00.000   67.857350825   20.968469043   391.2496   6   8   0.2553   0.2359   0.2344  -0.0438   0.1017  -0.1880   0.00    0.0
2026/01/15 01:22:30.000   67.857350892   20.968468940   391.2430   6   8   0.2540   0.2351   0.2325  -0.0442   0.1012  -0.1871   0.00    0.0
2026/01/15 01:23:00.000   67.857350922   20.968468874   391.2391   6   8   0.2525   0.2343   0.2305  -0.0446   0.1006  -0.1861   0.00    0.0
2026/01/15 01:23:30.000   67.857350937   20.968468835   391.2367   6   8   0.2509   0.2335   0.2284  -0.0449   0.1000  -0.1850   0.00    0.0
2026/01/15 01:24:00.000   67.857350955   20.968468685   391.2339   6   8   0.2492   0.2326   0.2262  -0.0453   0.0993  -0.1838   0.00    0.0
2026/01/15 01:24:30.000   67.857351004   20.968468593   391.2282   6   8   0.2474   0.2318   0.2239  -0.0457   0.0986  -0.1826   0.00    0.0
2026/01/15 01:25:00.000   67.857351036   20.968468515   391.2249   6   7   0.2458   0.2310   0.2218  -0.0462   0.0980  -0.1815   0.00    0.0
2026/01/15 01:25:30.000   67.857351057   20.968468462   391.2218   6   7   0.2441   0.2301   0.2197  -0.0467   0.0974  -0.1804   0.00    0.0
2026/01/15 01:26:00.000   67.857351069   20.968468316   391.2191   6   7   0.2425   0.2293   0.2177  -0.0472   0.0967  -0.1793   0.00    0.0
2026/01/15 01:26:30.000   67.857351088   20.968468276   391.2159   6   7   0.2408   0.2285   0.2158  -0.0477   0.0961  -0.1782   0.00    0.0
2026/01/15 01:27:00.000   67.857351095   20.968468222   391.2142   6   7   0.2393   0.2276   0.2140  -0.0481   0.0955  -0.1771   0.00    0.0
2026/01/15 01:27:30.000   67.857351091   20.968468210   391.2134   6   7   0.2377   0.2268   0.2122  -0.0486   0.0949  -0.1760   0.00    0.0
2026/01/15 01:28:00.000   67.857351108   20.968468106   391.2106   6   7   0.2361   0.2260   0.2104  -0.0490   0.0943  -0.1749   0.00    0.0
2026/01/15 01:28:30.000   67.857351114   20.968468060   391.2090   6   7   0.2343   0.2252   0.2085  -0.0495   0.0937  -0.1736   0.00    0.0
2026/01/15 01:29:00.000   67.857351117   20.968467945   391.2071   6   7   0.2324   0.2243   0.2065  -0.0500   0.0930  -0.1723   0.00    0.0
2026/01/15 01:29:30.000   67.857351141   20.968467820   391.2036   6   7   0.2305   0.2234   0.2044  -0.0505   0.0923  -0.1709   0.00    0.0
2026/01/15 01:30:00.000   67.857351167   20.968467734   391.1999   6   7   0.2286   0.2224   0.2024  -0.0509   0.0916  -0.1695   0.00    0.0
2026/01/15 01:30:30.000   67.857351219   20.968467627   391.1942   6   7   0.2266   0.2215   0.2004  -0.0514   0.0908  -0.1681   0.00    0.0
2026/01/15 01:31:30.000   67.857351257   20.968467559   391.1891   6   5   0.2255   0.2202   0.1987  -0.0508   0.0896  -0.1673   0.00    0.0
2026/01/15 01:32:00.000   67.857351306   20.968467436   391.1839   6   6   0.2235   0.2193   0.1969  -0.0513   0.0890  -0.1658   0.00    0.0
2026/01/15 01:32:30.000   67.857351368   20.968467366   391.1775   6   6   0.2217   0.2184   0.1951  -0.0518   0.0883  -0.1644   0.00    0.0
2026/01/15 01:33:00.000   67.857351451   20.968467273   391.1688   6   6   0.2197   0.2175   0.1932  -0.0524   0.0877  -0.1629   0.00    0.0
2026/01/15 01:33:30.000   67.857351526   20.968467151   391.1616   6   6   0.2176   0.2166   0.1913  -0.0529   0.0869  -0.1613   0.00    0.0
2026/01/15 01:34:00.000   67.857351579   20.968467016   391.1560   6   6   0.2154   0.2156   0.1892  -0.0535   0.0862  -0.1597   0.00    0.0
2026/01/15 01:34:30.000   67.857351605   20.968467034   391.1526   6   6   0.2131   0.2146   0.1871  -0.0541   0.0854  -0.1580   0.00    0.0
2026/01/15 01:35:00.000   67.857351632   20.968466930   391.1484   6   6   0.2109   0.2136   0.1851  -0.0546   0.0846  -0.1563   0.00    0.0
2026/01/15 01:35:30.000   67.857351667   20.968466915   391.1441   6   7   0.2087   0.2126   0.1831  -0.0551   0.0838  -0.1546   0.00    0.0
2026/01/15 01:36:00.000   67.857351692   20.968466809   391.1406   6   7   0.2066   0.2116   0.1811  -0.0556   0.0831  -0.1529   0.00    0.0
2026/01/15 01:36:30.000   67.857351682   20.968466746   391.1399   6   7   0.2053   0.2108   0.1798  -0.0576   0.0831  -0.1522   0.00    0.0
2026/01/15 01:37:00.000   67.857351691   20.968466687   391.1375   6   7   0.2041   0.2101   0.1786  -0.0593   0.0832  -0.1515   0.00    0.0
2026/01/15 01:37:30.000   67.857351683   20.968466628   391.1366   6   7   0.2030   0.2094   0.1775  -0.0609   0.0832  -0.1508   0.00    0.0
2026/01/15 01:38:00.000   67.857351665   20.968466655   391.1367   6   7   0.2018   0.2086   0.1762  -0.0626   0.0833  -0.1501   0.00    0.0
2026/01/15 01:38:30.000   67.857351659   20.968466580   391.1353   6   7   0.2006   0.2079   0.1750  -0.0643   0.0834  -0.1493   0.00    0.0
2026/01/15 01:39:00.000   67.857351642   20.968466518   391.1348   6   7   0.1993   0.2071   0.1736  -0.0661   0.0834  -0.1485   0.00    0.0
2026/01/15 01:39:30.000   67.857351646   20.968466442   391.1326   6   7   0.1980   0.2063   0.1723  -0.0678   0.0835  -0.1477   0.00    0.0
2026/01/15 01:40:00.000   67.857351664   20.968466442   391.1295   6   7   0.1966   0.2055   0.1710  -0.0694   0.0836  -0.1468   0.00    0.0
2026/01/15 01:40:30.000   67.857351670   20.968466347   391.1267   6   7   0.1953   0.2048   0.1696  -0.0710   0.0836  -0.1460   0.00    0.0
2026/01/15 01:41:00.000   67.857351666   20.968466341   391.1251   6   7   0.1940   0.2040   0.1683  -0.0724   0.0836  -0.1451   0.00    0.0
2026/01/15 01:41:30.000   67.857351649   20.968466293   391.1246   6   7   0.1928   0.2033   0.1671  -0.0737   0.0837  -0.1443   0.00    0.0
2026/01/15 01:42:00.000   67.857351665   20.968466246   391.1214   6   7   0.1916   0.2025   0.1660  -0.0749   0.0837  -0.1435   0.00    0.0
2026/01/15 01:43:00.000   67.857351656   20.968466209   391.1203   6   7   0.1902   0.2015   0.1647  -0.0760   0.0835  -0.1425   0.00    0.0
2026/01/15 01:43:30.000   67.857351657   20.968466216   391.1183   6   7   0.1889   0.2007   0.1634  -0.0772   0.0835  -0.1416   0.00    0.0
2026/01/15 01:44:00.000   67.857351651   20.968466197   391.1166   6   7   0.1876   0.1999   0.1621  -0.0784   0.0835  -0.1407   0.00    0.0
2026/01/15 01:44:30.000   67.857351669   20.968466127   391.1133   6   7   0.1862   0.1991   0.1608  -0.0796   0.0835  -0.1397   0.00    0.0
2026/01/15 01:45:00.000   67.857351691   20.968466051   391.1094   6   7   0.1848   0.1983   0.1594  -0.0808   0.0834  -0.1388   0.00    0.0
2026/01/15 01:45:30.000   67.857351703   20.968465997   391.1067   6   7   0.1835   0.1975   0.1581  -0.0819   0.0833  -0.1378   0.00    0.0
2026/01/15 01:46:00.000   67.857351715   20.968465915   391.1039   6   7   0.1821   0.1967   0.1569  -0.0829   0.0833  -0.1369   0.00    0.0
2026/01/15 01:46:30.000   67.857351724   20.968465849   391.1020   6   6   0.1810   0.1961   0.1559  -0.0836   0.0836  -0.1359   0.00    0.0
2026/01/15 01:47:00.000   67.857351731   20.968465810   391.0995   6   7   0.1799   0.1953   0.1548  -0.0845   0.0835  -0.1351   0.00    0.0
2026/01/15 01:47:30.000   67.857351736   20.968465765   391.0973   6   7   0.1789   0.1947   0.1538  -0.0853   0.0835  -0.1343   0.00    0.0
2026/01/15 01:48:00.000   67.857351729   20.968465717   391.0963   6   7   0.1778   0.1940   0.1527  -0.0863   0.0834  -0.1336   0.00    0.0
2026/01/15 01:49:00.000   67.857351739   20.968465599   391.0929   6   7   0.1764   0.1930   0.1514  -0.0872   0.0833  -0.1325   0.00    0.0
2026/01/15 01:49:30.000   67.857351741   20.968465593   391.0905   6   7   0.1751   0.1922   0.1501  -0.0882   0.0832  -0.1316   0.00    0.0
2026/01/15 01:50:00.000   67.857351756   20.968465551   391.0876   6   8   0.1739   0.1915   0.1489  -0.0892   0.0832  -0.1306   0.00    0.0
2026/01/15 01:50:30.000   67.857351761   20.968465549   391.0850   6   8   0.1726   0.1908   0.1476  -0.0901   0.0831  -0.1297   0.00    0.0
2026/01/15 01:51:00.000   67.857351766   20.968465483   391.0828   6   8   0.1714   0.1900   0.1464  -0.0910   0.0830  -0.1288   0.00    0.0
2026/01/15 01:51:30.000   67.857351770   20.968465435   391.0810   6   8   0.1703   0.1893   0.1453  -0.0918   0.0829  -0.1279   0.00    0.0
2026/01/15 01:52:00.000   67.857351787   20.968465349   391.0780   6   8   0.1692   0.1887   0.1442  -0.0924   0.0828  -0.1271   0.00    0.0
2026/01/15 01:52:30.000   67.857351782   20.968465347   391.0769   6   8   0.1682   0.1880   0.1432  -0.0930   0.0826  -0.1263   0.00    0.0
2026/01/15 01:53:00.000   67.857351786   20.968465314   391.0747   6   8   0.1672   0.1874   0.1422  -0.0937   0.0825  -0.1255   0.00    0.0
2026/01/15 01:53:30.000   67.857351786   20.968465249   391.0722   6   8   0.1661   0.1867   0.1411  -0.0943   0.0823  -0.1246   0.00    0.0
2026/01/15 01:54:00.000   67.857351798   20.968465202   391.0690   6   8   0.1649   0.1860   0.1399  -0.0949   0.0822  -0.1237   0.00    0.0
2026/01/15 01:55:00.000   67.857351790   20.968465135   391.0671   6   8   0.1636   0.1850   0.1386  -0.0955   0.0819  -0.1226   0.00    0.0
2026/01/15 01:55:30.000   67.857351793   20.968465049   391.0647   6   8   0.1624   0.1842   0.1374  -0.0961   0.0817  -0.1216   0.00    0.0
2026/01/15 01:56:00.000   67.857351793   20.968464981   391.0628   6   8   0.1613   0.1835   0.1363  -0.0966   0.0815  -0.1207   0.00    0.0
2026/01/15 01:56:30.000   67.857351803   20.968464921   391.0603   6   8   0.1602   0.1827   0.1352  -0.0971   0.0812  -0.1198   0.00    0.0
2026/01/15 01:57:00.000   67.857351815   20.968464878   391.0577   6   8   0.1592   0.1821   0.1342  -0.0975   0.0810  -0.1190   0.00    0.0
2026/01/15 01:58:00.000   67.857351822   20.968464833   391.0548   6   8   0.1580   0.1811   0.1330  -0.0977   0.0805  -0.1179   0.00    0.0
2026/01/15 02:00:00.000   67.857351830   20.968464693   391.0509   6   9   0.1561   0.1792   0.1314  -0.0974   0.0796  -0.1163   0.00    0.0
2026/01/15 02:01:30.000   67.857351870   20.968464548   391.0447   6   8   0.1545   0.1778   0.1300  -0.0973   0.0788  -0.1149   0.00    0.0
2026/01/15 02:02:00.000   67.857351887   20.968464470   391.0404   6   8   0.1533   0.1769   0.1288  -0.0975   0.0784  -0.1139   0.00    0.0
2026/01/15 02:02:30.000   67.857351915   20.968464403   391.0365   6   8   0.1522   0.1763   0.1279  -0.0976   0.0784  -0.1128   0.00    0.0
2026/01/15 02:04:30.000   67.857351961   20.968464251   391.0288   6   9   0.1502   0.1744   0.1262  -0.0973   0.0773  -0.1112   0.00    0.0
2026/01/15 02:05:00.000   67.857351976   20.968464168   391.0240   6  10   0.1488   0.1732   0.1248  -0.0974   0.0767  -0.1099   0.00    0.0
2026/01/15 02:07:00.000   67.857351983   20.968464139   391.0182   6  10   0.1470   0.1713   0.1229  -0.0968   0.0758  -0.1084   0.00    0.0
2026/01/15 02:07:30.000   67.857352015   20.968464027   391.0127   6  10   0.1457   0.1702   0.1217  -0.0968   0.0751  -0.1072   0.00    0.0
2026/01/15 02:08:00.000   67.857352046   20.968463903   391.0070   6  10   0.1444   0.1691   0.1205  -0.0968   0.0745  -0.1060   0.00    0.0
2026/01/15 02:08:30.000   67.857352070   20.968463789   391.0016   6  10   0.1431   0.1681   0.1192  -0.0970   0.0739  -0.1050   0.00    0.0
2026/01/15 02:09:00.000   67.857352086   20.968463700   390.9966   6  11   0.1419   0.1670   0.1180  -0.0971   0.0734  -0.1039   0.00    0.0
2026/01/15 02:10:00.000   67.857352104   20.968463546   390.9898   6  11   0.1405   0.1656   0.1167  -0.0970   0.0726  -0.1026   0.00    0.0
2026/01/15 02:11:30.000   67.857352119   20.968463466   390.9820   6  11   0.1392   0.1643   0.1154  -0.0970   0.0720  -0.1014   0.00    0.0
2026/01/15 02:12:00.000   67.857352125   20.968463423   390.9815   6  10   0.1383   0.1635   0.1148  -0.0974   0.0719  -0.1007   0.00    0.0
2026/01/15 02:12:30.000   67.857352133   20.968463381   390.9811   6  10   0.1375   0.1628   0.1143  -0.0977   0.0719  -0.1001   0.00    0.0
2026/01/15 02:13:00.000   67.857352133   20.968463335   390.9813   6  10   0.1367   0.1621   0.1138  -0.0981   0.0719  -0.0995   0.00    0.0
2026/01/15 02:13:30.000   67.857352134   20.968463321   390.9814   6  10   0.1358   0.1613   0.1133  -0.0985   0.0719  -0.0989   0.00    0.0
2026/01/15 02:14:00.000   67.857352127   20.968463332   390.9817   6   9   0.1350   0.1606   0.1127  -0.0988   0.0719  -0.0982   0.00    0.0
2026/01/15 02:14:30.000   67.857352127   20.968463276   390.9815   6   9   0.1341   0.1598   0.1122  -0.0992   0.0718  -0.0976   0.00    0.0
2026/01/15 02:15:00.000   67.857352123   20.968463265   390.9813   6   9   0.1333   0.1591   0.1117  -0.0995   0.0718  -0.0969   0.00    0.0
2026/01/15 02:15:30.000   67.857352120   20.968463233   390.9814   6  10   0.1325   0.1584   0.1111  -0.0998   0.0718  -0.0963   0.00    0.0
2026/01/15 02:16:00.000   67.857352111   20.968463220   390.9816   6  10   0.1318   0.1577   0.1106  -0.1001   0.0717  -0.0957   0.00    0.0
2026/01/15 02:16:30.000   67.857352118   20.968463163   390.9808   6   9   0.1311   0.1570   0.1101  -0.1003   0.0717  -0.0952   0.00    0.0
2026/01/15 02:17:00.000   67.857352124   20.968463133   390.9802   6   9   0.1304   0.1564   0.1097  -0.1004   0.0716  -0.0947   0.00    0.0
2026/01/15 02:17:30.000   67.857352120   20.968463143   390.9805   6  10   0.1298   0.1557   0.1093  -0.1005   0.0715  -0.0942   0.00    0.0
2026/01/15 02:18:00.000   67.857352112   20.968463133   390.9810   6  10   0.1291   0.1551   0.1088  -0.1006   0.0714  -0.0937   0.00    0.0
2026/01/15 02:18:30.000   67.857352122   20.968463060   390.9802   6  10   0.1285   0.1544   0.1083  -0.1008   0.0713  -0.0931   0.00    0.0
2026/01/15 02:19:00.000   67.857352119   20.968463056   390.9802   6  10   0.1278   0.1538   0.1079  -0.1009   0.0712  -0.0926   0.00    0.0
2026/01/15 02:19:30.000   67.857352121   20.968463024   390.9797   6  10   0.1271   0.1531   0.1074  -0.1010   0.0711  -0.0921   0.00    0.0
2026/01/15 02:20:00.000   67.857352119   20.968463007   390.9796   6  10   0.1265   0.1524   0.1069  -0.1011   0.0710  -0.0916   0.00    0.0
2026/01/15 02:20:30.000   67.857352116   20.968462979   390.9794   6  10   0.1259   0.1518   0.1064  -0.1013   0.0709  -0.0911   0.00    0.0
2026/01/15 02:21:30.000   67.857352108   20.968462927   390.9796   6   9   0.1252   0.1510   0.1060  -0.1012   0.0707  -0.0905   0.00    0.0
2026/01/15 02:22:00.000   67.857352109   20.968462907   390.9793   6   9   0.1246   0.1505   0.1055  -0.1013   0.0706  -0.0900   0.00    0.0
2026/01/15 02:22:30.000   67.857352109   20.968462890   390.9790   6   9   0.1241   0.1499   0.1051  -0.1013   0.0705  -0.0896   0.00    0.0
2026/01/15 02:23:30.000   67.857352107   20.968462852   390.9789   6   9   0.1234   0.1491   0.1046  -0.1011   0.0702  -0.0891   0.00    0.0
2026/01/15 02:24:00.000   67.857352106   20.968462819   390.9788   6   8   0.1228   0.1485   0.1042  -0.1011   0.0701  -0.0886   0.00    0.0
2026/01/15 02:24:30.000   67.857352102   20.968462799   390.9788   6   9   0.1222   0.1479   0.1037  -0.1012   0.0700  -0.0881   0.00    0.0
2026/01/15 02:25:00.000   67.857352104   20.968462762   390.9785   6   9   0.1216   0.1472   0.1032  -0.1012   0.0698  -0.0876   0.00    0.0
2026/01/15 02:25:30.000   67.857352092   20.968462772   390.9790   6   9   0.1211   0.1466   0.1028  -0.1012   0.0697  -0.0871   0.00    0.0
2026/01/15 02:26:00.000   67.857352088   20.968462767   390.9789   6   8   0.1205   0.1460   0.1023  -0.1011   0.0695  -0.0866   0.00    0.0
2026/01/15 02:26:30.000   67.857352090   20.968462740   390.9784   6   8   0.1200   0.1454   0.1019  -0.1011   0.0693  -0.0862   0.00    0.0
2026/01/15 02:27:00.000   67.857352097   20.968462692   390.9779   6   8   0.1195   0.1448   0.1015  -0.1010   0.0692  -0.0858   0.00    0.0
2026/01/15 02:27:30.000   67.857352099   20.968462674   390.9776   6   9   0.1190   0.1443   0.1011  -0.1009   0.0690  -0.0854   0.00    0.0
2026/01/15 02:28:00.000   67.857352103   20.968462634   390.9771   6   9   0.1185   0.1437   0.1007  -0.1008   0.0688  -0.0850   0.00    0.0
2026/01/15 02:28:30.000   67.857352103   20.968462599   390.9769   6   9   0.1180   0.1431   0.1003  -0.1007   0.0686  -0.0845   0.00    0.0
2026/01/15 02:29:00.000   67.857352106   20.968462573   390.9763   6   9   0.1175   0.1425   0.0998  -0.1006   0.0684  -0.0841   0.00    0.0
2026/01/15 02:29:30.000   67.857352109   20.968462525   390.9758   6   9   0.1169   0.1418   0.0994  -0.1004   0.0682  -0.0836   0.00    0.0
2026/01/15 02:30:00.000   67.857352115   20.968462485   390.9752   6   9   0.1164   0.1412   0.0989  -0.1003   0.0680  -0.0832   0.00    0.0
2026/01/15 02:30:30.000   67.857352128   20.968462433   390.9741   6   9   0.1159   0.1406   0.0985  -0.1001   0.0678  -0.0827   0.00    0.0
2026/01/15 02:31:00.000   67.857352136   20.968462384   390.9734   6   9   0.1154   0.1399   0.0981  -0.1000   0.0675  -0.0823   0.00    0.0
2026/01/15 02:31:30.000   67.857352144   20.968462357   390.9725   6   9   0.1149   0.1393   0.0976  -0.0998   0.0673  -0.0819   0.00    0.0
2026/01/15 02:32:00.000   67.857352147   20.968462330   390.9720   6   9   0.1144   0.1387   0.0972  -0.0996   0.0671  -0.0815   0.00    0.0
2026/01/15 02:32:30.000   67.857352147   20.968462321   390.9715   6   9   0.1139   0.1382   0.0969  -0.0994   0.0668  -0.0811   0.00    0.0
2026/01/15 02:33:00.000   67.857352154   20.968462289   390.9706   6   9   0.1135   0.1376   0.0965  -0.0991   0.0666  -0.0807   0.00    0.0
2026/01/15 02:33:30.000   67.857352164   20.968462239   390.9695   6   9   0.1129   0.1369   0.0961  -0.0989   0.0663  -0.0802   0.00    0.0
2026/01/15 02:34:00.000   67.857352169   20.968462205   390.9690   6   9   0.1124   0.1363   0.0956  -0.0987   0.0660  -0.0798   0.00    0.0
2026/01/15 02:34:30.000   67.857352182   20.968462133   390.9679   6   9   0.1119   0.1356   0.0952  -0.0984   0.0657  -0.0793   0.00    0.0
2026/01/15 02:35:00.000   67.857352194   20.968462063   390.9668   6   9   0.1114   0.1349   0.0947  -0.0981   0.0654  -0.0789   0.00    0.0
2026/01/15 02:35:30.000   67.857352202   20.968462016   390.9657   6   9   0.1108   0.1342   0.0943  -0.0978   0.0651  -0.0784   0.00    0.0
2026/01/15 02:36:00.000   67.857352206   20.968461990   390.9647   6   9   0.1103   0.1336   0.0939  -0.0975   0.0648  -0.0780   0.00    0.0
2026/01/15 02:36:30.000   67.857352208   20.968461954   390.9641   6   9   0.1098   0.1329   0.0934  -0.0972   0.0645  -0.0776   0.00    0.0
2026/01/15 02:37:00.000   67.857352210   20.968461936   390.9636   6   9   0.1093   0.1323   0.0931  -0.0969   0.0643  -0.0772   0.00    0.0
2026/01/15 02:37:30.000   67.857352214   20.968461911   390.9629   6   9   0.1088   0.1317   0.0927  -0.0966   0.0640  -0.0768   0.00    0.0
2026/01/15 02:38:00.000   67.857352222   20.968461859   390.9621   6   9   0.1084   0.1310   0.0923  -0.0963   0.0637  -0.0764   0.00    0.0
2026/01/15 02:38:30.000   67.857352222   20.968461832   390.9617   6   9   0.1078   0.1303   0.0919  -0.0959   0.0633  -0.0759   0.00    0.0
2026/01/15 02:39:00.000   67.857352231   20.968461787   390.9608   6   9   0.1073   0.1296   0.0914  -0.0955   0.0630  -0.0755   0.00    0.0
2026/01/15 02:39:30.000   67.857352246   20.968461717   390.9594   6   9   0.1067   0.1289   0.0910  -0.0951   0.0626  -0.0750   0.00    0.0
2026/01/15 02:40:00.000   67.857352258   20.968461644   390.9584   6   9   0.1062   0.1282   0.0905  -0.0947   0.0623  -0.0746   0.00    0.0
2026/01/15 02:40:30.000   67.857352278   20.968461560   390.9570   6   9   0.1056   0.1274   0.0901  -0.0943   0.0619  -0.0741   0.00    0.0
2026/01/15 02:41:00.000   67.857352294   20.968461493   390.9557   6   9   0.1051   0.1267   0.0897  -0.0939   0.0615  -0.0737   0.00    0.0
2026/01/15 02:41:30.000   67.857352307   20.968461422   390.9544   6   9   0.1046   0.1260   0.0893  -0.0935   0.0612  -0.0732   0.00    0.0
2026/01/15 02:42:00.000   67.857352322   20.968461345   390.9529   6   9   0.1041   0.1253   0.0889  -0.0931   0.0608  -0.0728   0.00    0.0
2026/01/15 02:42:30.000   67.857352339   20.968461273   390.9510   6   9   0.1036   0.1247   0.0885  -0.0927   0.0605  -0.0724   0.00    0.0
2026/01/15 02:43:00.000   67.857352352   20.968461207   390.9494   6   9   0.1031   0.1240   0.0881  -0.0923   0.0602  -0.0720   0.00    0.0
2026/01/15 02:43:30.000   67.857352361   20.968461159   390.9482   6   9   0.1025   0.1233   0.0877  -0.0919   0.0598  -0.0716   0.00    0.0
2026/01/15 02:44:00.000   67.857352371   20.968461113   390.9468   6   9   0.1020   0.1226   0.0873  -0.0914   0.0594  -0.0711   0.00    0.0
2026/01/15 02:44:30.000   67.857352382   20.968461049   390.9454   6   9   0.1014   0.1218   0.0868  -0.0909   0.0590  -0.0706   0.00    0.0
2026/01/15 02:45:00.000   67.857352391   20.968460992   390.9442   6   9   0.1008   0.1210   0.0864  -0.0904   0.0586  -0.0702   0.00    0.0
2026/01/15 02:45:30.000   67.857352404   20.968460937   390.9432   6   9   0.1002   0.1203   0.0859  -0.0900   0.0582  -0.0697   0.00    0.0
2026/01/15 02:46:00.000   67.857352418   20.968460879   390.9421   6   9   0.0997   0.1195   0.0855  -0.0895   0.0578  -0.0692   0.00    0.0
2026/01/15 02:46:30.000   67.857352431   20.968460820   390.9408   6   9   0.0991   0.1188   0.0851  -0.0890   0.0574  -0.0688   0.00    0.0
2026/01/15 02:47:00.000   67.857352444   20.968460766   390.9394   6   9   0.0986   0.1181   0.0847  -0.0885   0.0570  -0.0684   0.00    0.0
2026/01/15 02:47:30.000   67.857352461   20.968460698   390.9378   6   9   0.0981   0.1174   0.0844  -0.0881   0.0567  -0.0680   0.00    0.0
2026/01/15 02:48:00.000   67.857352475   20.968460622   390.9360   6   9   0.0976   0.1168   0.0840  -0.0876   0.0563  -0.0676   0.00    0.0
2026/01/15 02:48:30.000   67.857352490   20.968460547   390.9346   6   9   0.0970   0.1160   0.0836  -0.0871   0.0559  -0.0671   0.00    0.0
2026/01/15 02:49:00.000   67.857352509   20.968460468   390.9329   6   9   0.0965   0.1152   0.0831  -0.0866   0.0555  -0.0667   0.00    0.0
2026/01/15 02:49:30.000   67.857352527   20.968460387   390.9313   6   9   0.0959   0.1145   0.0827  -0.0860   0.0550  -0.0662   0.00    0.0
2026/01/15 02:50:00.000   67.857352548   20.968460295   390.9293   6   9   0.0953   0.1137   0.0822  -0.0854   0.0546  -0.0657   0.00    0.0
2026/01/15 02:50:30.000   67.857352564   20.968460220   390.9280   6   9   0.0947   0.1129   0.0818  -0.0849   0.0541  -0.0653   0.00    0.0
2026/01/15 02:51:00.000   67.857352579   20.968460147   390.9270   6   8   0.0941   0.1121   0.0814  -0.0843   0.0537  -0.0648   0.00    0.0
2026/01/15 02:51:30.000   67.857352600   20.968460059   390.9256   6   8   0.0935   0.1114   0.0810  -0.0838   0.0533  -0.0644   0.00    0.0
2026/01/15 02:52:00.000   67.857352622   20.968459966   390.9242   6   8   0.0930   0.1107   0.0806  -0.0833   0.0529  -0.0639   0.00    0.0
2026/01/15 02:52:30.000   67.857352646   20.968459864   390.9225   6   8   0.0925   0.1100   0.0803  -0.0828   0.0525  -0.0636   0.00    0.0
2026/01/15 02:53:00.000   67.857352659   20.968459797   390.9214   6   7   0.0921   0.1095   0.0799  -0.0825   0.0523  -0.0633   0.00    0.0
2026/01/15 02:53:30.000   67.857352676   20.968459730   390.9202   6   7   0.0917   0.1089   0.0796  -0.0821   0.0520  -0.0629   0.00    0.0
2026/01/15 02:54:00.000   67.857352686   20.968459686   390.9189   6   7   0.0913   0.1083   0.0792  -0.0817   0.0518  -0.0626   0.00    0.0
2026/01/15 02:54:30.000   67.857352697   20.968459639   390.9174   6   8   0.0908   0.1077   0.0788  -0.0814   0.0515  -0.0622   0.00    0.0
2026/01/15 02:55:00.000   67.857352699   20.968459620   390.9162   6   8   0.0904   0.1071   0.0784  -0.0810   0.0512  -0.0619   0.00    0.0
2026/01/15 02:55:30.000   67.857352712   20.968459561   390.9149   6   8   0.0899   0.1065   0.0781  -0.0806   0.0509  -0.0615   0.00    0.0
2026/01/15 02:56:00.000   67.857352723   20.968459511   390.9136   6   8   0.0895   0.1059   0.0777  -0.0802   0.0507  -0.0612   0.00    0.0
2026/01/15 02:56:30.000   67.857352738   20.968459442   390.9122   6   8   0.0891   0.1053   0.0774  -0.0798   0.0504  -0.0609   0.00    0.0
2026/01/15 02:57:00.000   67.857352747   20.968459396   390.9108   6   8   0.0887   0.1047   0.0770  -0.0794   0.0501  -0.0606   0.00    0.0
2026/01/15 02:57:30.000   67.857352748   20.968459375   390.9096   6   8   0.0883   0.1042   0.0767  -0.0791   0.0499  -0.0603   0.00    0.0
2026/01/15 02:58:00.000   67.857352754   20.968459336   390.9081   6   8   0.0879   0.1037   0.0764  -0.0787   0.0496  -0.0600   0.00    0.0
2026/01/15 02:58:30.000   67.857352762   20.968459302   390.9065   6   9   0.0874   0.1031   0.0761  -0.0783   0.0493  -0.0597   0.00    0.0
2026/01/15 02:59:00.000   67.857352772   20.968459253   390.9048   6   9   0.0870   0.1025   0.0757  -0.0778   0.0490  -0.0593   0.00    0.0
2026/01/15 02:59:30.000   67.857352787   20.968459187   390.9027   6  10   0.0865   0.1018   0.0753  -0.0774   0.0487  -0.0590   0.00    0.0
2026/01/15 03:00:00.000   67.857352792   20.968459149   390.9016   6  10   0.0860   0.1012   0.0749  -0.0770   0.0484  -0.0586   0.00    0.0
2026/01/15 03:00:30.000   67.857352807   20.968459077   390.8999   6   9   0.0856   0.1006   0.0746  -0.0765   0.0481  -0.0583   0.00    0.0
2026/01/15 03:01:00.000   67.857352822   20.968459000   390.8980   6   8   0.0851   0.1000   0.0742  -0.0761   0.0478  -0.0579   0.00    0.0
2026/01/15 03:01:30.000   67.857352833   20.968458943   390.8961   6   9   0.0847   0.0994   0.0739  -0.0757   0.0475  -0.0576   0.00    0.0
2026/01/15 03:02:00.000   67.857352854   20.968458859   390.8940   6   9   0.0843   0.0988   0.0736  -0.0752   0.0473  -0.0573   0.00    0.0
2026/01/15 03:02:30.000   67.857352873   20.968458793   390.8921   6  10   0.0839   0.0983   0.0733  -0.0749   0.0470  -0.0570   0.00    0.0
2026/01/15 03:03:00.000   67.857352878   20.968458767   390.8904   6  10   0.0834   0.0978   0.0729  -0.0745   0.0467  -0.0567   0.00    0.0
2026/01/15 03:03:30.000   67.857352882   20.968458733   390.8886   6  10   0.0830   0.0972   0.0726  -0.0740   0.0464  -0.0564   0.00    0.0
2026/01/15 03:04:00.000   67.857352883   20.968458704   390.8866   6   9   0.0825   0.0966   0.0722  -0.0736   0.0461  -0.0560   0.00    0.0
2026/01/15 03:04:30.000   67.857352886   20.968458677   390.8850   6   8   0.0821   0.0959   0.0719  -0.0731   0.0458  -0.0557   0.00    0.0
2026/01/15 03:05:00.000   67.857352894   20.968458631   390.8833   6   8   0.0816   0.0953   0.0715  -0.0726   0.0455  -0.0553   0.00    0.0
2026/01/15 03:05:30.000   67.857352906   20.968458571   390.8813   6   9   0.0811   0.0947   0.0712  -0.0721   0.0452  -0.0550   0.00    0.0
2026/01/15 03:06:00.000   67.857352912   20.968458531   390.8798   6   8   0.0807   0.0941   0.0708  -0.0717   0.0449  -0.0546   0.00    0.0
2026/01/15 03:06:30.000   67.857352917   20.968458494   390.8785   6   9   0.0802   0.0935   0.0705  -0.0712   0.0446  -0.0543   0.00    0.0
2026/01/15 03:07:30.000   67.857352926   20.968458445   390.8765   6  10   0.0797   0.0928   0.0702  -0.0707   0.0443  -0.0540   0.00    0.0
2026/01/15 03:08:00.000   67.857352938   20.968458386   390.8747   6  10   0.0793   0.0923   0.0698  -0.0703   0.0440  -0.0537   0.00    0.0
2026/01/15 03:08:30.000   67.857352938   20.968458370   390.8728   6  10   0.0788   0.0917   0.0695  -0.0698   0.0437  -0.0534   0.00    0.0
2026/01/15 03:09:00.000   67.857352946   20.968458326   390.8703   6  10   0.0783   0.0911   0.0692  -0.0693   0.0434  -0.0531   0.00    0.0
2026/01/15 03:09:30.000   67.857352958   20.968458263   390.8682   6   9   0.0779   0.0905   0.0688  -0.0688   0.0431  -0.0527   0.00    0.0
2026/01/15 03:10:30.000   67.857352977   20.968458204   390.8673   6   8   0.0774   0.0898   0.0685  -0.0683   0.0428  -0.0523   0.00    0.0
2026/01/15 03:11:00.000   67.857352998   20.968458134   390.8663   6   8   0.0769   0.0892   0.0682  -0.0678   0.0425  -0.0520   0.00    0.0
2026/01/15 03:11:30.000   67.857353013   20.968458083   390.8658   6   8   0.0764   0.0886   0.0680  -0.0673   0.0423  -0.0517   0.00    0.0
2026/01/15 03:12:00.000   67.857353027   20.968458037   390.8652   6   8   0.0760   0.0881   0.0678  -0.0669   0.0420  -0.0513   0.00    0.0
2026/01/15 03:12:30.000   67.857353037   20.968458001   390.8647   6   9   0.0756   0.0876   0.0675  -0.0665   0.0418  -0.0511   0.00    0.0
2026/01/15 03:13:00.000   67.857353039   20.968457998   390.8646   6   9   0.0752   0.0871   0.0673  -0.0660   0.0416  -0.0507   0.00    0.0
2026/01/15 03:13:30.000   67.857353044   20.968457985   390.8645   6   8   0.0748   0.0865   0.0670  -0.0656   0.0413  -0.0504   0.00    0.0
2026/01/15 03:14:00.000   67.857353054   20.968457948   390.8640   6   9   0.0743   0.0859   0.0668  -0.0651   0.0411  -0.0501   0.00    0.0
2026/01/15 03:14:30.000   67.857353067   20.968457907   390.8632   6   9   0.0738   0.0853   0.0665  -0.0646   0.0408  -0.0497   0.00    0.0
2026/01/15 03:15:00.000   67.857353081   20.968457862   390.8627   6  10   0.0733   0.0847   0.0662  -0.0641   0.0406  -0.0494   0.00    0.0
2026/01/15 03:15:30.000   67.857353090   20.968457828   390.8624   6  10   0.0729   0.0841   0.0660  -0.0636   0.0403  -0.0490   0.00    0.0
2026/01/15 03:16:00.000   67.857353098   20.968457795   390.8621   6  10   0.0724   0.0836   0.0657  -0.0631   0.0401  -0.0487   0.00    0.0
2026/01/15 03:16:30.000   67.857353109   20.968457756   390.8617   6  10   0.0720   0.0830   0.0655  -0.0627   0.0398  -0.0484   0.00    0.0
2026/01/15 03:17:00.000   67.857353123   20.968457702   390.8611   6  10   0.0716   0.0825   0.0652  -0.0623   0.0396  -0.0481   0.00    0.0
2026/01/15 03:17:30.000   67.857353136   20.968457664   390.8601   6  10   0.0712   0.0821   0.0650  -0.0619   0.0394  -0.0478   0.00    0.0
2026/01/15 03:18:00.000   67.857353148   20.968457632   390.8594   6  10   0.0708   0.0816   0.0648  -0.0614   0.0392  -0.0475   0.00    0.0
2026/01/15 03:19:00.000   67.857353162   20.968457584   390.8588   6  10   0.0703   0.0810   0.0645  -0.0609   0.0389  -0.0472   0.00    0.0
2026/01/15 03:19:30.000   67.857353174   20.968457541   390.8583   6  10   0.0698   0.0804   0.0643  -0.0604   0.0386  -0.0468   0.00    0.0
2026/01/15 03:20:00.000   67.857353190   20.968457494   390.8576   6  10   0.0694   0.0798   0.0640  -0.0599   0.0383  -0.0465   0.00    0.0
2026/01/15 03:20:30.000   67.857353205   20.968457449   390.8566   6  10   0.0689   0.0793   0.0637  -0.0594   0.0381  -0.0461   0.00    0.0
2026/01/15 03:21:00.000   67.857353215   20.968457417   390.8559   6  10   0.0685   0.0787   0.0635  -0.0590   0.0378  -0.0458   0.00    0.0
2026/01/15 03:21:30.000   67.857353229   20.968457375   390.8547   6  10   0.0681   0.0782   0.0632  -0.0585   0.0376  -0.0455   0.00    0.0
2026/01/15 03:22:00.000   67.857353240   20.968457339   390.8538   6  10   0.0677   0.0777   0.0630  -0.0581   0.0374  -0.0452   0.00    0.0
2026/01/15 03:22:30.000   67.857353252   20.968457303   390.8530   6  10   0.0673   0.0773   0.0628  -0.0577   0.0372  -0.0450   0.00    0.0
2026/01/15 03:23:00.000   67.857353260   20.968457277   390.8525   6  10   0.0669   0.0768   0.0626  -0.0573   0.0369  -0.0447   0.00    0.0
2026/01/15 03:23:30.000   67.857353274   20.968457232   390.8515   6  10   0.0665   0.0763   0.0623  -0.0568   0.0367  -0.0444   0.00    0.0
2026/01/15 03:24:00.000   67.857353293   20.968457172   390.8505   6  10   0.0661   0.0758   0.0621  -0.0564   0.0365  -0.0441   0.00    0.0
2026/01/15 03:25:00.000   67.857353306   20.968457136   390.8496   6   9   0.0656   0.0752   0.0618  -0.0559   0.0362  -0.0437   0.00    0.0
2026/01/15 03:26:00.000   67.857353311   20.968457122   390.8491   6   9   0.0650   0.0744   0.0615  -0.0552   0.0360  -0.0434   0.00    0.0
2026/01/15 03:26:30.000   67.857353315   20.968457115   390.8486   6   9   0.0646   0.0739   0.0612  -0.0548   0.0358  -0.0431   0.00    0.0
2026/01/15 03:27:30.000   67.857353320   20.968457105   390.8481   6   9   0.0642   0.0735   0.0610  -0.0544   0.0355  -0.0428   0.00    0.0
2026/01/15 03:28:00.000   67.857353332   20.968457079   390.8472   6   9   0.0638   0.0730   0.0608  -0.0539   0.0353  -0.0426   0.00    0.0
2026/01/15 03:28:30.000   67.857353349   20.968457033   390.8461   6  10   0.0634   0.0725   0.0605  -0.0535   0.0350  -0.0422   0.00    0.0
2026/01/15 03:29:00.000   67.857353363   20.968456995   390.8450   6  10   0.0630   0.0720   0.0602  -0.0530   0.0348  -0.0419   0.00    0.0
2026/01/15 03:29:30.000   67.857353382   20.968456937   390.8438   6  10   0.0625   0.0714   0.0600  -0.0525   0.0345  -0.0416   0.00    0.0
2026/01/15 03:30:00.000   67.857353399   20.968456894   390.8427   6  10   0.0621   0.0709   0.0597  -0.0521   0.0342  -0.0413   0.00    0.0
2026/01/15 03:30:30.000   67.857353413   20.968456853   390.8417   6   9   0.0616   0.0704   0.0594  -0.0516   0.0340  -0.0410   0.00    0.0
2026/01/15 03:31:00.000   67.857353424   20.968456816   390.8409   6   9   0.0612   0.0699   0.0592  -0.0511   0.0337  -0.0406   0.00    0.0
2026/01/15 03:31:30.000   67.857353438   20.968456775   390.8400   6   8   0.0608   0.0695   0.0589  -0.0507   0.0335  -0.0404   0.00    0.0
2026/01/15 03:32:00.000   67.857353450   20.968456741   390.8394   6   8   0.0605   0.0691   0.0587  -0.0503   0.0333  -0.0401   0.00    0.0
2026/01/15 03:32:30.000   67.857353465   20.968456697   390.8384   6   8   0.0601   0.0687   0.0585  -0.0500   0.0331  -0.0399   0.00    0.0
2026/01/15 03:33:00.000   67.857353486   20.968456638   390.8372   6   8   0.0598   0.0682   0.0582  -0.0496   0.0328  -0.0396   0.00    0.0
2026/01/15 03:33:30.000   67.857353511   20.968456568   390.8359   6   8   0.0594   0.0678   0.0580  -0.0492   0.0326  -0.0393   0.00    0.0
2026/01/15 03:34:00.000   67.857353529   20.968456520   390.8350   6   8   0.0590   0.0673   0.0577  -0.0488   0.0324  -0.0390   0.00    0.0
2026/01/15 03:34:30.000   67.857353542   20.968456483   390.8342   6   8   0.0586   0.0669   0.0575  -0.0483   0.0321  -0.0387   0.00    0.0
2026/01/15 03:35:00.000   67.857353556   20.968456444   390.8331   6   8   0.0582   0.0664   0.0572  -0.0479   0.0319  -0.0385   0.00    0.0
2026/01/15 03:35:30.000   67.857353573   20.968456401   390.8318   6   8   0.0578   0.0660   0.0570  -0.0475   0.0317  -0.0382   0.00    0.0
2026/01/15 03:36:00.000   67.857353585   20.968456369   390.8305   6   8   0.0574   0.0655   0.0567  -0.0471   0.0314  -0.0379   0.00    0.0
2026/01/15 03:36:30.000   67.857353597   20.968456328   390.8292   6   8   0.0571   0.0651   0.0565  -0.0467   0.0312  -0.0376   0.00    0.0
2026/01/15 03:37:00.000   67.857353613   20.968456285   390.8278   6   8   0.0567   0.0647   0.0563  -0.0464   0.0310  -0.0374   0.00    0.0
2026/01/15 03:37:30.000   67.857353624   20.968456253   390.8264   6   8   0.0564   0.0644   0.0561  -0.0460   0.0308  -0.0372   0.00    0.0
2026/01/15 03:38:00.000   67.857353625   20.968456253   390.8257   6   8   0.0561   0.0640   0.0558  -0.0457   0.0306  -0.0369   0.00    0.0
2026/01/15 03:38:30.000   67.857353625   20.968456249   390.8253   6   8   0.0558   0.0636   0.0556  -0.0453   0.0304  -0.0367   0.00    0.0
2026/01/15 03:39:00.000   67.857353627   20.968456242   390.8248   6   7   0.0556   0.0635   0.0554  -0.0452   0.0304  -0.0365   0.00    0.0
2026/01/15 03:39:30.000   67.857353630   20.968456227   390.8240   6   7   0.0555   0.0633   0.0552  -0.0451   0.0303  -0.0364   0.00    0.0
2026/01/15 03:40:00.000   67.857353633   20.968456222   390.8232   6   7   0.0553   0.0631   0.0549  -0.0451   0.0303  -0.0362   0.00    0.0
2026/01/15 03:40:30.000   67.857353637   20.968456219   390.8224   6   7   0.0552   0.0630   0.0547  -0.0450   0.0302  -0.0361   0.00    0.0
2026/01/15 03:41:00.000   67.857353642   20.968456217   390.8213   6   7   0.0550   0.0628   0.0545  -0.0449   0.0302  -0.0360   0.00    0.0
2026/01/15 03:41:30.000   67.857353647   20.968456205   390.8203   6   7   0.0549   0.0627   0.0543  -0.0448   0.0301  -0.0358   0.00    0.0
2026/01/15 03:42:00.000   67.857353650   20.968456200   390.8194   6   7   0.0548   0.0626   0.0541  -0.0448   0.0301  -0.0357   0.00    0.0
2026/01/15 03:42:30.000   67.857353651   20.968456203   390.8186   6   7   0.0546   0.0624   0.0539  -0.0447   0.0300  -0.0356   0.00    0.0
2026/01/15 03:43:00.000   67.857353654   20.968456194   390.8177   6   7   0.0545   0.0623   0.0538  -0.0446   0.0299  -0.0355   0.00    0.0
2026/01/15 03:43:30.000   67.857353659   20.968456183   390.8167   6   7   0.0544   0.0621   0.0536  -0.0445   0.0299  -0.0353   0.00    0.0
2026/01/15 03:44:00.000   67.857353664   20.968456177   390.8157   6   8   0.0542   0.0620   0.0533  -0.0444   0.0298  -0.0352   0.00    0.0
2026/01/15 03:44:30.000   67.857353670   20.968456166   390.8143   6   8   0.0541   0.0618   0.0531  -0.0444   0.0298  -0.0351   0.00    0.0
2026/01/15 03:45:00.000   67.857353677   20.968456150   390.8128   6   8   0.0539   0.0617   0.0529  -0.0443   0.0297  -0.0349   0.00    0.0
2026/01/15 03:45:30.000   67.857353684   20.968456140   390.8109   6   8   0.0538   0.0615   0.0527  -0.0442   0.0296  -0.0348   0.00    0.0
2026/01/15 03:46:00.000   67.857353687   20.968456137   390.8093   6   8   0.0536   0.0614   0.0525  -0.0441   0.0296  -0.0346   0.00    0.0
2026/01/15 03:46:30.000   67.857353689   20.968456141   390.8081   6   8   0.0535   0.0613   0.0523  -0.0440   0.0295  -0.0345   0.00    0.0
2026/01/15 03:47:00.000   67.857353693   20.968456137   390.8069   6   8   0.0534   0.0611   0.0521  -0.0439   0.0294  -0.0344   0.00    0.0
2026/01/15 03:47:30.000   67.857353697   20.968456131   390.8055   6   8   0.0532   0.0610   0.0519  -0.0438   0.0294  -0.0343   0.00    0.0
2026/01/15 03:48:00.000   67.857353705   20.968456112   390.8039   6   8   0.0531   0.0609   0.0517  -0.0438   0.0293  -0.0342   0.00    0.0
2026/01/15 03:48:30.000   67.857353711   20.968456101   390.8023   6   8   0.0530   0.0607   0.0516  -0.0437   0.0292  -0.0340   0.00    0.0
2026/01/15 03:49:00.000   67.857353718   20.968456090   390.8003   6   8   0.0528   0.0606   0.0513  -0.0436   0.0292  -0.0339   0.00    0.0
2026/01/15 03:49:30.000   67.857353725   20.968456083   390.7982   6   8   0.0527   0.0604   0.0511  -0.0435   0.0291  -0.0338   0.00    0.0
2026/01/15 03:50:00.000   67.857353726   20.968456073   390.7982   6   7   0.0525   0.0603   0.0511  -0.0434   0.0290  -0.0337   0.00    0.0
2026/01/15 03:50:30.000   67.857353729   20.968456060   390.7982   6   7   0.0524   0.0601   0.0510  -0.0433   0.0290  -0.0337   0.00    0.0
2026/01/15 03:51:00.000   67.857353731   20.968456045   390.7983   6   7   0.0523   0.0600   0.0509  -0.0432   0.0289  -0.0336   0.00    0.0
2026/01/15 03:51:30.000   67.857353734   20.968456032   390.7983   6   7   0.0522   0.0598   0.0509  -0.0431   0.0289  -0.0336   0.00    0.0
2026/01/15 03:52:00.000   67.857353738   20.968456017   390.7983   6   7   0.0521   0.0597   0.0508  -0.0430   0.0288  -0.0336   0.00    0.0
2026/01/15 03:52:30.000   67.857353739   20.968456008   390.7984   6   7   0.0520   0.0596   0.0508  -0.0430   0.0288  -0.0335   0.00    0.0
2026/01/15 03:53:00.000   67.857353743   20.968455997   390.7985   6   7   0.0518   0.0595   0.0507  -0.0429   0.0287  -0.0335   0.00    0.0
2026/01/15 03:54:00.000   67.857353746   20.968455982   390.7982   6   7   0.0517   0.0593   0.0506  -0.0428   0.0287  -0.0334   0.00    0.0
2026/01/15 03:55:00.000   67.857353748   20.968455967   390.7981   6   7   0.0516   0.0591   0.0505  -0.0427   0.0286  -0.0334   0.00    0.0
2026/01/15 03:55:30.000   67.857353748   20.968455962   390.7980   6   7   0.0514   0.0590   0.0505  -0.0426   0.0285  -0.0333   0.00    0.0
2026/01/15 03:56:00.000   67.857353748   20.968455953   390.7978   6   7   0.0513   0.0588   0.0504  -0.0425   0.0285  -0.0333   0.00    0.0
2026/01/15 03:56:30.000   67.857353746   20.968455947   390.7975   6   7   0.0512   0.0587   0.0503  -0.0424   0.0284  -0.0332   0.00    0.0
2026/01/15 03:57:00.000   67.857353742   20.968455951   390.7975   6   7   0.0511   0.0586   0.0502  -0.0423   0.0284  -0.0332   0.00    0.0
2026/01/15 03:57:30.000   67.857353742   20.968455944   390.7975   6   7   0.0510   0.0584   0.0502  -0.0422   0.0283  -0.0331   0.00    0.0
2026/01/15 03:58:00.000   67.857353740   20.968455941   390.7974   6   7   0.0508   0.0583   0.0501  -0.0421   0.0282  -0.0331   0.00    0.0
2026/01/15 03:58:30.000   67.857353740   20.968455932   390.7975   6   7   0.0507   0.0582   0.0500  -0.0420   0.0282  -0.0331   0.00    0.0
2026/01/15 03:59:00.000   67.857353738   20.968455922   390.7976   6   7   0.0506   0.0580   0.0499  -0.0419   0.0281  -0.0330   0.00    0.0
2026/01/15 03:59:30.000   67.857353739   20.968455908   390.7974   6   7   0.0504   0.0579   0.0499  -0.0418   0.0281  -0.0329   0.00    0.0
2026/01/15 04:00:00.000   67.857353742   20.968455890   390.7972   6   7   0.0503   0.0577   0.0498  -0.0417   0.0280  -0.0329   0.00    0.0
2026/01/15 04:00:30.000   67.857353744   20.968455876   390.7971   6   7   0.0502   0.0576   0.0497  -0.0416   0.0279  -0.0328   0.00    0.0
2026/01/15 04:01:00.000   67.857353748   20.968455860   390.7969   6   7   0.0500   0.0574   0.0496  -0.0415   0.0279  -0.0328   0.00    0.0
2026/01/15 04:01:30.000   67.857353748   20.968455849   390.7968   6   7   0.0499   0.0573   0.0495  -0.0414   0.0278  -0.0327   0.00    0.0
2026/01/15 04:02:00.000   67.857353745   20.968455841   390.7968   6   7   0.0498   0.0572   0.0494  -0.0413   0.0277  -0.0327   0.00    0.0
2026/01/15 04:02:30.000   67.857353742   20.968455834   390.7967   6   7   0.0497   0.0570   0.0494  -0.0412   0.0277  -0.0326   0.00    0.0
2026/01/15 04:03:00.000   67.857353741   20.968455821   390.7964   6   7   0.0495   0.0569   0.0493  -0.0411   0.0276  -0.0326   0.00    0.0
2026/01/15 04:03:30.000   67.857353742   20.968455806   390.7960   6   7   0.0494   0.0568   0.0492  -0.0410   0.0275  -0.0325   0.00    0.0
2026/01/15 04:04:00.000   67.857353748   20.968455785   390.7956   6   7   0.0493   0.0566   0.0491  -0.0409   0.0275  -0.0324   0.00    0.0
2026/01/15 04:04:30.000   67.857353751   20.968455762   390.7954   6   6   0.0491   0.0565   0.0490  -0.0408   0.0274  -0.0324   0.00    0.0
2026/01/15 04:05:00.000   67.857353753   20.968455743   390.7950   6   7   0.0490   0.0563   0.0489  -0.0406   0.0273  -0.0323   0.00    0.0
2026/01/15 04:05:30.000   67.857353755   20.968455719   390.7945   6   7   0.0488   0.0562   0.0488  -0.0405   0.0273  -0.0323   0.00    0.0
2026/01/15 04:06:00.000   67.857353753   20.968455703   390.7943   6   7   0.0487   0.0561   0.0487  -0.0404   0.0272  -0.0322   0.00    0.0
2026/01/15 04:06:30.000   67.857353753   20.968455680   390.7940   6   7   0.0486   0.0559   0.0486  -0.0403   0.0271  -0.0321   0.00    0.0
2026/01/15 04:07:00.000   67.857353756   20.968455658   390.7935   6   7   0.0484   0.0558   0.0485  -0.0402   0.0271  -0.0321   0.00    0.0
2026/01/15 04:07:30.000   67.857353760   20.968455632   390.7930   6   7   0.0483   0.0557   0.0484  -0.0401   0.0270  -0.0320   0.00    0.0
2026/01/15 04:08:00.000   67.857353761   20.968455615   390.7925   6   7   0.0482   0.0555   0.0484  -0.0400   0.0269  -0.0319   0.00    0.0
2026/01/15 04:08:30.000   67.857353762   20.968455596   390.7919   6   7   0.0480   0.0554   0.0483  -0.0399   0.0268  -0.0319   0.00    0.0
