% program   : RTKLIB ver.EX 2.5.0
% inp file  : C:\Users\tevin\Desktop\GNSS - MASTA\SPRING SEM\4.SAT NAV DATA PROCESSING\TEAM PROJECT\SNDP-PROJECT\New_Data\obs\RNXDATA\WUH200CHN_R_20260150000_01D_30S_MO.rnx
% inp file  : C:\Users\tevin\Desktop\GNSS - MASTA\SPRING SEM\4.SAT NAV DATA PROCESSING\TEAM PROJECT\SNDP-PROJECT\Old_data\products\nav\BRDC00IGS_R_20260150000_01D_MN.rnx
% inp file  : C:\Users\tevin\Desktop\GNSS - MASTA\SPRING SEM\4.SAT NAV DATA PROCESSING\TEAM PROJECT\SNDP-PROJECT\Old_data\products\sp3\COD0MGXFIN_20260150000_01D_05M_ORB.SP3
% inp file  : C:\Users\tevin\Desktop\GNSS - MASTA\SPRING SEM\4.SAT NAV DATA PROCESSING\TEAM PROJECT\SNDP-PROJECT\Old_data\products\clk\COD0MGXFIN_20260150000_01D_30S_CLK.CLK
% obs start : 2026/01/15 00:00:00.0 GPST (week2401 345600.0s)
% obs end   : 2026/01/15 23:59:30.0 GPST (week2401 431970.0s)
% pos mode  : PPP Static
% freqs     : L1+L2/E5b
% solution  : Forward
% elev mask : 15.0 deg
% dynamics  : on
% tidecorr  :
% ionos opt : Iono-Free LC
% tropo opt : Saastamoinen
% ephemeris : Precise
% navi sys  : GPS Galileo
% antenna1  : JAVRINGANT_G5T  NONE  ( 0.0000  0.0000  0.1206)
%
% (lat/lon/height=WGS84/ellipsoidal,Q=1:fix,2:float,3:sbas,4:dgps,5:single,6:ppp,ns=# of satellites)
%  GPST                  latitude(deg) longitude(deg)  height(m)   Q  ns   sdn(m)   sde(m)   sdu(m)  sdne(m)  sdeu(m)  sdun(m) age(s)  ratio
2026/01/15 00:00:00.000   30.531667507  114.357260257    26.9875   6  11   3.0942   3.2566   8.2363  -0.6292   2.2049  -2.4301   0.00    0.0
2026/01/15 00:00:30.000   30.531670958  114.357259923    27.3987   6  13   2.1912   2.3084   5.8402  -0.4469   1.5769  -1.7176   0.00    0.0
2026/01/15 00:01:00.000   30.531671932  114.357260759    27.4585   6  13   1.7884   1.8867   4.7514  -0.3599   1.2883  -1.3988   0.00    0.0
2026/01/15 00:01:30.000   30.531672312  114.357261942    27.6134   6  13   1.5467   1.6342   4.0849  -0.3058   1.1119  -1.2070   0.00    0.0
2026/01/15 00:02:00.000   30.531673032  114.357263998    27.7419   6  13   1.3804   1.4612   3.6168  -0.2671   0.9876  -1.0751   0.00    0.0
2026/01/15 00:02:30.000   30.531672426  114.357265336    27.5715   6  13   1.2566   1.3330   3.2603  -0.2369   0.8924  -0.9771   0.00    0.0
2026/01/15 00:03:00.000   30.531672741  114.357266180    27.4263   6  13   1.1595   1.2329   2.9743  -0.2120   0.8154  -0.9005   0.00    0.0
2026/01/15 00:03:30.000   30.531672974  114.357267817    27.5271   6  13   1.0803   1.1517   2.7363  -0.1905   0.7506  -0.8384   0.00    0.0
2026/01/15 00:04:00.000   30.531673226  114.357268212    27.6423   6  13   1.0139   1.0841   2.5331  -0.1714   0.6947  -0.7867   0.00    0.0
2026/01/15 00:04:30.000   30.531672787  114.357268045    27.7809   6  13   0.9571   1.0266   2.3562  -0.1538   0.6453  -0.7426   0.00    0.0
2026/01/15 00:05:00.000   30.531673240  114.357268100    27.7837   6  13   0.9075   0.9768   2.2001  -0.1372   0.6012  -0.7045   0.00    0.0
2026/01/15 00:05:30.000   30.531672942  114.357268678    27.8356   6  13   0.8637   0.9331   2.0608  -0.1211   0.5612  -0.6710   0.00    0.0
2026/01/15 00:06:00.000   30.531673454  114.357268793    27.8845   6  13   0.8245   0.8942   1.9355  -0.1052   0.5248  -0.6412   0.00    0.0
2026/01/15 00:06:30.000   30.531673510  114.357268398    27.7919   6  13   0.7890   0.8594   1.8220  -0.0889   0.4912  -0.6144   0.00    0.0
2026/01/15 00:07:00.000   30.531673443  114.357267960    27.8219   6  13   0.7567   0.8279   1.7188  -0.0715   0.4602  -0.5902   0.00    0.0
2026/01/15 00:07:30.000   30.531673322  114.357267490    27.9666   6  13   0.7271   0.7992   1.6245  -0.0511   0.4315  -0.5680   0.00    0.0
2026/01/15 00:08:00.000   30.531673275  114.357267849    28.0526   6  13   0.6990   0.7719   1.5353  -0.0410   0.4002  -0.5503   0.00    0.0
2026/01/15 00:08:30.000   30.531673273  114.357267810    28.0792   6  13   0.6730   0.7469   1.4541  -0.0251   0.3717  -0.5333   0.00    0.0
2026/01/15 00:09:00.000   30.531673365  114.357268097    28.0442   6  13   0.6488   0.7238   1.3798   0.0218   0.3455  -0.5170   0.00    0.0
2026/01/15 00:09:30.000   30.531673429  114.357268596    28.0598   6  13   0.6252   0.7002   1.3069   0.0598   0.3119  -0.4975   0.00    0.0
2026/01/15 00:10:00.000   30.531673536  114.357268475    28.0635   6  15   0.6032   0.6785   1.2406   0.0784   0.2812  -0.4797   0.00    0.0
2026/01/15 00:10:30.000   30.531673778  114.357268332    27.9935   6  14   0.5835   0.6603   1.1834   0.0824   0.2618  -0.4663   0.00    0.0
2026/01/15 00:11:00.000   30.531673987  114.357268299    27.9601   6  14   0.5649   0.6431   1.1303   0.0864   0.2435  -0.4533   0.00    0.0
2026/01/15 00:11:30.000   30.531674125  114.357268492    27.9409   6  14   0.5474   0.6270   1.0807   0.0901   0.2262  -0.4408   0.00    0.0
2026/01/15 00:12:00.000   30.531674282  114.357268611    27.8956   6  14   0.5307   0.6117   1.0345   0.0935   0.2098  -0.4288   0.00    0.0
2026/01/15 00:12:30.000   30.531674343  114.357268765    27.9121   6  14   0.5149   0.5973   0.9912   0.0967   0.1942  -0.4172   0.00    0.0
2026/01/15 00:13:00.000   30.531674467  114.357268578    27.9221   6  15   0.4997   0.5830   0.9501   0.0979   0.1773  -0.4065   0.00    0.0
2026/01/15 00:13:30.000   30.531674615  114.357268808    27.8913   6  15   0.4852   0.5695   0.9117   0.0993   0.1613  -0.3961   0.00    0.0
2026/01/15 00:14:00.000   30.531674681  114.357268847    27.8839   6  15   0.4714   0.5567   0.8756   0.1007   0.1461  -0.3859   0.00    0.0
2026/01/15 00:14:30.000   30.531674731  114.357268747    27.8729   6  15   0.4582   0.5445   0.8418   0.1020   0.1314  -0.3760   0.00    0.0
2026/01/15 00:15:00.000   30.531674800  114.357268607    27.8677   6  15   0.4455   0.5328   0.8099   0.1032   0.1173  -0.3664   0.00    0.0
2026/01/15 00:15:30.000   30.531675029  114.357268872    27.8563   6  16   0.4331   0.5208   0.7788   0.1069   0.0976  -0.3561   0.00    0.0
2026/01/15 00:16:00.000   30.531674992  114.357268965    27.8752   6  16   0.4212   0.5093   0.7496   0.1098   0.0774  -0.3463   0.00    0.0
2026/01/15 00:16:30.000   30.531675125  114.357268898    27.8453   6  16   0.4099   0.4984   0.7221   0.1121   0.0548  -0.3370   0.00    0.0
2026/01/15 00:17:00.000   30.531675181  114.357268820    27.8275   6  15   0.3993   0.4886   0.6970   0.1124   0.0361  -0.3287   0.00    0.0
2026/01/15 00:17:30.000   30.531675198  114.357268754    27.8232   6  15   0.3892   0.4792   0.6732   0.1125  -0.0130  -0.3208   0.00    0.0
2026/01/15 00:18:00.000   30.531675272  114.357268916    27.8065   6  16   0.3792   0.4695   0.6501   0.1140  -0.0458  -0.3124   0.00    0.0
2026/01/15 00:18:30.000   30.531675440  114.357269114    27.7927   6  16   0.3696   0.4602   0.6281   0.1152  -0.0608  -0.3045   0.00    0.0
2026/01/15 00:19:00.000   30.531675596  114.357269114    27.7751   6  16   0.3604   0.4513   0.6074   0.1160  -0.0709  -0.2968   0.00    0.0
2026/01/15 00:19:30.000   30.531675714  114.357269318    27.7557   6  15   0.3517   0.4431   0.5882   0.1156  -0.0754  -0.2899   0.00    0.0
2026/01/15 00:20:00.000   30.531675820  114.357269638    27.7475   6  16   0.3432   0.4348   0.5694   0.1162  -0.0816  -0.2828   0.00    0.0
2026/01/15 00:20:30.000   30.531675874  114.357269753    27.7575   6  16   0.3350   0.4267   0.5517   0.1165  -0.0864  -0.2760   0.00    0.0
2026/01/15 00:21:00.000   30.531675915  114.357269802    27.7536   6  16   0.3272   0.4189   0.5348   0.1166  -0.0901  -0.2694   0.00    0.0
2026/01/15 00:21:30.000   30.531675982  114.357269792    27.7472   6  16   0.3196   0.4113   0.5187   0.1166  -0.0930  -0.2631   0.00    0.0
2026/01/15 00:22:00.000   30.531676093  114.357269866    27.7234   6  16   0.3123   0.4040   0.5034   0.1165  -0.0952  -0.2570   0.00    0.0
2026/01/15 00:22:30.000   30.531676180  114.357269895    27.7050   6  16   0.3052   0.3969   0.4888   0.1163  -0.0969  -0.2511   0.00    0.0
2026/01/15 00:23:00.000   30.531676294  114.357269909    27.6845   6  16   0.2984   0.3901   0.4748   0.1159  -0.0982  -0.2455   0.00    0.0
2026/01/15 00:23:30.000   30.531676353  114.357269889    27.6744   6  16   0.2918   0.3834   0.4615   0.1155  -0.0992  -0.2400   0.00    0.0
2026/01/15 00:24:00.000   30.531676428  114.357269988    27.6654   6  16   0.2855   0.3769   0.4488   0.1150  -0.0999  -0.2347   0.00    0.0
2026/01/15 00:24:30.000   30.531676474  114.357269917    27.6570   6  16   0.2794   0.3705   0.4366   0.1144  -0.1003  -0.2297   0.00    0.0
2026/01/15 00:25:00.000   30.531676538  114.357269925    27.6510   6  16   0.2734   0.3644   0.4249   0.1138  -0.1005  -0.2247   0.00    0.0
2026/01/15 00:25:30.000   30.531676598  114.357269870    27.6359   6  16   0.2677   0.3584   0.4137   0.1131  -0.1005  -0.2200   0.00    0.0
2026/01/15 00:26:00.000   30.531676646  114.357269821    27.6231   6  17   0.2621   0.3524   0.4029   0.1126  -0.1009  -0.2152   0.00    0.0
2026/01/15 00:26:30.000   30.531676753  114.357269796    27.6097   6   9   0.2588   0.3473   0.3977   0.1112  -0.0977  -0.2125   0.00    0.0
2026/01/15 00:27:00.000   30.531676856  114.357269738    27.6055   6  17   0.2534   0.3416   0.3891   0.1108  -0.0970  -0.2078   0.00    0.0
2026/01/15 00:27:30.000   30.531677010  114.357269689    27.5917   6  17   0.2481   0.3361   0.3807   0.1102  -0.0962  -0.2033   0.00    0.0
2026/01/15 00:28:00.000   30.531677082  114.357269676    27.5896   6  16   0.2430   0.3307   0.3726   0.1096  -0.0953  -0.1989   0.00    0.0
2026/01/15 00:28:30.000   30.531677156  114.357269709    27.5926   6  16   0.2381   0.3254   0.3648   0.1089  -0.0944  -0.1946   0.00    0.0
2026/01/15 00:29:00.000   30.531677159  114.357269651    27.5972   6  16   0.2334   0.3203   0.3571   0.1081  -0.0934  -0.1905   0.00    0.0
2026/01/15 00:29:30.000   30.531677155  114.357269652    27.6041   6  16   0.2288   0.3152   0.3497   0.1073  -0.0924  -0.1866   0.00    0.0
2026/01/15 00:30:00.000   30.531677146  114.357269626    27.6140   6  16   0.2244   0.3103   0.3425   0.1064  -0.0914  -0.1828   0.00    0.0
2026/01/15 00:30:30.000   30.531677146  114.357269535    27.6209   6  16   0.2200   0.3055   0.3355   0.1055  -0.0903  -0.1791   0.00    0.0
2026/01/15 00:31:00.000   30.531677156  114.357269519    27.6289   6  16   0.2159   0.3008   0.3287   0.1046  -0.0892  -0.1755   0.00    0.0
2026/01/15 00:31:30.000   30.531677172  114.357269498    27.6329   6  16   0.2118   0.2963   0.3221   0.1036  -0.0881  -0.1721   0.00    0.0
2026/01/15 00:32:00.000   30.531677218  114.357269577    27.6319   6  16   0.2078   0.2918   0.3157   0.1026  -0.0869  -0.1687   0.00    0.0
2026/01/15 00:32:30.000   30.531677251  114.357269575    27.6303   6  16   0.2040   0.2874   0.3094   0.1015  -0.0858  -0.1655   0.00    0.0
2026/01/15 00:33:00.000   30.531677325  114.357269597    27.6224   6  16   0.2003   0.2831   0.3034   0.1005  -0.0846  -0.1623   0.00    0.0
2026/01/15 00:33:30.000   30.531677375  114.357269572    27.6154   6  16   0.1966   0.2789   0.2975   0.0994  -0.0835  -0.1593   0.00    0.0
2026/01/15 00:34:00.000   30.531677418  114.357269527    27.6075   6  16   0.1931   0.2747   0.2917   0.0983  -0.0823  -0.1563   0.00    0.0
2026/01/15 00:34:30.000   30.531677483  114.357269524    27.6024   6  16   0.1897   0.2707   0.2861   0.0972  -0.0811  -0.1534   0.00    0.0
2026/01/15 00:35:00.000   30.531677535  114.357269525    27.6003   6  16   0.1863   0.2667   0.2807   0.0961  -0.0800  -0.1506   0.00    0.0
2026/01/15 00:35:30.000   30.531677574  114.357269591    27.5960   6  16   0.1831   0.2629   0.2754   0.0950  -0.0788  -0.1479   0.00    0.0
2026/01/15 00:36:00.000   30.531677610  114.357269594    27.5894   6  16   0.1799   0.2591   0.2703   0.0939  -0.0777  -0.1452   0.00    0.0
2026/01/15 00:36:30.000   30.531677690  114.357269614    27.5777   6  16   0.1768   0.2553   0.2653   0.0927  -0.0765  -0.1427   0.00    0.0
2026/01/15 00:37:00.000   30.531677707  114.357269617    27.5732   6  16   0.1738   0.2517   0.2605   0.0916  -0.0754  -0.1401   0.00    0.0
2026/01/15 00:37:30.000   30.531677733  114.357269626    27.5698   6  16   0.1709   0.2481   0.2557   0.0905  -0.0743  -0.1377   0.00    0.0
2026/01/15 00:38:00.000   30.531677758  114.357269636    27.5675   6  16   0.1680   0.2446   0.2511   0.0893  -0.0731  -0.1353   0.00    0.0
2026/01/15 00:38:30.000   30.531677784  114.357269643    27.5690   6  15   0.1654   0.2411   0.2482   0.0881  -0.0717  -0.1338   0.00    0.0
2026/01/15 00:39:00.000   30.531677792  114.357269703    27.5712   6  15   0.1628   0.2378   0.2452   0.0869  -0.0703  -0.1322   0.00    0.0
2026/01/15 00:39:30.000   30.531677792  114.357269719    27.5756   6  15   0.1603   0.2344   0.2423   0.0858  -0.0689  -0.1306   0.00    0.0
2026/01/15 00:40:00.000   30.531677785  114.357269723    27.5808   6  16   0.1578   0.2312   0.2394   0.0846  -0.0676  -0.1291   0.00    0.0
2026/01/15 00:40:30.000   30.531677774  114.357269745    27.5844   6  15   0.1554   0.2280   0.2365   0.0834  -0.0663  -0.1276   0.00    0.0
2026/01/15 00:41:00.000   30.531677767  114.357269770    27.5868   6  16   0.1531   0.2249   0.2337   0.0823  -0.0650  -0.1260   0.00    0.0
2026/01/15 00:41:30.000   30.531677773  114.357269755    27.5880   6  15   0.1508   0.2218   0.2308   0.0812  -0.0638  -0.1246   0.00    0.0
2026/01/15 00:42:00.000   30.531677790  114.357269750    27.5901   6  15   0.1486   0.2188   0.2281   0.0801  -0.0626  -0.1231   0.00    0.0
2026/01/15 00:42:30.000   30.531677813  114.357269785    27.5880   6  15   0.1464   0.2159   0.2253   0.0790  -0.0615  -0.1217   0.00    0.0
2026/01/15 00:43:00.000   30.531677827  114.357269765    27.5876   6  15   0.1442   0.2130   0.2226   0.0779  -0.0604  -0.1202   0.00    0.0
2026/01/15 00:43:30.000   30.531677835  114.357269760    27.5869   6  15   0.1421   0.2101   0.2199   0.0768  -0.0593  -0.1188   0.00    0.0
2026/01/15 00:44:00.000   30.531677859  114.357269805    27.5858   6  15   0.1400   0.2074   0.2172   0.0758  -0.0582  -0.1174   0.00    0.0
2026/01/15 00:44:30.000   30.531677882  114.357269803    27.5846   6  15   0.1380   0.2046   0.2145   0.0747  -0.0571  -0.1159   0.00    0.0
2026/01/15 00:45:00.000   30.531677892  114.357269814    27.5860   6  15   0.1360   0.2019   0.2119   0.0737  -0.0561  -0.1145   0.00    0.0
2026/01/15 00:45:30.000   30.531677890  114.357269807    27.5881   6  15   0.1341   0.1993   0.2093   0.0727  -0.0551  -0.1132   0.00    0.0
2026/01/15 00:46:00.000   30.531677873  114.357269770    27.5905   6  15   0.1322   0.1967   0.2068   0.0717  -0.0541  -0.1118   0.00    0.0
2026/01/15 00:46:30.000   30.531677882  114.357269811    27.5918   6  15   0.1303   0.1941   0.2042   0.0707  -0.0531  -0.1104   0.00    0.0
2026/01/15 00:47:00.000   30.531677891  114.357269833    27.5938   6  15   0.1285   0.1916   0.2017   0.0697  -0.0521  -0.1091   0.00    0.0
2026/01/15 00:47:30.000   30.531677894  114.357269827    27.5961   6  15   0.1267   0.1892   0.1992   0.0687  -0.0512  -0.1078   0.00    0.0
2026/01/15 00:48:00.000   30.531677901  114.357269846    27.6011   6  14   0.1250   0.1869   0.1971   0.0680  -0.0496  -0.1063   0.00    0.0
2026/01/15 00:48:30.000   30.531677927  114.357269858    27.6039   6  14   0.1233   0.1847   0.1949   0.0672  -0.0479  -0.1048   0.00    0.0
2026/01/15 00:49:00.000   30.531677934  114.357269904    27.6100   6  14   0.1217   0.1826   0.1928   0.0665  -0.0463  -0.1034   0.00    0.0
2026/01/15 00:49:30.000   30.531677954  114.357269953    27.6147   6  14   0.1201   0.1804   0.1906   0.0658  -0.0447  -0.1019   0.00    0.0
2026/01/15 00:50:00.000   30.531677977  114.357270006    27.6187   6  14   0.1185   0.1783   0.1886   0.0650  -0.0432  -0.1006   0.00    0.0
2026/01/15 00:50:30.000   30.531677999  114.357270050    27.6209   6  14   0.1170   0.1762   0.1865   0.0643  -0.0417  -0.0992   0.00    0.0
2026/01/15 00:51:00.000   30.531678009  114.357270075    27.6255   6  14   0.1154   0.1742   0.1844   0.0636  -0.0402  -0.0978   0.00    0.0
2026/01/15 00:51:30.000   30.531678015  114.357270079    27.6300   6  14   0.1139   0.1722   0.1824   0.0629  -0.0387  -0.0965   0.00    0.0
2026/01/15 00:52:00.000   30.531678025  114.357270107    27.6337   6  14   0.1125   0.1702   0.1804   0.0622  -0.0372  -0.0952   0.00    0.0
2026/01/15 00:52:30.000   30.531678027  114.357270133    27.6375   6  14   0.1110   0.1683   0.1784   0.0615  -0.0358  -0.0939   0.00    0.0
2026/01/15 00:53:00.000   30.531678037  114.357270129    27.6408   6  14   0.1096   0.1664   0.1765   0.0608  -0.0344  -0.0927   0.00    0.0
2026/01/15 00:53:30.000   30.531678040  114.357270112    27.6451   6  14   0.1082   0.1645   0.1745   0.0601  -0.0330  -0.0914   0.00    0.0
2026/01/15 00:54:00.000   30.531678055  114.357270148    27.6476   6  14   0.1069   0.1626   0.1726   0.0594  -0.0317  -0.0902   0.00    0.0
2026/01/15 00:54:30.000   30.531678066  114.357270182    27.6509   6  14   0.1055   0.1608   0.1707   0.0587  -0.0304  -0.0890   0.00    0.0
2026/01/15 00:55:00.000   30.531678073  114.357270199    27.6542   6  14   0.1042   0.1590   0.1688   0.0580  -0.0291  -0.0879   0.00    0.0
2026/01/15 00:55:30.000   30.531678082  114.357270210    27.6580   6  14   0.1029   0.1572   0.1670   0.0574  -0.0278  -0.0867   0.00    0.0
2026/01/15 00:56:00.000   30.531678095  114.357270243    27.6611   6  14   0.1016   0.1555   0.1652   0.0567  -0.0265  -0.0856   0.00    0.0
2026/01/15 00:56:30.000   30.531678115  114.357270281    27.6633   6  14   0.1004   0.1537   0.1634   0.0561  -0.0253  -0.0845   0.00    0.0
2026/01/15 00:57:00.000   30.531678127  114.357270283    27.6664   6  14   0.0991   0.1521   0.1616   0.0554  -0.0240  -0.0834   0.00    0.0
2026/01/15 00:57:30.000   30.531678137  114.357270313    27.6703   6  14   0.0979   0.1504   0.1598   0.0548  -0.0228  -0.0823   0.00    0.0
2026/01/15 00:58:00.000   30.531678159  114.357270357    27.6736   6  14   0.0967   0.1487   0.1581   0.0541  -0.0217  -0.0813   0.00    0.0
2026/01/15 00:58:30.000   30.531678177  114.357270375    27.6768   6  14   0.0956   0.1471   0.1564   0.0535  -0.0205  -0.0802   0.00    0.0
2026/01/15 00:59:00.000   30.531678192  114.357270392    27.6794   6  14   0.0944   0.1455   0.1547   0.0529  -0.0193  -0.0792   0.00    0.0
2026/01/15 00:59:30.000   30.531678203  114.357270419    27.6824   6  14   0.0933   0.1440   0.1530   0.0523  -0.0182  -0.0782   0.00    0.0
2026/01/15 01:00:00.000   30.531678220  114.357270437    27.6841   6  14   0.0922   0.1424   0.1514   0.0517  -0.0170  -0.0773   0.00    0.0
2026/01/15 01:00:30.000   30.531678224  114.357270422    27.6873   6  14   0.0911   0.1409   0.1498   0.0511  -0.0159  -0.0763   0.00    0.0
2026/01/15 01:01:00.000   30.531678230  114.357270419    27.6903   6  14   0.0900   0.1394   0.1482   0.0505  -0.0147  -0.0754   0.00    0.0
2026/01/15 01:01:30.000   30.531678245  114.357270432    27.6927   6  14   0.0890   0.1379   0.1466   0.0499  -0.0136  -0.0744   0.00    0.0
2026/01/15 01:02:00.000   30.531678259  114.357270435    27.6934   6   7   0.0884   0.1366   0.1460   0.0492  -0.0117  -0.0743   0.00    0.0
2026/01/15 01:02:30.000   30.531678263  114.357270459    27.6972   6  14   0.0874   0.1352   0.1445   0.0487  -0.0105  -0.0733   0.00    0.0
2026/01/15 01:03:00.000   30.531678267  114.357270465    27.7012   6  14   0.0864   0.1338   0.1429   0.0481  -0.0092  -0.0724   0.00    0.0
2026/01/15 01:03:30.000   30.531678276  114.357270483    27.7039   6  14   0.0854   0.1324   0.1414   0.0476  -0.0079  -0.0715   0.00    0.0
2026/01/15 01:04:00.000   30.531678281  114.357270491    27.7074   6  14   0.0844   0.1310   0.1398   0.0470  -0.0064  -0.0707   0.00    0.0
2026/01/15 01:04:30.000   30.531678286  114.357270496    27.7112   6  14   0.0834   0.1296   0.1383   0.0465  -0.0047  -0.0698   0.00    0.0
2026/01/15 01:05:00.000   30.531678293  114.357270501    27.7140   6  14   0.0825   0.1283   0.1369   0.0460  -0.0021  -0.0689   0.00    0.0
2026/01/15 01:05:30.000   30.531678297  114.357270514    27.7170   6  14   0.0815   0.1270   0.1354   0.0455   0.0034  -0.0681   0.00    0.0
2026/01/15 01:06:00.000   30.531678298  114.357270514    27.7204   6  14   0.0806   0.1257   0.1340   0.0450   0.0051  -0.0673   0.00    0.0
2026/01/15 01:06:30.000   30.531678301  114.357270520    27.7238   6  14   0.0797   0.1244   0.1326   0.0445   0.0062  -0.0665   0.00    0.0
2026/01/15 01:07:00.000   30.531678296  114.357270518    27.7278   6  14   0.0788   0.1232   0.1312   0.0440   0.0071  -0.0657   0.00    0.0
2026/01/15 01:07:30.000   30.531678299  114.357270521    27.7299   6  14   0.0779   0.1219   0.1298   0.0435   0.0078  -0.0650   0.00    0.0
2026/01/15 01:08:00.000   30.531678297  114.357270515    27.7333   6  14   0.0771   0.1207   0.1285   0.0430   0.0084  -0.0642   0.00    0.0
2026/01/15 01:08:30.000   30.531678295  114.357270499    27.7363   6  14   0.0762   0.1195   0.1271   0.0426   0.0089  -0.0635   0.00    0.0
2026/01/15 01:09:00.000   30.531678296  114.357270506    27.7396   6  14   0.0754   0.1183   0.1258   0.0421   0.0093  -0.0627   0.00    0.0
2026/01/15 01:09:30.000   30.531678301  114.357270518    27.7419   6  14   0.0746   0.1172   0.1245   0.0416   0.0096  -0.0620   0.00    0.0
2026/01/15 01:10:00.000   30.531678301  114.357270512    27.7444   6  14   0.0738   0.1160   0.1233   0.0412   0.0099  -0.0613   0.00    0.0
2026/01/15 01:10:30.000   30.531678306  114.357270515    27.7471   6  14   0.0730   0.1149   0.1220   0.0408   0.0102  -0.0606   0.00    0.0
2026/01/15 01:11:00.000   30.531678311  114.357270525    27.7491   6  14   0.0722   0.1138   0.1208   0.0403   0.0104  -0.0599   0.00    0.0
2026/01/15 01:11:30.000   30.531678315  114.357270534    27.7515   6  14   0.0715   0.1127   0.1196   0.0399   0.0105  -0.0593   0.00    0.0
2026/01/15 01:12:00.000   30.531678317  114.357270537    27.7539   6  14   0.0707   0.1116   0.1184   0.0395   0.0106  -0.0586   0.00    0.0
2026/01/15 01:12:30.000   30.531678322  114.357270538    27.7559   6  14   0.0700   0.1105   0.1172   0.0390   0.0107  -0.0580   0.00    0.0
2026/01/15 01:13:00.000   30.531678324  114.357270550    27.7587   6  14   0.0693   0.1095   0.1160   0.0386   0.0108  -0.0574   0.00    0.0
2026/01/15 01:13:30.000   30.531678325  114.357270551    27.7614   6  14   0.0686   0.1084   0.1149   0.0382   0.0108  -0.0567   0.00    0.0
2026/01/15 01:14:00.000   30.531678327  114.357270556    27.7635   6  14   0.0679   0.1074   0.1137   0.0378   0.0108  -0.0561   0.00    0.0
2026/01/15 01:14:30.000   30.531678331  114.357270559    27.7655   6  14   0.0672   0.1064   0.1126   0.0374   0.0108  -0.0555   0.00    0.0
2026/01/15 01:15:00.000   30.531678334  114.357270561    27.7677   6  14   0.0665   0.1054   0.1115   0.0370   0.0108  -0.0549   0.00    0.0
2026/01/15 01:15:30.000   30.531678336  114.357270551    27.7688   6   7   0.0661   0.1045   0.1111   0.0366   0.0112  -0.0548   0.00    0.0
2026/01/15 01:16:00.000   30.531678343  114.357270555    27.7707   6  14   0.0655   0.1035   0.1100   0.0362   0.0111  -0.0543   0.00    0.0
2026/01/15 01:16:30.000   30.531678346  114.357270553    27.7728   6  14   0.0648   0.1026   0.1090   0.0358   0.0110  -0.0537   0.00    0.0
2026/01/15 01:17:00.000   30.531678352  114.357270550    27.7733   6   7   0.0645   0.1017   0.1086   0.0354   0.0113  -0.0536   0.00    0.0
2026/01/15 01:17:30.000   30.531678359  114.357270547    27.7739   6  10   0.0640   0.1008   0.1081   0.0350   0.0112  -0.0533   0.00    0.0
2026/01/15 01:18:00.000   30.531678365  114.357270562    27.7756   6  14   0.0633   0.0999   0.1070   0.0347   0.0111  -0.0527   0.00    0.0
2026/01/15 01:18:30.000   30.531678367  114.357270557    27.7775   6  14   0.0627   0.0990   0.1059   0.0343   0.0109  -0.0521   0.00    0.0
2026/01/15 01:19:00.000   30.531678371  114.357270556    27.7792   6  14   0.0621   0.0981   0.1049   0.0340   0.0107  -0.0516   0.00    0.0
2026/01/15 01:19:30.000   30.531678372  114.357270554    27.7809   6  14   0.0614   0.0972   0.1038   0.0337   0.0105  -0.0510   0.00    0.0
2026/01/15 01:20:00.000   30.531678372  114.357270553    27.7831   6  14   0.0608   0.0964   0.1028   0.0333   0.0103  -0.0505   0.00    0.0
2026/01/15 01:20:30.000   30.531678374  114.357270554    27.7851   6  14   0.0602   0.0955   0.1018   0.0330   0.0101  -0.0499   0.00    0.0
2026/01/15 01:21:00.000   30.531678380  114.357270560    27.7852   6   7   0.0599   0.0947   0.1015   0.0326   0.0103  -0.0499   0.00    0.0
2026/01/15 01:21:30.000   30.531678384  114.357270559    27.7857   6   7   0.0596   0.0940   0.1011   0.0322   0.0104  -0.0498   0.00    0.0
2026/01/15 01:22:00.000   30.531678390  114.357270558    27.7861   6   7   0.0593   0.0932   0.1008   0.0318   0.0105  -0.0497   0.00    0.0
2026/01/15 01:22:30.000   30.531678393  114.357270558    27.7878   6  14   0.0587   0.0924   0.0998   0.0315   0.0102  -0.0492   0.00    0.0
2026/01/15 01:23:00.000   30.531678396  114.357270563    27.7894   6  14   0.0581   0.0916   0.0988   0.0312   0.0100  -0.0486   0.00    0.0
2026/01/15 01:23:30.000   30.531678393  114.357270555    27.7913   6  14   0.0576   0.0908   0.0978   0.0310   0.0097  -0.0481   0.00    0.0
2026/01/15 01:25:00.000   30.531678395  114.357270543    27.7924   6  14   0.0570   0.0899   0.0967   0.0306   0.0094  -0.0475   0.00    0.0
2026/01/15 01:25:30.000   30.531678399  114.357270534    27.7929   6   7   0.0567   0.0891   0.0964   0.0302   0.0094  -0.0474   0.00    0.0
2026/01/15 01:26:00.000   30.531678402  114.357270527    27.7935   6  10   0.0562   0.0884   0.0959   0.0300   0.0090  -0.0471   0.00    0.0
2026/01/15 01:26:30.000   30.531678406  114.357270515    27.7941   6   7   0.0559   0.0877   0.0956   0.0296   0.0090  -0.0471   0.00    0.0
2026/01/15 01:27:00.000   30.531678406  114.357270515    27.7940   6   4   0.0557   0.0875   0.0954   0.0294   0.0089  -0.0468   0.00    0.0
2026/01/15 01:27:30.000   30.531678407  114.357270509    27.7957   6  14   0.0551   0.0867   0.0943   0.0291   0.0084  -0.0463   0.00    0.0
2026/01/15 01:28:00.000   30.531678408  114.357270490    27.7965   6   7   0.0549   0.0860   0.0940   0.0288   0.0084  -0.0462   0.00    0.0
2026/01/15 01:28:30.000   30.531678408  114.357270485    27.7985   6  14   0.0543   0.0852   0.0930   0.0285   0.0079  -0.0457   0.00    0.0
2026/01/15 01:29:00.000   30.531678411  114.357270474    27.7991   6   7   0.0540   0.0845   0.0927   0.0282   0.0078  -0.0456   0.00    0.0
2026/01/15 01:29:30.000   30.531678414  114.357270461    27.7999   6   7   0.0537   0.0839   0.0923   0.0278   0.0077  -0.0455   0.00    0.0
2026/01/15 01:30:00.000   30.531678414  114.357270458    27.8018   6  14   0.0532   0.0831   0.0913   0.0276   0.0072  -0.0450   0.00    0.0
2026/01/15 01:30:30.000   30.531678416  114.357270456    27.8037   6  14   0.0526   0.0824   0.0903   0.0273   0.0067  -0.0444   0.00    0.0
2026/01/15 01:31:00.000   30.531678417  114.357270438    27.8044   6  10   0.0522   0.0817   0.0899   0.0271   0.0061  -0.0441   0.00    0.0
2026/01/15 01:31:30.000   30.531678416  114.357270428    27.8062   6  14   0.0517   0.0810   0.0889   0.0269   0.0055  -0.0436   0.00    0.0
2026/01/15 01:32:00.000   30.531678419  114.357270413    27.8067   6   7   0.0514   0.0804   0.0886   0.0266   0.0053  -0.0436   0.00    0.0
2026/01/15 01:32:30.000   30.531678421  114.357270406    27.8073   6   8   0.0512   0.0798   0.0883   0.0263   0.0050  -0.0435   0.00    0.0
2026/01/15 01:36:00.000   30.531678427  114.357270399    27.8067   6  14   0.0506   0.0789   0.0876   0.0260   0.0041  -0.0432   0.00    0.0
2026/01/15 01:36:30.000   30.531678431  114.357270387    27.8070   6   8   0.0504   0.0782   0.0873   0.0257   0.0035  -0.0431   0.00    0.0
2026/01/15 01:37:00.000   30.531678432  114.357270379    27.8086   6  15   0.0498   0.0775   0.0862   0.0254   0.0018  -0.0425   0.00    0.0
2026/01/15 01:38:30.000   30.531678435  114.357270368    27.8082   6   8   0.0495   0.0767   0.0858   0.0251  -0.0010  -0.0424   0.00    0.0
2026/01/15 01:39:30.000   30.531678436  114.357270365    27.8092   6  15   0.0489   0.0760   0.0847   0.0248  -0.0031  -0.0418   0.00    0.0
2026/01/15 01:42:00.000   30.531678442  114.357270353    27.8079   6   6   0.0486   0.0753   0.0843   0.0244  -0.0046  -0.0416   0.00    0.0
2026/01/15 01:44:00.000   30.531678442  114.357270332    27.8073   6   7   0.0482   0.0745   0.0839   0.0241  -0.0052  -0.0415   0.00    0.0
2026/01/15 01:44:30.000   30.531678446  114.357270316    27.8075   6   8   0.0479   0.0738   0.0835   0.0238  -0.0060  -0.0414   0.00    0.0
2026/01/15 01:45:00.000   30.531678448  114.357270307    27.8085   6  15   0.0473   0.0730   0.0823   0.0235  -0.0068  -0.0407   0.00    0.0
2026/01/15 01:45:30.000   30.531678453  114.357270289    27.8084   6   8   0.0470   0.0723   0.0819   0.0232  -0.0074  -0.0406   0.00    0.0
2026/01/15 01:47:30.000   30.531678458  114.357270261    27.8063   6   9   0.0467   0.0715   0.0815   0.0229  -0.0079  -0.0405   0.00    0.0
2026/01/15 03:15:00.000   30.531678475  114.357270388    27.7704   6   5   0.0458   0.0679   0.0806   0.0219  -0.0071  -0.0396   0.00    0.0
2026/01/15 03:21:00.000   30.531678468  114.357270376    27.7697   6   5   0.0457   0.0677   0.0805   0.0218  -0.0068  -0.0395   0.00    0.0
2026/01/15 03:25:30.000   30.531678466  114.357270376    27.7690   6   9   0.0457   0.0675   0.0805   0.0217  -0.0065  -0.0394   0.00    0.0
2026/01/15 03:29:00.000   30.531678464  114.357270382    27.7685   6   5   0.0456   0.0674   0.0804   0.0216  -0.0063  -0.0394   0.00    0.0
2026/01/15 03:45:30.000   30.531678432  114.357270340    27.7691   6   5   0.0454   0.0667   0.0802   0.0212  -0.0047  -0.0391   0.00    0.0
2026/01/15 12:56:00.000   30.531677465  114.357269917    27.7465   6   6   0.0402   0.0524   0.0747   0.0118   0.0092  -0.0335   0.00    0.0
2026/01/15 12:58:30.000   30.531677465  114.357269912    27.7461   6   5   0.0402   0.0524   0.0747   0.0118   0.0093  -0.0335   0.00    0.0
2026/01/15 13:03:00.000   30.531677474  114.357269901    27.7439   6   7   0.0401   0.0522   0.0747   0.0117   0.0094  -0.0335   0.00    0.0
2026/01/15 13:03:30.000   30.531677474  114.357269902    27.7439   6   6   0.0401   0.0522   0.0747   0.0117   0.0094  -0.0335   0.00    0.0
2026/01/15 13:04:00.000   30.531677476  114.357269903    27.7438   6  17   0.0401   0.0522   0.0747   0.0117   0.0094  -0.0335   0.00    0.0
2026/01/15 13:05:00.000   30.531677475  114.357269900    27.7438   6   7   0.0401   0.0522   0.0746   0.0117   0.0094  -0.0334   0.00    0.0
2026/01/15 13:07:00.000   30.531677478  114.357269884    27.7431   6   8   0.0401   0.0521   0.0746   0.0117   0.0095  -0.0334   0.00    0.0
2026/01/15 13:08:30.000   30.531677481  114.357269879    27.7427   6  17   0.0401   0.0521   0.0746   0.0116   0.0095  -0.0334   0.00    0.0
2026/01/15 13:09:00.000   30.531677481  114.357269880    27.7426   6   7   0.0401   0.0520   0.0746   0.0116   0.0095  -0.0334   0.00    0.0
2026/01/15 13:09:30.000   30.531677482  114.357269878    27.7426   6   8   0.0401   0.0520   0.0746   0.0116   0.0095  -0.0334   0.00    0.0
2026/01/15 13:10:00.000   30.531677484  114.357269875    27.7426   6  18   0.0401   0.0520   0.0746   0.0116   0.0096  -0.0334   0.00    0.0
2026/01/15 13:10:30.000   30.531677486  114.357269872    27.7426   6  12   0.0401   0.0520   0.0746   0.0116   0.0096  -0.0334   0.00    0.0
2026/01/15 13:11:00.000   30.531677486  114.357269870    27.7427   6  18   0.0401   0.0520   0.0746   0.0116   0.0096  -0.0334   0.00    0.0
2026/01/15 13:11:30.000   30.531677486  114.357269871    27.7429   6  18   0.0400   0.0520   0.0746   0.0116   0.0096  -0.0334   0.00    0.0
2026/01/15 13:12:00.000   30.531677486  114.357269869    27.7429   6  18   0.0400   0.0519   0.0745   0.0116   0.0096  -0.0334   0.00    0.0
2026/01/15 13:12:30.000   30.531677487  114.357269868    27.7430   6  18   0.0400   0.0519   0.0745   0.0116   0.0096  -0.0334   0.00    0.0
2026/01/15 13:15:30.000   30.531677490  114.357269858    27.7425   6  17   0.0400   0.0518   0.0745   0.0115   0.0097  -0.0334   0.00    0.0
2026/01/15 13:17:30.000   30.531677492  114.357269851    27.7421   6  17   0.0400   0.0518   0.0745   0.0115   0.0097  -0.0333   0.00    0.0
2026/01/15 13:18:00.000   30.531677493  114.357269850    27.7423   6  17   0.0400   0.0517   0.0744   0.0115   0.0097  -0.0333   0.00    0.0
2026/01/15 13:18:30.000   30.531677495  114.357269851    27.7424   6  17   0.0400   0.0517   0.0744   0.0115   0.0097  -0.0333   0.00    0.0
2026/01/15 13:19:00.000   30.531677496  114.357269850    27.7428   6  17   0.0399   0.0517   0.0744   0.0115   0.0097  -0.0333   0.00    0.0
2026/01/15 13:19:30.000   30.531677496  114.357269849    27.7430   6  17   0.0399   0.0517   0.0744   0.0115   0.0097  -0.0333   0.00    0.0
2026/01/15 13:20:00.000   30.531677497  114.357269848    27.7432   6  17   0.0399   0.0517   0.0743   0.0114   0.0097  -0.0333   0.00    0.0
2026/01/15 13:20:30.000   30.531677498  114.357269849    27.7433   6  17   0.0399   0.0516   0.0743   0.0114   0.0097  -0.0333   0.00    0.0
2026/01/15 13:21:00.000   30.531677500  114.357269849    27.7435   6  18   0.0399   0.0516   0.0743   0.0114   0.0097  -0.0333   0.00    0.0
2026/01/15 13:21:30.000   30.531677502  114.357269849    27.7436   6  18   0.0399   0.0516   0.0743   0.0114   0.0097  -0.0333   0.00    0.0
2026/01/15 13:22:00.000   30.531677502  114.357269848    27.7439   6  18   0.0399   0.0516   0.0743   0.0114   0.0097  -0.0333   0.00    0.0
2026/01/15 13:22:30.000   30.531677503  114.357269846    27.7441   6  18   0.0398   0.0515   0.0742   0.0114   0.0096  -0.0333   0.00    0.0
2026/01/15 13:23:00.000   30.531677504  114.357269845    27.7441   6  18   0.0398   0.0515   0.0742   0.0114   0.0096  -0.0333   0.00    0.0
2026/01/15 13:23:30.000   30.531677506  114.357269844    27.7441   6  18   0.0398   0.0515   0.0742   0.0114   0.0096  -0.0333   0.00    0.0
2026/01/15 13:24:00.000   30.531677508  114.357269841    27.7443   6  18   0.0398   0.0515   0.0741   0.0114   0.0096  -0.0333   0.00    0.0
2026/01/15 13:24:30.000   30.531677509  114.357269842    27.7442   6   9   0.0398   0.0514   0.0741   0.0113   0.0096  -0.0333   0.00    0.0
2026/01/15 13:25:00.000   30.531677511  114.357269843    27.7444   6  19   0.0398   0.0514   0.0741   0.0113   0.0096  -0.0332   0.00    0.0
2026/01/15 13:25:30.000   30.531677512  114.357269839    27.7445   6   8   0.0398   0.0514   0.0741   0.0113   0.0096  -0.0332   0.00    0.0
2026/01/15 13:26:00.000   30.531677514  114.357269843    27.7446   6  11   0.0398   0.0514   0.0741   0.0113   0.0096  -0.0332   0.00    0.0
2026/01/15 13:26:30.000   30.531677515  114.357269845    27.7447   6   9   0.0397   0.0514   0.0740   0.0113   0.0096  -0.0332   0.00    0.0
2026/01/15 13:27:00.000   30.531677515  114.357269847    27.7449   6  19   0.0397   0.0513   0.0740   0.0113   0.0095  -0.0332   0.00    0.0
2026/01/15 13:27:30.000   30.531677517  114.357269850    27.7450   6  19   0.0397   0.0513   0.0740   0.0113   0.0095  -0.0332   0.00    0.0
2026/01/15 13:28:00.000   30.531677518  114.357269850    27.7452   6  19   0.0397   0.0513   0.0739   0.0113   0.0095  -0.0332   0.00    0.0
2026/01/15 13:28:30.000   30.531677520  114.357269848    27.7455   6  19   0.0397   0.0512   0.0739   0.0113   0.0095  -0.0332   0.00    0.0
2026/01/15 13:29:00.000   30.531677522  114.357269847    27.7458   6  19   0.0396   0.0512   0.0738   0.0113   0.0094  -0.0332   0.00    0.0
2026/01/15 13:29:30.000   30.531677525  114.357269854    27.7461   6  19   0.0396   0.0512   0.0738   0.0113   0.0094  -0.0332   0.00    0.0
2026/01/15 13:30:00.000   30.531677528  114.357269857    27.7461   6  19   0.0396   0.0511   0.0738   0.0112   0.0094  -0.0332   0.00    0.0
2026/01/15 13:30:30.000   30.531677531  114.357269857    27.7463   6  19   0.0396   0.0511   0.0737   0.0112   0.0094  -0.0332   0.00    0.0
2026/01/15 13:31:00.000   30.531677534  114.357269860    27.7464   6  19   0.0395   0.0511   0.0737   0.0112   0.0093  -0.0331   0.00    0.0
2026/01/15 13:31:30.000   30.531677536  114.357269863    27.7467   6  19   0.0395   0.0510   0.0736   0.0112   0.0093  -0.0331   0.00    0.0
2026/01/15 13:32:00.000   30.531677538  114.357269865    27.7469   6  19   0.0395   0.0510   0.0736   0.0112   0.0093  -0.0331   0.00    0.0
2026/01/15 13:32:30.000   30.531677541  114.357269865    27.7469   6  19   0.0395   0.0510   0.0735   0.0112   0.0092  -0.0331   0.00    0.0
2026/01/15 13:33:00.000   30.531677544  114.357269865    27.7469   6  19   0.0394   0.0509   0.0735   0.0112   0.0092  -0.0331   0.00    0.0
2026/01/15 13:33:30.000   30.531677545  114.357269863    27.7473   6  19   0.0394   0.0509   0.0734   0.0112   0.0091  -0.0331   0.00    0.0
2026/01/15 13:34:00.000   30.531677547  114.357269866    27.7476   6  19   0.0394   0.0509   0.0734   0.0112   0.0091  -0.0331   0.00    0.0
2026/01/15 13:34:30.000   30.531677550  114.357269871    27.7479   6  18   0.0394   0.0508   0.0733   0.0112   0.0090  -0.0331   0.00    0.0
2026/01/15 13:35:00.000   30.531677551  114.357269869    27.7483   6  18   0.0393   0.0508   0.0733   0.0112   0.0090  -0.0330   0.00    0.0
2026/01/15 13:35:30.000   30.531677554  114.357269873    27.7488   6  18   0.0393   0.0508   0.0732   0.0112   0.0089  -0.0330   0.00    0.0
2026/01/15 13:36:00.000   30.531677555  114.357269876    27.7492   6  18   0.0393   0.0507   0.0732   0.0112   0.0089  -0.0330   0.00    0.0
2026/01/15 13:36:30.000   30.531677557  114.357269877    27.7497   6  18   0.0392   0.0507   0.0731   0.0112   0.0088  -0.0330   0.00    0.0
2026/01/15 13:37:00.000   30.531677560  114.357269879    27.7501   6  18   0.0392   0.0507   0.0730   0.0112   0.0087  -0.0330   0.00    0.0
2026/01/15 13:37:30.000   30.531677561  114.357269878    27.7506   6  18   0.0392   0.0506   0.0730   0.0112   0.0087  -0.0330   0.00    0.0
2026/01/15 13:38:00.000   30.531677562  114.357269880    27.7514   6  18   0.0392   0.0506   0.0729   0.0112   0.0086  -0.0330   0.00    0.0
2026/01/15 13:38:30.000   30.531677564  114.357269880    27.7518   6  18   0.0391   0.0505   0.0728   0.0112   0.0085  -0.0329   0.00    0.0
2026/01/15 13:39:00.000   30.531677566  114.357269879    27.7522   6  18   0.0391   0.0505   0.0728   0.0112   0.0085  -0.0329   0.00    0.0
2026/01/15 13:40:00.000   30.531677572  114.357269879    27.7523   6  17   0.0390   0.0504   0.0727   0.0112   0.0084  -0.0329   0.00    0.0
2026/01/15 13:40:30.000   30.531677576  114.357269880    27.7529   6  17   0.0390   0.0504   0.0726   0.0112   0.0083  -0.0329   0.00    0.0
2026/01/15 13:41:00.000   30.531677579  114.357269879    27.7537   6  17   0.0390   0.0503   0.0726   0.0112   0.0082  -0.0329   0.00    0.0
2026/01/15 13:41:30.000   30.531677583  114.357269880    27.7543   6  17   0.0389   0.0503   0.0725   0.0112   0.0081  -0.0329   0.00    0.0
2026/01/15 13:42:00.000   30.531677586  114.357269882    27.7550   6  17   0.0389   0.0502   0.0725   0.0112   0.0080  -0.0329   0.00    0.0
2026/01/15 13:42:30.000   30.531677589  114.357269882    27.7558   6  17   0.0388   0.0502   0.0724   0.0112   0.0079  -0.0329   0.00    0.0
2026/01/15 13:43:00.000   30.531677592  114.357269882    27.7566   6  17   0.0388   0.0502   0.0723   0.0112   0.0078  -0.0328   0.00    0.0
2026/01/15 13:43:30.000   30.531677597  114.357269882    27.7569   6  17   0.0388   0.0501   0.0723   0.0112   0.0077  -0.0328   0.00    0.0
2026/01/15 13:44:00.000   30.531677601  114.357269884    27.7574   6  17   0.0387   0.0501   0.0722   0.0112   0.0076  -0.0328   0.00    0.0
2026/01/15 13:44:30.000   30.531677605  114.357269886    27.7580   6  17   0.0387   0.0500   0.0721   0.0112   0.0075  -0.0328   0.00    0.0
2026/01/15 13:45:00.000   30.531677611  114.357269887    27.7585   6  18   0.0386   0.0499   0.0720   0.0112   0.0073  -0.0328   0.00    0.0
2026/01/15 13:45:30.000   30.531677616  114.357269888    27.7590   6  18   0.0386   0.0499   0.0720   0.0112   0.0072  -0.0328   0.00    0.0
2026/01/15 13:46:00.000   30.531677620  114.357269887    27.7597   6  18   0.0385   0.0498   0.0719   0.0112   0.0070  -0.0328   0.00    0.0
2026/01/15 13:46:30.000   30.531677625  114.357269890    27.7604   6  18   0.0385   0.0498   0.0718   0.0112   0.0069  -0.0328   0.00    0.0
2026/01/15 13:47:00.000   30.531677630  114.357269892    27.7611   6  18   0.0385   0.0497   0.0717   0.0112   0.0067  -0.0327   0.00    0.0
2026/01/15 13:47:30.000   30.531677635  114.357269894    27.7619   6  18   0.0384   0.0497   0.0717   0.0112   0.0066  -0.0327   0.00    0.0
2026/01/15 13:48:00.000   30.531677640  114.357269896    27.7626   6  18   0.0384   0.0496   0.0716   0.0112   0.0064  -0.0327   0.00    0.0
2026/01/15 13:48:30.000   30.531677645  114.357269896    27.7633   6  18   0.0383   0.0496   0.0715   0.0112   0.0062  -0.0327   0.00    0.0
2026/01/15 13:49:00.000   30.531677650  114.357269897    27.7640   6  18   0.0383   0.0495   0.0714   0.0112   0.0060  -0.0327   0.00    0.0
2026/01/15 13:49:30.000   30.531677655  114.357269897    27.7648   6  18   0.0382   0.0494   0.0713   0.0113   0.0058  -0.0327   0.00    0.0
2026/01/15 13:50:00.000   30.531677661  114.357269900    27.7657   6  18   0.0381   0.0494   0.0712   0.0113   0.0056  -0.0327   0.00    0.0
2026/01/15 13:50:30.000   30.531677667  114.357269902    27.7665   6  18   0.0381   0.0493   0.0711   0.0113   0.0054  -0.0326   0.00    0.0
2026/01/15 13:51:00.000   30.531677673  114.357269903    27.7671   6  18   0.0380   0.0493   0.0711   0.0113   0.0051  -0.0326   0.00    0.0
2026/01/15 13:51:30.000   30.531677679  114.357269906    27.7677   6  18   0.0380   0.0492   0.0710   0.0113   0.0048  -0.0326   0.00    0.0
2026/01/15 13:52:00.000   30.531677686  114.357269907    27.7683   6  16   0.0379   0.0491   0.0709   0.0113   0.0047  -0.0326   0.00    0.0
2026/01/15 13:52:30.000   30.531677692  114.357269911    27.7690   6  16   0.0379   0.0491   0.0708   0.0113   0.0045  -0.0326   0.00    0.0
2026/01/15 13:53:00.000   30.531677698  114.357269915    27.7697   6  16   0.0378   0.0490   0.0707   0.0114   0.0042  -0.0326   0.00    0.0
2026/01/15 13:53:30.000   30.531677704  114.357269918    27.7704   6  16   0.0378   0.0490   0.0707   0.0114   0.0040  -0.0325   0.00    0.0
2026/01/15 13:54:00.000   30.531677711  114.357269918    27.7711   6  16   0.0377   0.0489   0.0706   0.0114   0.0038  -0.0325   0.00    0.0
2026/01/15 13:54:30.000   30.531677717  114.357269919    27.7718   6  16   0.0376   0.0488   0.0705   0.0114   0.0035  -0.0325   0.00    0.0
2026/01/15 13:55:00.000   30.531677725  114.357269921    27.7726   6  16   0.0376   0.0488   0.0704   0.0114   0.0032  -0.0325   0.00    0.0
2026/01/15 13:55:30.000   30.531677731  114.357269922    27.7733   6  16   0.0375   0.0487   0.0703   0.0115   0.0028  -0.0325   0.00    0.0
2026/01/15 13:56:00.000   30.531677738  114.357269924    27.7741   6  16   0.0375   0.0487   0.0702   0.0115   0.0024  -0.0324   0.00    0.0
2026/01/15 13:56:30.000   30.531677746  114.357269927    27.7747   6  16   0.0374   0.0486   0.0701   0.0115   0.0018  -0.0324   0.00    0.0
2026/01/15 13:57:00.000   30.531677754  114.357269929    27.7754   6  16   0.0373   0.0485   0.0701   0.0115   0.0011  -0.0324   0.00    0.0
2026/01/15 13:57:30.000   30.531677763  114.357269929    27.7758   6  16   0.0373   0.0485   0.0700   0.0115  -0.0011  -0.0324   0.00    0.0
2026/01/15 13:58:00.000   30.531677771  114.357269932    27.7763   6  16   0.0372   0.0484   0.0699   0.0116  -0.0019  -0.0324   0.00    0.0
2026/01/15 13:58:30.000   30.531677779  114.357269934    27.7770   6  16   0.0371   0.0483   0.0698   0.0116  -0.0025  -0.0323   0.00    0.0
2026/01/15 13:59:00.000   30.531677786  114.357269936    27.7775   6  16   0.0371   0.0483   0.0697   0.0116  -0.0029  -0.0323   0.00    0.0
2026/01/15 13:59:30.000   30.531677793  114.357269935    27.7781   6  16   0.0370   0.0482   0.0696   0.0116  -0.0033  -0.0323   0.00    0.0
2026/01/15 14:00:00.000   30.531677801  114.357269932    27.7788   6  16   0.0369   0.0481   0.0695   0.0117  -0.0037  -0.0323   0.00    0.0
2026/01/15 14:00:30.000   30.531677807  114.357269932    27.7798   6  18   0.0369   0.0480   0.0694   0.0117  -0.0040  -0.0323   0.00    0.0
2026/01/15 14:01:00.000   30.531677815  114.357269934    27.7807   6  18   0.0368   0.0480   0.0693   0.0117  -0.0044  -0.0322   0.00    0.0
2026/01/15 14:01:30.000   30.531677823  114.357269933    27.7815   6  18   0.0367   0.0479   0.0692   0.0117  -0.0047  -0.0322   0.00    0.0
2026/01/15 14:02:00.000   30.531677830  114.357269932    27.7822   6  18   0.0367   0.0478   0.0691   0.0118  -0.0049  -0.0322   0.00    0.0
2026/01/15 14:02:30.000   30.531677839  114.357269936    27.7830   6  18   0.0366   0.0478   0.0690   0.0118  -0.0052  -0.0322   0.00    0.0
2026/01/15 14:03:00.000   30.531677847  114.357269936    27.7836   6  18   0.0365   0.0477   0.0689   0.0118  -0.0055  -0.0321   0.00    0.0
2026/01/15 14:03:30.000   30.531677856  114.357269938    27.7841   6  18   0.0364   0.0476   0.0688   0.0119  -0.0057  -0.0321   0.00    0.0
2026/01/15 14:04:00.000   30.531677864  114.357269939    27.7849   6  18   0.0364   0.0475   0.0687   0.0119  -0.0060  -0.0321   0.00    0.0
2026/01/15 14:04:30.000   30.531677871  114.357269940    27.7857   6  18   0.0363   0.0475   0.0686   0.0119  -0.0062  -0.0321   0.00    0.0
2026/01/15 14:05:00.000   30.531677879  114.357269938    27.7864   6  18   0.0362   0.0474   0.0685   0.0119  -0.0065  -0.0321   0.00    0.0
2026/01/15 14:05:30.000   30.531677885  114.357269940    27.7874   6  18   0.0362   0.0473   0.0683   0.0120  -0.0067  -0.0320   0.00    0.0
2026/01/15 14:06:00.000   30.531677891  114.357269941    27.7885   6  18   0.0361   0.0472   0.0682   0.0120  -0.0069  -0.0320   0.00    0.0
2026/01/15 14:06:30.000   30.531677899  114.357269942    27.7896   6  18   0.0360   0.0472   0.0681   0.0120  -0.0072  -0.0320   0.00    0.0
2026/01/15 14:07:00.000   30.531677906  114.357269944    27.7906   6  18   0.0359   0.0471   0.0680   0.0121  -0.0074  -0.0320   0.00    0.0
2026/01/15 14:07:30.000   30.531677915  114.357269947    27.7915   6  17   0.0359   0.0470   0.0679   0.0121  -0.0076  -0.0319   0.00    0.0
2026/01/15 14:08:00.000   30.531677924  114.357269951    27.7924   6  17   0.0358   0.0469   0.0678   0.0121  -0.0078  -0.0319   0.00    0.0
2026/01/15 14:08:30.000   30.531677932  114.357269951    27.7931   6  17   0.0357   0.0468   0.0676   0.0121  -0.0080  -0.0319   0.00    0.0
2026/01/15 14:09:00.000   30.531677940  114.357269955    27.7943   6  17   0.0356   0.0468   0.0676   0.0121  -0.0081  -0.0319   0.00    0.0
2026/01/15 14:09:30.000   30.531677947  114.357269957    27.7953   6  17   0.0356   0.0467   0.0675   0.0121  -0.0082  -0.0319   0.00    0.0
2026/01/15 14:10:00.000   30.531677952  114.357269959    27.7967   6  17   0.0355   0.0466   0.0674   0.0121  -0.0083  -0.0319   0.00    0.0
2026/01/15 14:10:30.000   30.531677959  114.357269960    27.7981   6  16   0.0354   0.0466   0.0673   0.0121  -0.0084  -0.0319   0.00    0.0
2026/01/15 14:11:00.000   30.531677965  114.357269961    27.7994   6  16   0.0354   0.0465   0.0672   0.0121  -0.0085  -0.0319   0.00    0.0
2026/01/15 14:11:30.000   30.531677972  114.357269963    27.8006   6  16   0.0353   0.0464   0.0671   0.0121  -0.0086  -0.0319   0.00    0.0
2026/01/15 14:12:00.000   30.531677978  114.357269964    27.8020   6  16   0.0352   0.0463   0.0670   0.0121  -0.0087  -0.0319   0.00    0.0
2026/01/15 14:12:30.000   30.531677984  114.357269966    27.8033   6  15   0.0352   0.0463   0.0669   0.0121  -0.0088  -0.0319   0.00    0.0
2026/01/15 14:13:00.000   30.531677991  114.357269969    27.8046   6  16   0.0351   0.0462   0.0668   0.0121  -0.0090  -0.0318   0.00    0.0
2026/01/15 14:13:30.000   30.531677996  114.357269976    27.8056   6  14   0.0350   0.0461   0.0667   0.0120  -0.0091  -0.0318   0.00    0.0
2026/01/15 14:14:00.000   30.531678004  114.357269979    27.8071   6  16   0.0350   0.0461   0.0666   0.0120  -0.0092  -0.0318   0.00    0.0
2026/01/15 14:14:30.000   30.531678011  114.357269981    27.8086   6  16   0.0349   0.0460   0.0665   0.0120  -0.0093  -0.0318   0.00    0.0
2026/01/15 14:15:00.000   30.531678019  114.357269983    27.8099   6  16   0.0348   0.0459   0.0664   0.0120  -0.0094  -0.0318   0.00    0.0
2026/01/15 14:15:30.000   30.531678027  114.357269986    27.8111   6  16   0.0348   0.0458   0.0663   0.0120  -0.0095  -0.0318   0.00    0.0
2026/01/15 14:16:00.000   30.531678035  114.357269989    27.8123   6  16   0.0347   0.0457   0.0662   0.0120  -0.0096  -0.0318   0.00    0.0
2026/01/15 14:16:30.000   30.531678043  114.357269990    27.8135   6  16   0.0346   0.0457   0.0661   0.0120  -0.0097  -0.0318   0.00    0.0
2026/01/15 14:17:00.000   30.531678052  114.357269992    27.8150   6  16   0.0345   0.0456   0.0659   0.0120  -0.0098  -0.0318   0.00    0.0
2026/01/15 14:17:30.000   30.531678059  114.357269995    27.8165   6  16   0.0345   0.0455   0.0658   0.0120  -0.0099  -0.0318   0.00    0.0
2026/01/15 14:18:00.000   30.531678066  114.357269999    27.8181   6  16   0.0344   0.0454   0.0657   0.0120  -0.0100  -0.0318   0.00    0.0
2026/01/15 14:18:30.000   30.531678074  114.357270003    27.8197   6  16   0.0343   0.0454   0.0656   0.0120  -0.0101  -0.0318   0.00    0.0
2026/01/15 14:19:00.000   30.531678081  114.357270004    27.8212   6  16   0.0343   0.0453   0.0655   0.0120  -0.0101  -0.0318   0.00    0.0
2026/01/15 14:19:30.000   30.531678087  114.357270005    27.8227   6  16   0.0342   0.0452   0.0654   0.0120  -0.0102  -0.0318   0.00    0.0
2026/01/15 14:20:00.000   30.531678095  114.357270008    27.8240   6  16   0.0341   0.0451   0.0652   0.0120  -0.0103  -0.0317   0.00    0.0
2026/01/15 14:20:30.000   30.531678102  114.357270011    27.8254   6  16   0.0340   0.0450   0.0651   0.0120  -0.0104  -0.0317   0.00    0.0
2026/01/15 14:21:00.000   30.531678110  114.357270011    27.8268   6  16   0.0340   0.0449   0.0650   0.0120  -0.0105  -0.0317   0.00    0.0
2026/01/15 14:21:30.000   30.531678117  114.357270012    27.8280   6  16   0.0339   0.0449   0.0649   0.0120  -0.0106  -0.0317   0.00    0.0
2026/01/15 14:22:00.000   30.531678125  114.357270013    27.8292   6  16   0.0338   0.0448   0.0647   0.0120  -0.0107  -0.0317   0.00    0.0
2026/01/15 14:22:30.000   30.531678132  114.357270013    27.8305   6  16   0.0337   0.0447   0.0646   0.0120  -0.0108  -0.0317   0.00    0.0
2026/01/15 14:23:00.000   30.531678139  114.357270012    27.8316   6  16   0.0336   0.0446   0.0645   0.0120  -0.0109  -0.0317   0.00    0.0
2026/01/15 14:23:30.000   30.531678147  114.357270010    27.8328   6  16   0.0336   0.0445   0.0644   0.0120  -0.0110  -0.0317   0.00    0.0
2026/01/15 14:24:00.000   30.531678154  114.357270010    27.8337   6  16   0.0335   0.0445   0.0642   0.0120  -0.0111  -0.0316   0.00    0.0
2026/01/15 14:24:30.000   30.531678161  114.357270011    27.8350   6  16   0.0334   0.0444   0.0641   0.0120  -0.0112  -0.0316   0.00    0.0
2026/01/15 14:25:00.000   30.531678167  114.357270012    27.8363   6  16   0.0333   0.0443   0.0640   0.0120  -0.0113  -0.0316   0.00    0.0
2026/01/15 14:25:30.000   30.531678174  114.357270014    27.8374   6  16   0.0333   0.0442   0.0638   0.0120  -0.0114  -0.0316   0.00    0.0
2026/01/15 14:26:00.000   30.531678181  114.357270015    27.8386   6  16   0.0332   0.0441   0.0637   0.0120  -0.0115  -0.0316   0.00    0.0
2026/01/15 14:26:30.000   30.531678188  114.357270015    27.8399   6  16   0.0331   0.0440   0.0635   0.0120  -0.0116  -0.0316   0.00    0.0
2026/01/15 14:27:00.000   30.531678195  114.357270015    27.8412   6  16   0.0330   0.0439   0.0634   0.0121  -0.0117  -0.0315   0.00    0.0
2026/01/15 14:27:30.000   30.531678201  114.357270015    27.8425   6  16   0.0330   0.0439   0.0633   0.0121  -0.0118  -0.0315   0.00    0.0
2026/01/15 14:28:00.000   30.531678207  114.357270017    27.8438   6  16   0.0329   0.0438   0.0631   0.0121  -0.0119  -0.0315   0.00    0.0
2026/01/15 14:28:30.000   30.531678214  114.357270017    27.8451   6  16   0.0328   0.0437   0.0630   0.0121  -0.0120  -0.0315   0.00    0.0
2026/01/15 14:29:00.000   30.531678219  114.357270015    27.8463   6  16   0.0327   0.0436   0.0628   0.0121  -0.0120  -0.0314   0.00    0.0
2026/01/15 14:29:30.000   30.531678224  114.357270013    27.8476   6  16   0.0326   0.0435   0.0627   0.0121  -0.0121  -0.0314   0.00    0.0
2026/01/15 14:30:00.000   30.531678230  114.357270013    27.8488   6  16   0.0326   0.0434   0.0625   0.0121  -0.0122  -0.0314   0.00    0.0
2026/01/15 14:30:30.000   30.531678236  114.357270013    27.8502   6  16   0.0325   0.0433   0.0624   0.0121  -0.0123  -0.0314   0.00    0.0
2026/01/15 14:31:00.000   30.531678239  114.357270013    27.8511   6  15   0.0324   0.0433   0.0622   0.0120  -0.0124  -0.0313   0.00    0.0
2026/01/15 14:31:30.000   30.531678244  114.357270012    27.8524   6  16   0.0323   0.0432   0.0621   0.0120  -0.0125  -0.0313   0.00    0.0
2026/01/15 14:32:00.000   30.531678249  114.357270010    27.8537   6  16   0.0323   0.0431   0.0619   0.0121  -0.0126  -0.0313   0.00    0.0
2026/01/15 14:32:30.000   30.531678253  114.357270008    27.8549   6  16   0.0322   0.0430   0.0618   0.0121  -0.0127  -0.0312   0.00    0.0
2026/01/15 14:33:00.000   30.531678259  114.357270006    27.8559   6  16   0.0321   0.0429   0.0616   0.0121  -0.0127  -0.0312   0.00    0.0
2026/01/15 14:33:30.000   30.531678263  114.357270004    27.8572   6  16   0.0320   0.0428   0.0615   0.0121  -0.0128  -0.0312   0.00    0.0
2026/01/15 14:34:00.000   30.531678268  114.357270002    27.8583   6  15   0.0319   0.0427   0.0613   0.0121  -0.0128  -0.0312   0.00    0.0
2026/01/15 14:34:30.000   30.531678274  114.357270001    27.8595   6  14   0.0319   0.0427   0.0612   0.0121  -0.0129  -0.0311   0.00    0.0
2026/01/15 14:35:00.000   30.531678279  114.357269999    27.8606   6  14   0.0318   0.0426   0.0611   0.0121  -0.0129  -0.0311   0.00    0.0
2026/01/15 14:35:30.000   30.531678284  114.357269996    27.8618   6  15   0.0317   0.0425   0.0610   0.0121  -0.0129  -0.0311   0.00    0.0
2026/01/15 14:36:00.000   30.531678289  114.357269992    27.8629   6  15   0.0316   0.0424   0.0608   0.0121  -0.0129  -0.0310   0.00    0.0
2026/01/15 14:36:30.000   30.531678294  114.357269989    27.8639   6  15   0.0315   0.0424   0.0607   0.0121  -0.0129  -0.0310   0.00    0.0
2026/01/15 14:37:00.000   30.531678295  114.357269989    27.8641   6   6   0.0315   0.0423   0.0607   0.0121  -0.0129  -0.0310   0.00    0.0
2026/01/15 14:38:00.000   30.531678299  114.357269986    27.8646   6  14   0.0314   0.0423   0.0605   0.0121  -0.0130  -0.0309   0.00    0.0
2026/01/15 14:38:30.000   30.531678304  114.357269982    27.8657   6  16   0.0313   0.0422   0.0604   0.0121  -0.0130  -0.0309   0.00    0.0
2026/01/15 14:39:30.000   30.531678311  114.357269982    27.8666   6  16   0.0313   0.0421   0.0603   0.0121  -0.0130  -0.0309   0.00    0.0
2026/01/15 14:40:00.000   30.531678316  114.357269979    27.8678   6  16   0.0312   0.0420   0.0601   0.0121  -0.0130  -0.0308   0.00    0.0
2026/01/15 14:40:30.000   30.531678318  114.357269980    27.8679   6   7   0.0311   0.0420   0.0601   0.0121  -0.0130  -0.0308   0.00    0.0
2026/01/15 14:41:00.000   30.531678321  114.357269981    27.8681   6   7   0.0311   0.0420   0.0600   0.0120  -0.0130  -0.0308   0.00    0.0
2026/01/15 14:41:30.000   30.531678326  114.357269979    27.8693   6  16   0.0310   0.0419   0.0599   0.0121  -0.0130  -0.0308   0.00    0.0
2026/01/15 14:43:00.000   30.531678328  114.357269981    27.8689   6   6   0.0310   0.0418   0.0598   0.0120  -0.0130  -0.0307   0.00    0.0
2026/01/15 14:43:30.000   30.531678333  114.357269976    27.8700   6  16   0.0309   0.0417   0.0596   0.0120  -0.0131  -0.0307   0.00    0.0
2026/01/15 14:44:00.000   30.531678339  114.357269971    27.8711   6  16   0.0308   0.0417   0.0595   0.0120  -0.0131  -0.0307   0.00    0.0
2026/01/15 14:44:30.000   30.531678344  114.357269968    27.8723   6  16   0.0307   0.0416   0.0593   0.0120  -0.0131  -0.0306   0.00    0.0
2026/01/15 14:45:00.000   30.531678350  114.357269963    27.8734   6  16   0.0306   0.0415   0.0591   0.0121  -0.0131  -0.0306   0.00    0.0
2026/01/15 14:45:30.000   30.531678352  114.357269962    27.8736   6   8   0.0306   0.0415   0.0591   0.0120  -0.0131  -0.0305   0.00    0.0
2026/01/15 14:46:30.000   30.531678358  114.357269958    27.8747   6  17   0.0305   0.0414   0.0589   0.0120  -0.0131  -0.0305   0.00    0.0
2026/01/15 14:48:00.000   30.531678361  114.357269959    27.8752   6  16   0.0304   0.0413   0.0587   0.0120  -0.0132  -0.0304   0.00    0.0
2026/01/15 14:48:30.000   30.531678365  114.357269954    27.8764   6  17   0.0303   0.0412   0.0585   0.0120  -0.0132  -0.0304   0.00    0.0
2026/01/15 14:49:00.000   30.531678370  114.357269947    27.8775   6  17   0.0302   0.0411   0.0583   0.0120  -0.0132  -0.0303   0.00    0.0
2026/01/15 14:49:30.000   30.531678374  114.357269942    27.8785   6  17   0.0301   0.0410   0.0581   0.0120  -0.0132  -0.0303   0.00    0.0
2026/01/15 14:50:00.000   30.531678378  114.357269934    27.8797   6  17   0.0300   0.0409   0.0580   0.0121  -0.0132  -0.0302   0.00    0.0
2026/01/15 14:50:30.000   30.531678380  114.357269927    27.8809   6  17   0.0299   0.0408   0.0578   0.0121  -0.0133  -0.0301   0.00    0.0
2026/01/15 14:51:00.000   30.531678385  114.357269920    27.8820   6  17   0.0298   0.0407   0.0576   0.0121  -0.0133  -0.0301   0.00    0.0
2026/01/15 14:51:30.000   30.531678389  114.357269913    27.8829   6  17   0.0297   0.0406   0.0574   0.0121  -0.0133  -0.0300   0.00    0.0
2026/01/15 14:52:00.000   30.531678393  114.357269905    27.8839   6  17   0.0296   0.0405   0.0572   0.0121  -0.0133  -0.0300   0.00    0.0
2026/01/15 14:52:30.000   30.531678395  114.357269899    27.8852   6  17   0.0295   0.0405   0.0570   0.0121  -0.0133  -0.0299   0.00    0.0
2026/01/15 14:53:00.000   30.531678398  114.357269894    27.8866   6  17   0.0295   0.0404   0.0568   0.0121  -0.0133  -0.0298   0.00    0.0
2026/01/15 14:53:30.000   30.531678400  114.357269890    27.8880   6  17   0.0294   0.0403   0.0566   0.0121  -0.0133  -0.0298   0.00    0.0
2026/01/15 14:54:00.000   30.531678404  114.357269884    27.8892   6  17   0.0293   0.0402   0.0564   0.0121  -0.0133  -0.0297   0.00    0.0
2026/01/15 14:54:30.000   30.531678404  114.357269885    27.8891   6   7   0.0292   0.0402   0.0563   0.0121  -0.0133  -0.0297   0.00    0.0
2026/01/15 14:55:00.000   30.531678406  114.357269879    27.8907   6  17   0.0291   0.0401   0.0561   0.0121  -0.0133  -0.0296   0.00    0.0
2026/01/15 14:55:30.000   30.531678408  114.357269874    27.8924   6  17   0.0290   0.0400   0.0559   0.0121  -0.0133  -0.0296   0.00    0.0
2026/01/15 14:56:00.000   30.531678411  114.357269869    27.8937   6  17   0.0290   0.0399   0.0557   0.0121  -0.0134  -0.0295   0.00    0.0
2026/01/15 14:56:30.000   30.531678412  114.357269867    27.8942   6  12   0.0289   0.0398   0.0556   0.0120  -0.0133  -0.0295   0.00    0.0
2026/01/15 14:57:00.000   30.531678412  114.357269862    27.8957   6  16   0.0288   0.0398   0.0554   0.0120  -0.0133  -0.0294   0.00    0.0
2026/01/15 14:57:30.000   30.531678414  114.357269859    27.8975   6  15   0.0288   0.0397   0.0553   0.0120  -0.0132  -0.0294   0.00    0.0
2026/01/15 14:58:00.000   30.531678415  114.357269856    27.8992   6  15   0.0287   0.0396   0.0551   0.0120  -0.0131  -0.0293   0.00    0.0
2026/01/15 14:58:30.000   30.531678417  114.357269854    27.9010   6  15   0.0286   0.0395   0.0549   0.0120  -0.0131  -0.0293   0.00    0.0
2026/01/15 14:59:00.000   30.531678418  114.357269854    27.9027   6  15   0.0285   0.0395   0.0548   0.0120  -0.0130  -0.0292   0.00    0.0
2026/01/15 14:59:30.000   30.531678420  114.357269851    27.9045   6  15   0.0285   0.0394   0.0546   0.0120  -0.0129  -0.0291   0.00    0.0
2026/01/15 15:00:00.000   30.531678422  114.357269851    27.9062   6  15   0.0284   0.0393   0.0544   0.0119  -0.0129  -0.0291   0.00    0.0
