% program   : RTKLIB ver.EX 2.5.0
% inp file  : C:\Users\tevin\Desktop\GNSS - MASTA\SPRING SEM\4.SAT NAV DATA PROCESSING\TEAM PROJECT\SNDP-PROJECT\New_Data\obs\RNXDATA\WUH200CHN_R_20260150000_01D_30S_MO.rnx
% inp file  : C:\Users\tevin\Desktop\GNSS - MASTA\SPRING SEM\4.SAT NAV DATA PROCESSING\TEAM PROJECT\SNDP-PROJECT\Old_data\products\nav\BRDC00IGS_R_20260150000_01D_MN.rnx
% inp file  : C:\Users\tevin\Desktop\GNSS - MASTA\SPRING SEM\4.SAT NAV DATA PROCESSING\TEAM PROJECT\SNDP-PROJECT\Old_data\products\sp3\COD0MGXFIN_20260150000_01D_05M_ORB.SP3
% inp file  : C:\Users\tevin\Desktop\GNSS - MASTA\SPRING SEM\4.SAT NAV DATA PROCESSING\TEAM PROJECT\SNDP-PROJECT\Old_data\products\clk\COD0MGXFIN_20260150000_01D_30S_CLK.CLK
% obs start : 2026/01/15 00:00:00.0 GPST (week2401 345600.0s)
% obs end   : 2026/01/15 23:59:30.0 GPST (week2401 431970.0s)
% pos mode  : PPP Static
% freqs     : L1+L2/E5b
% solution  : Forward
% elev mask : 15.0 deg
% dynamics  : on
% tidecorr  :
% ionos opt : Iono-Free LC
% tropo opt : Saastamoinen
% ephemeris : Precise
% navi sys  : GPS Galileo BDS
% antenna1  : JAVRINGANT_G5T  NONE  ( 0.0000  0.0000  0.1206)
%
% (lat/lon/height=WGS84/ellipsoidal,Q=1:fix,2:float,3:sbas,4:dgps,5:single,6:ppp,ns=# of satellites)
%  GPST                  latitude(deg) longitude(deg)  height(m)   Q  ns   sdn(m)   sde(m)   sdu(m)  sdne(m)  sdeu(m)  sdun(m) age(s)  ratio
2026/01/15 00:00:00.000   30.531660432  114.357258113    25.2808   6  10   2.6580   3.1518   7.4316   0.3163   1.9961  -2.5096   0.00    0.0
2026/01/15 00:00:30.000   30.531664687  114.357257905    25.3693   6  13   1.8795   2.2346   5.2696   0.2199   1.4193  -1.7775   0.00    0.0
2026/01/15 00:01:00.000   30.531664593  114.357259836    26.1492   6  13   1.5335   1.8263   4.2906   0.1862   1.1589  -1.4471   0.00    0.0
2026/01/15 00:01:30.000   30.531666003  114.357260739    26.5253   6  13   1.3260   1.5820   3.6944   0.1684   1.0002  -1.2473   0.00    0.0
2026/01/15 00:02:00.000   30.531666960  114.357262838    26.7612   6  13   1.1836   1.4146   3.2778   0.1580   0.8888  -1.1091   0.00    0.0
2026/01/15 00:02:30.000   30.531666638  114.357263730    26.7309   6  13   1.0777   1.2907   2.9622   0.1517   0.8037  -1.0057   0.00    0.0
2026/01/15 00:03:00.000   30.531666891  114.357264152    26.5052   6  13   0.9948   1.1939   2.7101   0.1478   0.7351  -0.9242   0.00    0.0
2026/01/15 00:03:30.000   30.531667791  114.357265098    26.5006   6  13   0.9274   1.1156   2.5011   0.1455   0.6775  -0.8576   0.00    0.0
2026/01/15 00:04:00.000   30.531668324  114.357265338    26.6040   6  13   0.8711   1.0503   2.3231   0.1442   0.6278  -0.8017   0.00    0.0
2026/01/15 00:04:30.000   30.531668304  114.357265033    26.6711   6  13   0.8230   0.9948   2.1684   0.1435   0.5840  -0.7538   0.00    0.0
2026/01/15 00:05:00.000   30.531669040  114.357264947    26.6614   6  13   0.7812   0.9468   2.0319   0.1433   0.5448  -0.7120   0.00    0.0
2026/01/15 00:05:30.000   30.531669328  114.357265503    26.6607   6  13   0.7444   0.9047   1.9100   0.1433   0.5092  -0.6752   0.00    0.0
2026/01/15 00:06:00.000   30.531669633  114.357265791    26.6928   6  13   0.7115   0.8673   1.8002   0.1435   0.4767  -0.6425   0.00    0.0
2026/01/15 00:06:30.000   30.531669583  114.357265618    26.6195   6  13   0.6819   0.8338   1.7005   0.1439   0.4467  -0.6130   0.00    0.0
2026/01/15 00:07:00.000   30.531669525  114.357265126    26.6268   6  13   0.6550   0.8035   1.6096   0.1442   0.4189  -0.5862   0.00    0.0
2026/01/15 00:07:30.000   30.531669586  114.357264598    26.7774   6  13   0.6304   0.7759   1.5262   0.1446   0.3930  -0.5619   0.00    0.0
2026/01/15 00:08:00.000   30.531669582  114.357264806    26.8855   6  13   0.6073   0.7496   1.4473   0.1419   0.3646  -0.5412   0.00    0.0
2026/01/15 00:08:30.000   30.531669378  114.357264760    26.9731   6  13   0.5860   0.7255   1.3750   0.1398   0.3386  -0.5219   0.00    0.0
2026/01/15 00:09:00.000   30.531669487  114.357265045    26.9695   6  13   0.5661   0.7033   1.3085   0.1383   0.3146  -0.5038   0.00    0.0
2026/01/15 00:09:30.000   30.531669453  114.357265627    27.0731   6  15   0.5471   0.6809   1.2449   0.1417   0.2821  -0.4829   0.00    0.0
2026/01/15 00:10:00.000   30.531669460  114.357265664    27.1424   6  15   0.5292   0.6603   1.1849   0.1445   0.2540  -0.4649   0.00    0.0
2026/01/15 00:10:30.000   30.531669529  114.357265594    27.1333   6  14   0.5130   0.6427   1.1326   0.1429   0.2359  -0.4504   0.00    0.0
2026/01/15 00:11:00.000   30.531669767  114.357265650    27.1292   6  14   0.4977   0.6262   1.0837   0.1415   0.2187  -0.4367   0.00    0.0
2026/01/15 00:11:30.000   30.531669930  114.357266066    27.1584   6  14   0.4833   0.6106   1.0380   0.1403   0.2024  -0.4237   0.00    0.0
2026/01/15 00:12:00.000   30.531670051  114.357266377    27.1449   6  14   0.4695   0.5959   0.9952   0.1393   0.1870  -0.4112   0.00    0.0
2026/01/15 00:12:30.000   30.531670215  114.357266561    27.1933   6  14   0.4565   0.5820   0.9549   0.1384   0.1722  -0.3993   0.00    0.0
2026/01/15 00:13:00.000   30.531670452  114.357266378    27.2403   6  15   0.4440   0.5683   0.9167   0.1366   0.1559  -0.3884   0.00    0.0
2026/01/15 00:13:30.000   30.531670805  114.357266576    27.2424   6  15   0.4321   0.5553   0.8807   0.1351   0.1404  -0.3778   0.00    0.0
2026/01/15 00:14:00.000   30.531670994  114.357266560    27.2831   6  15   0.4207   0.5429   0.8469   0.1337   0.1255  -0.3676   0.00    0.0
2026/01/15 00:14:30.000   30.531671118  114.357266458    27.3005   6  15   0.4097   0.5311   0.8150   0.1325   0.1109  -0.3579   0.00    0.0
2026/01/15 00:15:00.000   30.531671274  114.357266323    27.3157   6  15   0.3993   0.5199   0.7849   0.1313   0.0966  -0.3484   0.00    0.0
2026/01/15 00:15:30.000   30.531671524  114.357266557    27.3291   6  16   0.3890   0.5084   0.7556   0.1317   0.0758  -0.3386   0.00    0.0
2026/01/15 00:16:00.000   30.531671640  114.357266675    27.3733   6  16   0.3792   0.4974   0.7280   0.1318   0.0526  -0.3292   0.00    0.0
2026/01/15 00:16:30.000   30.531671904  114.357266625    27.3664   6  16   0.3698   0.4869   0.7020   0.1317   0.0157  -0.3203   0.00    0.0
2026/01/15 00:17:00.000   30.531672122  114.357266603    27.3634   6  15   0.3610   0.4775   0.6781   0.1304  -0.0340  -0.3124   0.00    0.0
2026/01/15 00:17:30.000   30.531672188  114.357266604    27.3758   6  15   0.3525   0.4684   0.6554   0.1291  -0.0486  -0.3047   0.00    0.0
2026/01/15 00:18:00.000   30.531672322  114.357266802    27.3802   6  16   0.3441   0.4591   0.6333   0.1288  -0.0630  -0.2968   0.00    0.0
2026/01/15 00:18:30.000   30.531672512  114.357267018    27.3853   6  16   0.3361   0.4501   0.6124   0.1284  -0.0727  -0.2893   0.00    0.0
2026/01/15 00:19:00.000   30.531672659  114.357267030    27.3921   6  16   0.3284   0.4415   0.5926   0.1278  -0.0799  -0.2821   0.00    0.0
2026/01/15 00:19:30.000   30.531672818  114.357267219    27.3958   6  15   0.3211   0.4336   0.5741   0.1265  -0.0830  -0.2755   0.00    0.0
2026/01/15 00:20:00.000   30.531672984  114.357267515    27.4015   6  16   0.3139   0.4256   0.5562   0.1259  -0.0876  -0.2688   0.00    0.0
2026/01/15 00:20:30.000   30.531673115  114.357267655    27.4217   6  16   0.3069   0.4178   0.5391   0.1251  -0.0911  -0.2624   0.00    0.0
2026/01/15 00:21:00.000   30.531673173  114.357267737    27.4341   6  16   0.3002   0.4103   0.5229   0.1243  -0.0939  -0.2563   0.00    0.0
2026/01/15 00:21:30.000   30.531673250  114.357267769    27.4439   6  16   0.2938   0.4030   0.5074   0.1235  -0.0960  -0.2504   0.00    0.0
2026/01/15 00:22:00.000   30.531673416  114.357267880    27.4318   6  16   0.2875   0.3959   0.4927   0.1226  -0.0976  -0.2447   0.00    0.0
2026/01/15 00:22:30.000   30.531673459  114.357267908    27.4225   6   8   0.2835   0.3898   0.4826   0.1206  -0.0953  -0.2412   0.00    0.0
2026/01/15 00:23:00.000   30.531673494  114.357267939    27.4144   6   8   0.2796   0.3838   0.4729   0.1188  -0.0929  -0.2377   0.00    0.0
2026/01/15 00:23:30.000   30.531673593  114.357267948    27.4169   6  16   0.2735   0.3772   0.4590   0.1180  -0.0945  -0.2322   0.00    0.0
2026/01/15 00:24:00.000   30.531673697  114.357268071    27.4198   6  16   0.2677   0.3708   0.4458   0.1172  -0.0957  -0.2268   0.00    0.0
2026/01/15 00:24:30.000   30.531673702  114.357267992    27.4196   6   9   0.2641   0.3653   0.4372   0.1154  -0.0934  -0.2238   0.00    0.0
2026/01/15 00:25:00.000   30.531673780  114.357268021    27.4275   6  16   0.2585   0.3591   0.4248   0.1146  -0.0944  -0.2186   0.00    0.0
2026/01/15 00:25:30.000   30.531673855  114.357267961    27.4168   6  13   0.2539   0.3536   0.4138   0.1141  -0.0940  -0.2132   0.00    0.0
2026/01/15 00:26:00.000   30.531673853  114.357267881    27.4115   6   9   0.2506   0.3484   0.4061   0.1126  -0.0923  -0.2104   0.00    0.0
2026/01/15 00:26:30.000   30.531673935  114.357267858    27.3977   6   9   0.2474   0.3433   0.4005   0.1112  -0.0893  -0.2076   0.00    0.0
2026/01/15 00:27:00.000   30.531674020  114.357267807    27.3946   6   9   0.2442   0.3384   0.3949   0.1098  -0.0863  -0.2048   0.00    0.0
2026/01/15 00:27:30.000   30.531674174  114.357267786    27.3848   6   9   0.2411   0.3335   0.3895   0.1085  -0.0834  -0.2021   0.00    0.0
2026/01/15 00:28:00.000   30.531674277  114.357267785    27.3858   6  14   0.2366   0.3283   0.3805   0.1081  -0.0820  -0.1963   0.00    0.0
2026/01/15 00:28:30.000   30.531674370  114.357267826    27.3918   6   8   0.2337   0.3237   0.3753   0.1068  -0.0792  -0.1938   0.00    0.0
2026/01/15 00:29:00.000   30.531674396  114.357267781    27.3980   6   8   0.2307   0.3192   0.3702   0.1054  -0.0764  -0.1914   0.00    0.0
2026/01/15 00:29:30.000   30.531674437  114.357267774    27.4069   6   8   0.2279   0.3147   0.3651   0.1041  -0.0737  -0.1889   0.00    0.0
2026/01/15 00:30:00.000   30.531674481  114.357267754    27.4167   6   8   0.2251   0.3104   0.3601   0.1028  -0.0709  -0.1866   0.00    0.0
2026/01/15 00:30:30.000   30.531674570  114.357267688    27.4210   6   8   0.2223   0.3062   0.3551   0.1015  -0.0683  -0.1842   0.00    0.0
2026/01/15 00:31:00.000   30.531674599  114.357267703    27.4292   6   8   0.2195   0.3020   0.3502   0.1002  -0.0656  -0.1819   0.00    0.0
2026/01/15 00:31:30.000   30.531674624  114.357267689    27.4349   6   8   0.2168   0.2979   0.3453   0.0989  -0.0630  -0.1797   0.00    0.0
2026/01/15 00:32:00.000   30.531674677  114.357267769    27.4355   6   8   0.2141   0.2939   0.3406   0.0976  -0.0604  -0.1774   0.00    0.0
2026/01/15 00:32:30.000   30.531674705  114.357267793    27.4385   6   8   0.2115   0.2899   0.3358   0.0964  -0.0579  -0.1752   0.00    0.0
2026/01/15 00:33:30.000   30.531674782  114.357267810    27.4312   6   8   0.2080   0.2844   0.3303   0.0945  -0.0547  -0.1722   0.00    0.0
2026/01/15 00:34:30.000   30.531674799  114.357267707    27.4192   6   7   0.2056   0.2790   0.3246   0.0932  -0.0512  -0.1690   0.00    0.0
2026/01/15 01:00:30.000   30.531675030  114.357268082    27.2345   6  13   0.1727   0.2272   0.2968   0.0745  -0.0453  -0.1415   0.00    0.0
2026/01/15 01:01:00.000   30.531675016  114.357268082    27.2324   6  13   0.1722   0.2264   0.2964   0.0742  -0.0450  -0.1411   0.00    0.0
2026/01/15 01:01:30.000   30.531675033  114.357268110    27.2239   6   6   0.1717   0.2257   0.2961   0.0739  -0.0448  -0.1408   0.00    0.0
2026/01/15 01:02:00.000   30.531675058  114.357268126    27.2159   6  14   0.1712   0.2250   0.2957   0.0735  -0.0445  -0.1404   0.00    0.0
2026/01/15 01:02:30.000   30.531675019  114.357268167    27.2137   6  14   0.1707   0.2243   0.2953   0.0732  -0.0443  -0.1400   0.00    0.0
2026/01/15 01:03:00.000   30.531675005  114.357268180    27.2127   6  14   0.1701   0.2235   0.2949   0.0729  -0.0440  -0.1396   0.00    0.0
2026/01/15 01:03:30.000   30.531674994  114.357268204    27.2082   6  14   0.1696   0.2228   0.2945   0.0726  -0.0437  -0.1392   0.00    0.0
2026/01/15 01:04:00.000   30.531674970  114.357268191    27.2057   6  14   0.1691   0.2221   0.2941   0.0723  -0.0434  -0.1388   0.00    0.0
2026/01/15 01:04:30.000   30.531674986  114.357268166    27.2038   6  14   0.1686   0.2214   0.2936   0.0719  -0.0431  -0.1384   0.00    0.0
2026/01/15 01:05:00.000   30.531674979  114.357268164    27.2002   6   4   0.1681   0.2206   0.2933   0.0716  -0.0429  -0.1380   0.00    0.0
2026/01/15 01:05:30.000   30.531675002  114.357268171    27.1958   6  14   0.1676   0.2199   0.2928   0.0713  -0.0425  -0.1376   0.00    0.0
2026/01/15 01:06:00.000   30.531675005  114.357268165    27.1923   6  14   0.1670   0.2192   0.2923   0.0710  -0.0422  -0.1372   0.00    0.0
2026/01/15 01:06:30.000   30.531675026  114.357268173    27.1890   6  14   0.1665   0.2184   0.2918   0.0706  -0.0418  -0.1368   0.00    0.0
2026/01/15 01:07:00.000   30.531675023  114.357268159    27.1879   6  14   0.1659   0.2177   0.2912   0.0703  -0.0414  -0.1363   0.00    0.0
2026/01/15 01:08:00.000   30.531675011  114.357268108    27.1748   6   4   0.1649   0.2163   0.2905   0.0695  -0.0406  -0.1356   0.00    0.0
2026/01/15 01:09:00.000   30.531674977  114.357268076    27.1646   6   7   0.1639   0.2149   0.2897   0.0688  -0.0398  -0.1349   0.00    0.0
2026/01/15 01:09:30.000   30.531675000  114.357268104    27.1619   6  14   0.1632   0.2141   0.2888   0.0684  -0.0394  -0.1343   0.00    0.0
2026/01/15 01:17:30.000   30.531675136  114.357268168    27.0979   6  14   0.1554   0.2036   0.2812   0.0634  -0.0333  -0.1284   0.00    0.0
2026/01/15 01:18:00.000   30.531675199  114.357268248    27.1059   6  14   0.1538   0.2022   0.2785   0.0626  -0.0325  -0.1269   0.00    0.0
2026/01/15 01:28:30.000   30.531675329  114.357268354    27.0070   6   5   0.1468   0.1917   0.2730   0.0574  -0.0232  -0.1223   0.00    0.0
2026/01/15 01:39:00.000   30.531675260  114.357268233    26.9312   6   4   0.1408   0.1826   0.2680   0.0525  -0.0066  -0.1189   0.00    0.0
2026/01/15 02:05:00.000   30.531675633  114.357267431    26.7694   6   5   0.1284   0.1628   0.2552   0.0465   0.0129  -0.1119   0.00    0.0
2026/01/15 02:17:00.000   30.531675664  114.357267194    26.7358   6   5   0.1240   0.1554   0.2504   0.0445   0.0113  -0.1096   0.00    0.0
2026/01/15 02:24:00.000   30.531675523  114.357267071    26.7308   6   7   0.1218   0.1516   0.2482   0.0436   0.0083  -0.1087   0.00    0.0
2026/01/15 02:25:00.000   30.531675505  114.357267032    26.7321   6   5   0.1215   0.1511   0.2478   0.0435   0.0080  -0.1085   0.00    0.0
2026/01/15 02:26:00.000   30.531675464  114.357266990    26.7305   6   7   0.1211   0.1506   0.2475   0.0434   0.0078  -0.1083   0.00    0.0
2026/01/15 02:26:30.000   30.531675458  114.357266967    26.7315   6   9   0.1210   0.1503   0.2473   0.0433   0.0078  -0.1082   0.00    0.0
2026/01/15 02:27:00.000   30.531675427  114.357266929    26.7335   6  14   0.1208   0.1500   0.2471   0.0432   0.0078  -0.1082   0.00    0.0
2026/01/15 02:27:30.000   30.531675422  114.357266927    26.7331   6  14   0.1206   0.1498   0.2469   0.0431   0.0079  -0.1081   0.00    0.0
2026/01/15 02:28:00.000   30.531675416  114.357266915    26.7339   6  14   0.1205   0.1495   0.2467   0.0431   0.0080  -0.1080   0.00    0.0
2026/01/15 02:28:30.000   30.531675422  114.357266896    26.7350   6  14   0.1203   0.1493   0.2466   0.0430   0.0081  -0.1079   0.00    0.0
2026/01/15 02:29:00.000   30.531675415  114.357266886    26.7378   6  14   0.1202   0.1490   0.2464   0.0429   0.0083  -0.1077   0.00    0.0
2026/01/15 02:29:30.000   30.531675404  114.357266869    26.7389   6  14   0.1200   0.1488   0.2462   0.0428   0.0085  -0.1076   0.00    0.0
2026/01/15 02:30:00.000   30.531675383  114.357266857    26.7390   6  14   0.1198   0.1485   0.2459   0.0427   0.0088  -0.1075   0.00    0.0
2026/01/15 02:30:30.000   30.531675377  114.357266827    26.7407   6  14   0.1196   0.1483   0.2457   0.0427   0.0090  -0.1074   0.00    0.0
2026/01/15 02:31:00.000   30.531675363  114.357266810    26.7423   6  14   0.1195   0.1480   0.2455   0.0426   0.0094  -0.1072   0.00    0.0
2026/01/15 02:31:30.000   30.531675349  114.357266801    26.7447   6  14   0.1193   0.1478   0.2452   0.0425   0.0097  -0.1071   0.00    0.0
2026/01/15 02:32:00.000   30.531675319  114.357266783    26.7456   6   8   0.1191   0.1475   0.2450   0.0424   0.0098  -0.1070   0.00    0.0
2026/01/15 02:32:30.000   30.531675303  114.357266771    26.7473   6   8   0.1189   0.1473   0.2447   0.0423   0.0100  -0.1068   0.00    0.0
2026/01/15 02:33:00.000   30.531675284  114.357266751    26.7509   6  15   0.1187   0.1470   0.2444   0.0421   0.0104  -0.1067   0.00    0.0
2026/01/15 02:34:00.000   30.531675257  114.357266722    26.7550   6  14   0.1183   0.1465   0.2438   0.0419   0.0111  -0.1064   0.00    0.0
2026/01/15 02:35:00.000   30.531675245  114.357266682    26.7598   6  14   0.1179   0.1460   0.2431   0.0416   0.0120  -0.1061   0.00    0.0
2026/01/15 02:35:30.000   30.531675237  114.357266662    26.7624   6   8   0.1177   0.1457   0.2428   0.0415   0.0122  -0.1059   0.00    0.0
2026/01/15 02:36:00.000   30.531675221  114.357266633    26.7680   6  15   0.1174   0.1455   0.2422   0.0413   0.0130  -0.1056   0.00    0.0
2026/01/15 02:36:30.000   30.531675225  114.357266612    26.7735   6  15   0.1171   0.1452   0.2416   0.0411   0.0138  -0.1052   0.00    0.0
2026/01/15 02:37:30.000   30.531675189  114.357266534    26.7825   6  14   0.1166   0.1447   0.2407   0.0407   0.0148  -0.1048   0.00    0.0
2026/01/15 02:38:00.000   30.531675170  114.357266489    26.7889   6  15   0.1163   0.1444   0.2400   0.0405   0.0156  -0.1044   0.00    0.0
2026/01/15 02:38:30.000   30.531675163  114.357266452    26.7936   6  15   0.1159   0.1441   0.2392   0.0402   0.0164  -0.1040   0.00    0.0
2026/01/15 02:39:00.000   30.531675146  114.357266430    26.8006   6  15   0.1156   0.1439   0.2385   0.0399   0.0172  -0.1036   0.00    0.0
2026/01/15 02:39:30.000   30.531675145  114.357266429    26.8067   6  15   0.1152   0.1436   0.2377   0.0396   0.0179  -0.1032   0.00    0.0
2026/01/15 02:40:00.000   30.531675131  114.357266393    26.8143   6  15   0.1149   0.1433   0.2368   0.0393   0.0187  -0.1028   0.00    0.0
2026/01/15 02:40:30.000   30.531675122  114.357266360    26.8212   6  15   0.1145   0.1430   0.2360   0.0390   0.0194  -0.1023   0.00    0.0
2026/01/15 02:41:00.000   30.531675118  114.357266352    26.8284   6  15   0.1141   0.1427   0.2351   0.0387   0.0202  -0.1019   0.00    0.0
2026/01/15 02:41:30.000   30.531675116  114.357266356    26.8340   6  15   0.1137   0.1425   0.2342   0.0383   0.0209  -0.1014   0.00    0.0
2026/01/15 02:42:00.000   30.531675106  114.357266336    26.8416   6  15   0.1133   0.1422   0.2333   0.0380   0.0216  -0.1009   0.00    0.0
2026/01/15 02:42:30.000   30.531675091  114.357266328    26.8495   6  14   0.1129   0.1419   0.2324   0.0376   0.0223  -0.1004   0.00    0.0
2026/01/15 02:43:00.000   30.531675073  114.357266301    26.8581   6  14   0.1125   0.1416   0.2314   0.0373   0.0230  -0.0999   0.00    0.0
2026/01/15 02:43:30.000   30.531675070  114.357266295    26.8651   6  14   0.1120   0.1413   0.2304   0.0369   0.0237  -0.0994   0.00    0.0
2026/01/15 02:44:00.000   30.531675053  114.357266275    26.8727   6  14   0.1116   0.1410   0.2293   0.0365   0.0244  -0.0989   0.00    0.0
2026/01/15 02:44:30.000   30.531675049  114.357266250    26.8817   6  15   0.1112   0.1407   0.2283   0.0361   0.0251  -0.0983   0.00    0.0
2026/01/15 02:45:00.000   30.531675045  114.357266231    26.8911   6  15   0.1107   0.1404   0.2272   0.0357   0.0258  -0.0977   0.00    0.0
2026/01/15 02:45:30.000   30.531675033  114.357266203    26.9003   6  15   0.1102   0.1401   0.2261   0.0353   0.0264  -0.0972   0.00    0.0
2026/01/15 02:46:00.000   30.531675024  114.357266184    26.9057   6  15   0.1098   0.1398   0.2249   0.0348   0.0271  -0.0966   0.00    0.0
2026/01/15 02:46:30.000   30.531675012  114.357266165    26.9128   6  15   0.1093   0.1395   0.2238   0.0344   0.0278  -0.0959   0.00    0.0
2026/01/15 02:47:00.000   30.531675019  114.357266166    26.9212   6  15   0.1088   0.1392   0.2226   0.0339   0.0284  -0.0953   0.00    0.0
2026/01/15 02:47:30.000   30.531675019  114.357266151    26.9297   6  15   0.1083   0.1389   0.2213   0.0334   0.0291  -0.0947   0.00    0.0
2026/01/15 02:48:00.000   30.531675009  114.357266128    26.9396   6  15   0.1078   0.1386   0.2201   0.0329   0.0297  -0.0940   0.00    0.0
2026/01/15 02:48:30.000   30.531675015  114.357266112    26.9495   6  15   0.1072   0.1383   0.2188   0.0324   0.0303  -0.0934   0.00    0.0
2026/01/15 02:49:00.000   30.531675016  114.357266099    26.9579   6  15   0.1067   0.1380   0.2175   0.0319   0.0310  -0.0927   0.00    0.0
2026/01/15 02:49:30.000   30.531675012  114.357266080    26.9684   6  15   0.1062   0.1377   0.2162   0.0313   0.0316  -0.0920   0.00    0.0
2026/01/15 02:50:00.000   30.531675004  114.357266055    26.9781   6  15   0.1056   0.1374   0.2148   0.0308   0.0322  -0.0914   0.00    0.0
2026/01/15 02:50:30.000   30.531675009  114.357266053    26.9888   6  15   0.1051   0.1371   0.2134   0.0302   0.0328  -0.0907   0.00    0.0
2026/01/15 02:51:00.000   30.531675015  114.357266032    26.9974   6  15   0.1045   0.1368   0.2121   0.0296   0.0334  -0.0899   0.00    0.0
2026/01/15 02:51:30.000   30.531675017  114.357266006    27.0065   6  15   0.1040   0.1365   0.2106   0.0290   0.0340  -0.0892   0.00    0.0
2026/01/15 02:52:00.000   30.531675022  114.357265970    27.0158   6  15   0.1034   0.1362   0.2092   0.0284   0.0346  -0.0885   0.00    0.0
2026/01/15 02:52:30.000   30.531675039  114.357265963    27.0242   6  15   0.1028   0.1359   0.2077   0.0277   0.0352  -0.0878   0.00    0.0
2026/01/15 02:53:00.000   30.531675061  114.357265943    27.0317   6  15   0.1022   0.1355   0.2063   0.0271   0.0358  -0.0870   0.00    0.0
2026/01/15 02:53:30.000   30.531675070  114.357265936    27.0401   6  16   0.1016   0.1352   0.2048   0.0264   0.0363  -0.0863   0.00    0.0
2026/01/15 02:54:00.000   30.531675075  114.357265908    27.0487   6  16   0.1010   0.1349   0.2032   0.0258   0.0368  -0.0855   0.00    0.0
2026/01/15 02:54:30.000   30.531675077  114.357265893    27.0579   6  16   0.1004   0.1346   0.2017   0.0251   0.0373  -0.0847   0.00    0.0
2026/01/15 02:55:00.000   30.531675082  114.357265891    27.0684   6  16   0.0998   0.1342   0.2001   0.0243   0.0377  -0.0840   0.00    0.0
2026/01/15 02:55:30.000   30.531675087  114.357265892    27.0785   6  15   0.0992   0.1339   0.1987   0.0237   0.0384  -0.0832   0.00    0.0
2026/01/15 02:56:00.000   30.531675094  114.357265876    27.0891   6  15   0.0986   0.1336   0.1972   0.0230   0.0390  -0.0823   0.00    0.0
2026/01/15 02:56:30.000   30.531675104  114.357265859    27.0981   6  15   0.0980   0.1333   0.1957   0.0222   0.0396  -0.0815   0.00    0.0
2026/01/15 02:57:00.000   30.531675109  114.357265826    27.1064   6  15   0.0974   0.1330   0.1942   0.0215   0.0403  -0.0807   0.00    0.0
2026/01/15 02:57:30.000   30.531675112  114.357265816    27.1180   6  15   0.0967   0.1326   0.1927   0.0207   0.0408  -0.0799   0.00    0.0
2026/01/15 02:58:00.000   30.531675124  114.357265797    27.1271   6  15   0.0961   0.1323   0.1912   0.0199   0.0414  -0.0790   0.00    0.0
2026/01/15 02:58:30.000   30.531675130  114.357265785    27.1381   6  15   0.0955   0.1320   0.1896   0.0190   0.0420  -0.0782   0.00    0.0
2026/01/15 02:59:00.000   30.531675131  114.357265801    27.1473   6  15   0.0948   0.1317   0.1881   0.0182   0.0425  -0.0774   0.00    0.0
2026/01/15 02:59:30.000   30.531675145  114.357265793    27.1577   6  15   0.0942   0.1313   0.1865   0.0172   0.0430  -0.0766   0.00    0.0
2026/01/15 03:00:00.000   30.531675156  114.357265783    27.1679   6  15   0.0936   0.1310   0.1850   0.0162   0.0435  -0.0758   0.00    0.0
2026/01/15 03:00:30.000   30.531675170  114.357265784    27.1778   6  15   0.0929   0.1307   0.1835   0.0152   0.0440  -0.0749   0.00    0.0
2026/01/15 03:01:00.000   30.531675186  114.357265776    27.1870   6  15   0.0923   0.1303   0.1819   0.0141   0.0445  -0.0741   0.00    0.0
2026/01/15 03:01:30.000   30.531675197  114.357265749    27.1966   6  15   0.0916   0.1300   0.1804   0.0129   0.0450  -0.0733   0.00    0.0
2026/01/15 03:02:00.000   30.531675211  114.357265731    27.2062   6  15   0.0910   0.1297   0.1788   0.0116   0.0454  -0.0725   0.00    0.0
2026/01/15 03:02:30.000   30.531675226  114.357265709    27.2161   6  15   0.0904   0.1293   0.1773   0.0101   0.0459  -0.0717   0.00    0.0
2026/01/15 03:03:00.000   30.531675250  114.357265700    27.2250   6  15   0.0897   0.1290   0.1757   0.0083   0.0463  -0.0710   0.00    0.0
2026/01/15 03:03:30.000   30.531675278  114.357265694    27.2320   6  15   0.0891   0.1286   0.1742   0.0061   0.0467  -0.0702   0.00    0.0
2026/01/15 03:04:00.000   30.531675303  114.357265692    27.2391   6  15   0.0884   0.1283   0.1726   0.0024   0.0471  -0.0694   0.00    0.0
2026/01/15 03:04:30.000   30.531675326  114.357265676    27.2475   6  15   0.0878   0.1279   0.1711  -0.0051   0.0475  -0.0686   0.00    0.0
2026/01/15 03:05:00.000   30.531675350  114.357265660    27.2565   6  15   0.0871   0.1276   0.1696  -0.0075   0.0478  -0.0679   0.00    0.0
2026/01/15 03:05:30.000   30.531675376  114.357265650    27.2638   6  15   0.0865   0.1272   0.1680  -0.0094   0.0482  -0.0671   0.00    0.0
2026/01/15 03:06:00.000   30.531675397  114.357265660    27.2709   6  15   0.0859   0.1268   0.1665  -0.0109   0.0485  -0.0664   0.00    0.0
2026/01/15 03:06:30.000   30.531675418  114.357265663    27.2779   6  15   0.0852   0.1265   0.1650  -0.0122   0.0488  -0.0657   0.00    0.0
2026/01/15 03:07:00.000   30.531675432  114.357265662    27.2868   6  15   0.0846   0.1261   0.1635  -0.0134   0.0491  -0.0649   0.00    0.0
2026/01/15 03:07:30.000   30.531675449  114.357265677    27.2955   6  15   0.0839   0.1258   0.1620  -0.0144   0.0494  -0.0642   0.00    0.0
2026/01/15 03:08:00.000   30.531675462  114.357265671    27.3045   6  15   0.0833   0.1254   0.1605  -0.0154   0.0497  -0.0635   0.00    0.0
2026/01/15 03:08:30.000   30.531675484  114.357265676    27.3130   6  15   0.0827   0.1250   0.1590  -0.0163   0.0500  -0.0628   0.00    0.0
2026/01/15 03:09:00.000   30.531675509  114.357265660    27.3187   6  15   0.0821   0.1247   0.1578  -0.0172   0.0506  -0.0622   0.00    0.0
2026/01/15 03:09:30.000   30.531675525  114.357265643    27.3256   6  14   0.0814   0.1244   0.1566  -0.0180   0.0511  -0.0615   0.00    0.0
2026/01/15 03:45:00.000   30.531675198  114.357264315    27.3559   6   8   0.0785   0.1155   0.1544  -0.0184   0.0507  -0.0590   0.00    0.0
2026/01/15 03:46:00.000   30.531675172  114.357264254    27.3582   6   5   0.0784   0.1152   0.1543  -0.0185   0.0507  -0.0590   0.00    0.0
2026/01/15 03:47:30.000   30.531675152  114.357264207    27.3603   6  11   0.0782   0.1149   0.1542  -0.0187   0.0508  -0.0588   0.00    0.0
2026/01/15 03:49:00.000   30.531675130  114.357264124    27.3645   6  11   0.0781   0.1146   0.1541  -0.0189   0.0508  -0.0587   0.00    0.0
2026/01/15 03:50:00.000   30.531675111  114.357264084    27.3661   6  11   0.0780   0.1143   0.1540  -0.0190   0.0509  -0.0586   0.00    0.0
2026/01/15 03:51:00.000   30.531675089  114.357264036    27.3670   6  11   0.0779   0.1141   0.1540  -0.0191   0.0509  -0.0586   0.00    0.0
2026/01/15 03:52:00.000   30.531675078  114.357263976    27.3674   6  12   0.0779   0.1139   0.1539  -0.0193   0.0509  -0.0585   0.00    0.0
2026/01/15 03:52:30.000   30.531675065  114.357263953    27.3681   6  12   0.0778   0.1138   0.1539  -0.0194   0.0510  -0.0584   0.00    0.0
2026/01/15 03:53:00.000   30.531675059  114.357263921    27.3684   6  12   0.0778   0.1136   0.1538  -0.0194   0.0510  -0.0584   0.00    0.0
2026/01/15 03:53:30.000   30.531675057  114.357263911    27.3680   6  12   0.0777   0.1135   0.1538  -0.0195   0.0510  -0.0584   0.00    0.0
2026/01/15 03:54:00.000   30.531675053  114.357263886    27.3682   6  13   0.0777   0.1134   0.1537  -0.0196   0.0510  -0.0583   0.00    0.0
2026/01/15 03:54:30.000   30.531675048  114.357263867    27.3674   6  13   0.0776   0.1133   0.1537  -0.0197   0.0511  -0.0583   0.00    0.0
2026/01/15 03:55:00.000   30.531675042  114.357263845    27.3669   6  13   0.0775   0.1132   0.1536  -0.0198   0.0511  -0.0582   0.00    0.0
2026/01/15 03:55:30.000   30.531675039  114.357263821    27.3669   6  13   0.0775   0.1131   0.1536  -0.0199   0.0511  -0.0582   0.00    0.0
2026/01/15 03:56:00.000   30.531675030  114.357263790    27.3681   6  13   0.0774   0.1129   0.1535  -0.0200   0.0512  -0.0581   0.00    0.0
2026/01/15 03:56:30.000   30.531675020  114.357263749    27.3688   6  13   0.0774   0.1128   0.1535  -0.0200   0.0512  -0.0581   0.00    0.0
2026/01/15 03:57:00.000   30.531675011  114.357263714    27.3697   6  13   0.0773   0.1127   0.1534  -0.0201   0.0512  -0.0580   0.00    0.0
2026/01/15 03:57:30.000   30.531675003  114.357263681    27.3698   6  13   0.0773   0.1126   0.1533  -0.0202   0.0513  -0.0580   0.00    0.0
2026/01/15 03:58:00.000   30.531674995  114.357263663    27.3703   6  13   0.0772   0.1125   0.1533  -0.0203   0.0513  -0.0579   0.00    0.0
2026/01/15 03:58:30.000   30.531674983  114.357263624    27.3715   6  13   0.0771   0.1123   0.1532  -0.0205   0.0514  -0.0579   0.00    0.0
2026/01/15 03:59:00.000   30.531674973  114.357263599    27.3730   6  13   0.0771   0.1122   0.1531  -0.0206   0.0514  -0.0578   0.00    0.0
2026/01/15 03:59:30.000   30.531674962  114.357263573    27.3744   6  13   0.0770   0.1121   0.1530  -0.0207   0.0514  -0.0578   0.00    0.0
2026/01/15 04:00:00.000   30.531674959  114.357263546    27.3761   6  13   0.0769   0.1120   0.1530  -0.0208   0.0515  -0.0577   0.00    0.0
2026/01/15 04:00:30.000   30.531674957  114.357263520    27.3766   6  14   0.0768   0.1119   0.1529  -0.0209   0.0515  -0.0577   0.00    0.0
2026/01/15 04:01:00.000   30.531674954  114.357263499    27.3775   6  14   0.0768   0.1117   0.1528  -0.0210   0.0516  -0.0576   0.00    0.0
2026/01/15 04:01:30.000   30.531674950  114.357263483    27.3782   6  14   0.0767   0.1116   0.1527  -0.0211   0.0516  -0.0576   0.00    0.0
2026/01/15 04:02:00.000   30.531674947  114.357263453    27.3789   6  14   0.0766   0.1115   0.1526  -0.0213   0.0517  -0.0575   0.00    0.0
2026/01/15 04:02:30.000   30.531674945  114.357263428    27.3802   6  14   0.0765   0.1113   0.1525  -0.0214   0.0517  -0.0575   0.00    0.0
2026/01/15 04:03:00.000   30.531674943  114.357263403    27.3808   6  14   0.0764   0.1112   0.1524  -0.0215   0.0518  -0.0574   0.00    0.0
2026/01/15 04:03:30.000   30.531674946  114.357263379    27.3811   6  14   0.0763   0.1111   0.1523  -0.0217   0.0519  -0.0574   0.00    0.0
2026/01/15 04:04:00.000   30.531674954  114.357263366    27.3815   6  14   0.0763   0.1109   0.1522  -0.0218   0.0519  -0.0573   0.00    0.0
2026/01/15 04:04:30.000   30.531674966  114.357263361    27.3807   6  14   0.0762   0.1108   0.1521  -0.0220   0.0520  -0.0573   0.00    0.0
2026/01/15 04:05:00.000   30.531674969  114.357263353    27.3802   6  14   0.0761   0.1107   0.1519  -0.0221   0.0521  -0.0572   0.00    0.0
2026/01/15 04:05:30.000   30.531674973  114.357263341    27.3806   6  14   0.0760   0.1105   0.1518  -0.0223   0.0521  -0.0571   0.00    0.0
2026/01/15 04:06:00.000   30.531674972  114.357263323    27.3812   6  14   0.0758   0.1104   0.1517  -0.0224   0.0522  -0.0571   0.00    0.0
2026/01/15 04:06:30.000   30.531674972  114.357263288    27.3822   6  14   0.0757   0.1103   0.1515  -0.0226   0.0522  -0.0570   0.00    0.0
2026/01/15 04:07:00.000   30.531674972  114.357263270    27.3827   6  14   0.0756   0.1101   0.1514  -0.0227   0.0523  -0.0570   0.00    0.0
2026/01/15 04:07:30.000   30.531674974  114.357263247    27.3836   6  14   0.0755   0.1100   0.1512  -0.0229   0.0524  -0.0569   0.00    0.0
2026/01/15 04:08:00.000   30.531674979  114.357263224    27.3843   6  14   0.0754   0.1098   0.1511  -0.0231   0.0524  -0.0568   0.00    0.0
2026/01/15 04:08:30.000   30.531674981  114.357263199    27.3855   6  14   0.0753   0.1097   0.1509  -0.0233   0.0525  -0.0568   0.00    0.0
2026/01/15 04:09:00.000   30.531674990  114.357263176    27.3866   6  14   0.0751   0.1095   0.1508  -0.0234   0.0526  -0.0567   0.00    0.0
2026/01/15 04:09:30.000   30.531674988  114.357263149    27.3884   6  14   0.0750   0.1094   0.1506  -0.0236   0.0526  -0.0567   0.00    0.0
2026/01/15 04:10:00.000   30.531674992  114.357263138    27.3891   6  14   0.0749   0.1092   0.1504  -0.0238   0.0527  -0.0566   0.00    0.0
2026/01/15 04:10:30.000   30.531674994  114.357263109    27.3897   6  14   0.0747   0.1091   0.1502  -0.0240   0.0528  -0.0565   0.00    0.0
2026/01/15 04:11:00.000   30.531675001  114.357263099    27.3908   6  14   0.0746   0.1089   0.1501  -0.0242   0.0528  -0.0565   0.00    0.0
2026/01/15 04:11:30.000   30.531675007  114.357263053    27.3922   6  14   0.0744   0.1088   0.1499  -0.0243   0.0529  -0.0564   0.00    0.0
2026/01/15 04:12:00.000   30.531675014  114.357263034    27.3930   6  14   0.0743   0.1086   0.1497  -0.0245   0.0530  -0.0563   0.00    0.0
2026/01/15 04:12:30.000   30.531675018  114.357263010    27.3949   6  14   0.0741   0.1085   0.1495  -0.0247   0.0530  -0.0563   0.00    0.0
2026/01/15 04:13:00.000   30.531675028  114.357262988    27.3957   6  14   0.0740   0.1083   0.1493  -0.0249   0.0531  -0.0562   0.00    0.0
2026/01/15 04:13:30.000   30.531675034  114.357262974    27.3974   6  14   0.0738   0.1081   0.1490  -0.0251   0.0532  -0.0561   0.00    0.0
2026/01/15 04:14:00.000   30.531675044  114.357262971    27.3992   6  13   0.0736   0.1080   0.1488  -0.0253   0.0532  -0.0561   0.00    0.0
2026/01/15 04:14:30.000   30.531675052  114.357262948    27.4011   6  14   0.0735   0.1078   0.1486  -0.0255   0.0533  -0.0560   0.00    0.0
2026/01/15 04:15:00.000   30.531675060  114.357262929    27.4029   6  14   0.0733   0.1076   0.1484  -0.0257   0.0534  -0.0559   0.00    0.0
2026/01/15 04:15:30.000   30.531675072  114.357262909    27.4044   6  14   0.0731   0.1075   0.1481  -0.0259   0.0534  -0.0559   0.00    0.0
2026/01/15 04:16:00.000   30.531675082  114.357262900    27.4053   6  14   0.0729   0.1073   0.1479  -0.0261   0.0535  -0.0558   0.00    0.0
2026/01/15 04:16:30.000   30.531675100  114.357262893    27.4064   6  14   0.0728   0.1071   0.1476  -0.0263   0.0535  -0.0557   0.00    0.0
2026/01/15 04:17:00.000   30.531675115  114.357262884    27.4082   6  14   0.0726   0.1069   0.1474  -0.0265   0.0536  -0.0557   0.00    0.0
2026/01/15 04:17:30.000   30.531675133  114.357262889    27.4090   6  14   0.0724   0.1068   0.1471  -0.0267   0.0536  -0.0556   0.00    0.0
2026/01/15 04:18:00.000   30.531675144  114.357262887    27.4100   6  14   0.0722   0.1066   0.1469  -0.0269   0.0537  -0.0555   0.00    0.0
2026/01/15 04:18:30.000   30.531675161  114.357262888    27.4114   6  14   0.0720   0.1064   0.1466  -0.0271   0.0537  -0.0555   0.00    0.0
2026/01/15 04:19:00.000   30.531675176  114.357262888    27.4128   6  14   0.0718   0.1062   0.1463  -0.0273   0.0538  -0.0554   0.00    0.0
2026/01/15 04:19:30.000   30.531675192  114.357262876    27.4150   6  14   0.0716   0.1060   0.1460  -0.0275   0.0538  -0.0553   0.00    0.0
2026/01/15 04:20:00.000   30.531675211  114.357262871    27.4151   6  14   0.0714   0.1059   0.1457  -0.0278   0.0539  -0.0552   0.00    0.0
2026/01/15 04:20:30.000   30.531675232  114.357262880    27.4164   6  14   0.0712   0.1057   0.1454  -0.0280   0.0539  -0.0552   0.00    0.0
2026/01/15 04:21:00.000   30.531675252  114.357262876    27.4185   6  14   0.0709   0.1055   0.1451  -0.0282   0.0539  -0.0551   0.00    0.0
2026/01/15 04:21:30.000   30.531675276  114.357262867    27.4195   6  14   0.0707   0.1053   0.1448  -0.0284   0.0540  -0.0550   0.00    0.0
2026/01/15 04:22:00.000   30.531675295  114.357262862    27.4209   6  14   0.0705   0.1051   0.1445  -0.0286   0.0540  -0.0550   0.00    0.0
2026/01/15 04:22:30.000   30.531675310  114.357262853    27.4229   6  14   0.0703   0.1049   0.1442  -0.0288   0.0540  -0.0549   0.00    0.0
2026/01/15 04:23:00.000   30.531675328  114.357262853    27.4250   6  14   0.0700   0.1047   0.1439  -0.0290   0.0541  -0.0548   0.00    0.0
2026/01/15 04:23:30.000   30.531675349  114.357262856    27.4266   6  14   0.0698   0.1045   0.1436  -0.0292   0.0541  -0.0547   0.00    0.0
2026/01/15 04:24:00.000   30.531675372  114.357262860    27.4284   6  14   0.0696   0.1043   0.1432  -0.0294   0.0541  -0.0547   0.00    0.0
2026/01/15 04:24:30.000   30.531675393  114.357262865    27.4296   6  14   0.0694   0.1041   0.1429  -0.0296   0.0541  -0.0546   0.00    0.0
2026/01/15 04:25:00.000   30.531675414  114.357262867    27.4313   6  14   0.0691   0.1039   0.1425  -0.0297   0.0541  -0.0545   0.00    0.0
2026/01/15 04:25:30.000   30.531675440  114.357262875    27.4323   6  14   0.0689   0.1037   0.1422  -0.0299   0.0542  -0.0544   0.00    0.0
2026/01/15 04:26:00.000   30.531675464  114.357262885    27.4340   6  14   0.0686   0.1035   0.1418  -0.0301   0.0542  -0.0544   0.00    0.0
2026/01/15 04:26:30.000   30.531675486  114.357262908    27.4357   6  14   0.0684   0.1033   0.1415  -0.0303   0.0542  -0.0543   0.00    0.0
2026/01/15 04:27:00.000   30.531675509  114.357262905    27.4378   6  14   0.0681   0.1031   0.1411  -0.0305   0.0542  -0.0542   0.00    0.0
2026/01/15 04:27:30.000   30.531675539  114.357262905    27.4392   6  15   0.0679   0.1028   0.1407  -0.0307   0.0542  -0.0541   0.00    0.0
2026/01/15 04:28:00.000   30.531675564  114.357262911    27.4410   6  15   0.0676   0.1026   0.1404  -0.0309   0.0542  -0.0541   0.00    0.0
2026/01/15 04:28:30.000   30.531675588  114.357262918    27.4428   6  15   0.0674   0.1024   0.1400  -0.0310   0.0542  -0.0540   0.00    0.0
2026/01/15 04:29:00.000   30.531675616  114.357262923    27.4440   6  15   0.0671   0.1022   0.1396  -0.0312   0.0541  -0.0539   0.00    0.0
2026/01/15 04:29:30.000   30.531675645  114.357262936    27.4456   6  15   0.0669   0.1020   0.1392  -0.0314   0.0541  -0.0538   0.00    0.0
2026/01/15 04:30:00.000   30.531675675  114.357262951    27.4469   6  16   0.0666   0.1017   0.1388  -0.0315   0.0541  -0.0538   0.00    0.0
2026/01/15 04:30:30.000   30.531675705  114.357262949    27.4482   6  16   0.0663   0.1015   0.1384  -0.0317   0.0540  -0.0537   0.00    0.0
2026/01/15 04:31:00.000   30.531675735  114.357262968    27.4497   6  16   0.0661   0.1013   0.1380  -0.0318   0.0540  -0.0536   0.00    0.0
2026/01/15 04:31:30.000   30.531675757  114.357262993    27.4521   6  16   0.0658   0.1011   0.1375  -0.0320   0.0540  -0.0535   0.00    0.0
2026/01/15 04:32:00.000   30.531675780  114.357263003    27.4547   6  16   0.0655   0.1008   0.1371  -0.0321   0.0539  -0.0534   0.00    0.0
2026/01/15 04:32:30.000   30.531675805  114.357263001    27.4564   6  16   0.0653   0.1006   0.1367  -0.0323   0.0539  -0.0533   0.00    0.0
2026/01/15 04:33:00.000   30.531675835  114.357263019    27.4573   6  16   0.0650   0.1003   0.1363  -0.0324   0.0538  -0.0532   0.00    0.0
2026/01/15 04:33:30.000   30.531675863  114.357263033    27.4578   6  16   0.0647   0.1001   0.1358  -0.0326   0.0537  -0.0531   0.00    0.0
2026/01/15 04:34:00.000   30.531675891  114.357263052    27.4583   6  16   0.0644   0.0999   0.1354  -0.0327   0.0537  -0.0530   0.00    0.0
2026/01/15 04:34:30.000   30.531675916  114.357263069    27.4592   6  16   0.0642   0.0996   0.1349  -0.0328   0.0536  -0.0530   0.00    0.0
2026/01/15 04:35:00.000   30.531675945  114.357263089    27.4596   6  16   0.0639   0.0994   0.1345  -0.0329   0.0535  -0.0529   0.00    0.0
2026/01/15 04:35:30.000   30.531675973  114.357263112    27.4607   6  16   0.0636   0.0991   0.1340  -0.0331   0.0534  -0.0528   0.00    0.0
2026/01/15 04:36:00.000   30.531675999  114.357263128    27.4618   6  16   0.0633   0.0989   0.1335  -0.0332   0.0534  -0.0527   0.00    0.0
2026/01/15 04:36:30.000   30.531676026  114.357263148    27.4633   6  16   0.0630   0.0986   0.1331  -0.0333   0.0533  -0.0526   0.00    0.0
2026/01/15 04:37:00.000   30.531676057  114.357263158    27.4640   6  16   0.0628   0.0984   0.1326  -0.0334   0.0532  -0.0525   0.00    0.0
2026/01/15 04:37:30.000   30.531676083  114.357263185    27.4649   6  16   0.0625   0.0981   0.1321  -0.0335   0.0531  -0.0524   0.00    0.0
2026/01/15 04:38:00.000   30.531676108  114.357263200    27.4665   6  16   0.0622   0.0979   0.1316  -0.0336   0.0530  -0.0523   0.00    0.0
2026/01/15 04:38:30.000   30.531676133  114.357263224    27.4679   6  16   0.0619   0.0976   0.1311  -0.0337   0.0529  -0.0522   0.00    0.0
2026/01/15 04:39:00.000   30.531676160  114.357263240    27.4695   6  16   0.0616   0.0973   0.1306  -0.0338   0.0528  -0.0521   0.00    0.0
2026/01/15 04:39:30.000   30.531676180  114.357263265    27.4724   6  17   0.0614   0.0971   0.1301  -0.0339   0.0526  -0.0519   0.00    0.0
2026/01/15 04:40:00.000   30.531676201  114.357263286    27.4749   6  17   0.0611   0.0968   0.1296  -0.0340   0.0525  -0.0518   0.00    0.0
2026/01/15 04:40:30.000   30.531676220  114.357263297    27.4765   6  17   0.0608   0.0966   0.1291  -0.0341   0.0525  -0.0517   0.00    0.0
2026/01/15 04:41:00.000   30.531676246  114.357263312    27.4777   6  17   0.0605   0.0963   0.1287  -0.0341   0.0524  -0.0516   0.00    0.0
2026/01/15 04:41:30.000   30.531676268  114.357263334    27.4792   6  17   0.0602   0.0961   0.1282  -0.0342   0.0524  -0.0514   0.00    0.0
2026/01/15 04:42:00.000   30.531676288  114.357263353    27.4812   6  17   0.0599   0.0958   0.1277  -0.0342   0.0523  -0.0513   0.00    0.0
2026/01/15 04:42:30.000   30.531676311  114.357263369    27.4822   6  17   0.0597   0.0956   0.1273  -0.0343   0.0522  -0.0511   0.00    0.0
2026/01/15 04:43:00.000   30.531676336  114.357263381    27.4833   6  17   0.0594   0.0954   0.1268  -0.0343   0.0522  -0.0510   0.00    0.0
2026/01/15 04:43:30.000   30.531676361  114.357263396    27.4838   6  17   0.0591   0.0951   0.1263  -0.0344   0.0521  -0.0509   0.00    0.0
2026/01/15 04:44:00.000   30.531676383  114.357263417    27.4869   6  16   0.0588   0.0949   0.1259  -0.0344   0.0520  -0.0507   0.00    0.0
2026/01/15 04:44:30.000   30.531676408  114.357263431    27.4899   6  16   0.0585   0.0946   0.1254  -0.0345   0.0520  -0.0505   0.00    0.0
2026/01/15 04:45:00.000   30.531676427  114.357263446    27.4935   6  15   0.0582   0.0944   0.1250  -0.0345   0.0519  -0.0504   0.00    0.0
2026/01/15 04:45:30.000   30.531676450  114.357263468    27.4959   6  15   0.0580   0.0941   0.1245  -0.0346   0.0518  -0.0502   0.00    0.0
2026/01/15 04:46:00.000   30.531676474  114.357263472    27.4981   6  16   0.0577   0.0939   0.1241  -0.0346   0.0517  -0.0501   0.00    0.0
2026/01/15 04:46:30.000   30.531676499  114.357263477    27.5006   6  15   0.0574   0.0936   0.1236  -0.0346   0.0516  -0.0499   0.00    0.0
2026/01/15 04:47:00.000   30.531676520  114.357263490    27.5029   6  16   0.0571   0.0934   0.1231  -0.0347   0.0515  -0.0497   0.00    0.0
2026/01/15 04:47:30.000   30.531676543  114.357263508    27.5045   6  15   0.0569   0.0931   0.1227  -0.0347   0.0514  -0.0496   0.00    0.0
2026/01/15 04:48:00.000   30.531676567  114.357263518    27.5068   6  16   0.0566   0.0929   0.1222  -0.0347   0.0513  -0.0494   0.00    0.0
2026/01/15 04:48:30.000   30.531676593  114.357263543    27.5092   6  16   0.0563   0.0926   0.1217  -0.0347   0.0511  -0.0492   0.00    0.0
2026/01/15 04:49:00.000   30.531676620  114.357263555    27.5110   6  15   0.0560   0.0924   0.1213  -0.0348   0.0510  -0.0491   0.00    0.0
2026/01/15 04:49:30.000   30.531676641  114.357263584    27.5140   6  16   0.0558   0.0921   0.1208  -0.0348   0.0509  -0.0489   0.00    0.0
2026/01/15 04:50:00.000   30.531676667  114.357263603    27.5163   6  16   0.0555   0.0919   0.1203  -0.0348   0.0508  -0.0487   0.00    0.0
2026/01/15 04:50:30.000   30.531676694  114.357263616    27.5183   6  16   0.0552   0.0916   0.1198  -0.0348   0.0507  -0.0486   0.00    0.0
2026/01/15 04:51:00.000   30.531676718  114.357263633    27.5213   6  15   0.0549   0.0914   0.1193  -0.0348   0.0505  -0.0484   0.00    0.0
2026/01/15 04:51:30.000   30.531676742  114.357263654    27.5244   6  15   0.0547   0.0911   0.1188  -0.0348   0.0504  -0.0482   0.00    0.0
2026/01/15 04:52:00.000   30.531676766  114.357263674    27.5268   6  15   0.0544   0.0908   0.1183  -0.0348   0.0503  -0.0480   0.00    0.0
2026/01/15 04:52:30.000   30.531676789  114.357263692    27.5294   6  15   0.0541   0.0906   0.1178  -0.0348   0.0502  -0.0479   0.00    0.0
2026/01/15 04:53:00.000   30.531676811  114.357263715    27.5319   6  15   0.0539   0.0903   0.1173  -0.0348   0.0500  -0.0477   0.00    0.0
2026/01/15 04:53:30.000   30.531676831  114.357263733    27.5343   6  15   0.0536   0.0901   0.1168  -0.0348   0.0499  -0.0475   0.00    0.0
2026/01/15 04:54:00.000   30.531676853  114.357263750    27.5368   6  15   0.0533   0.0898   0.1163  -0.0348   0.0497  -0.0473   0.00    0.0
2026/01/15 04:54:30.000   30.531676872  114.357263768    27.5393   6  15   0.0530   0.0896   0.1158  -0.0348   0.0496  -0.0471   0.00    0.0
2026/01/15 04:55:00.000   30.531676893  114.357263800    27.5417   6  15   0.0528   0.0893   0.1152  -0.0348   0.0494  -0.0470   0.00    0.0
2026/01/15 04:55:30.000   30.531676914  114.357263816    27.5441   6  15   0.0525   0.0890   0.1147  -0.0348   0.0493  -0.0468   0.00    0.0
2026/01/15 04:56:00.000   30.531676935  114.357263840    27.5466   6  15   0.0522   0.0888   0.1142  -0.0348   0.0491  -0.0466   0.00    0.0
2026/01/15 04:56:30.000   30.531676952  114.357263868    27.5495   6  15   0.0520   0.0885   0.1137  -0.0348   0.0490  -0.0464   0.00    0.0
2026/01/15 04:57:00.000   30.531676969  114.357263891    27.5519   6  15   0.0517   0.0883   0.1131  -0.0347   0.0488  -0.0462   0.00    0.0
2026/01/15 04:57:30.000   30.531676989  114.357263914    27.5537   6  15   0.0515   0.0880   0.1126  -0.0347   0.0487  -0.0460   0.00    0.0
2026/01/15 04:58:00.000   30.531677006  114.357263931    27.5566   6  15   0.0512   0.0877   0.1121  -0.0347   0.0485  -0.0458   0.00    0.0
2026/01/15 04:58:30.000   30.531677024  114.357263957    27.5592   6  15   0.0509   0.0875   0.1115  -0.0347   0.0483  -0.0457   0.00    0.0
2026/01/15 04:59:00.000   30.531677044  114.357263980    27.5617   6  15   0.0507   0.0872   0.1110  -0.0346   0.0482  -0.0455   0.00    0.0
2026/01/15 05:03:00.000   30.531677047  114.357263906    27.5657   6  16   0.0503   0.0865   0.1103  -0.0345   0.0479  -0.0452   0.00    0.0
2026/01/15 05:04:00.000   30.531677068  114.357263931    27.5663   6  16   0.0500   0.0862   0.1097  -0.0345   0.0477  -0.0449   0.00    0.0
2026/01/15 05:04:30.000   30.531677091  114.357263962    27.5681   6  16   0.0497   0.0859   0.1091  -0.0344   0.0476  -0.0447   0.00    0.0
2026/01/15 05:05:00.000   30.531677112  114.357263990    27.5699   6  16   0.0494   0.0856   0.1085  -0.0344   0.0475  -0.0445   0.00    0.0
2026/01/15 05:05:30.000   30.531677134  114.357264022    27.5719   6  16   0.0491   0.0853   0.1079  -0.0343   0.0473  -0.0443   0.00    0.0
2026/01/15 05:06:00.000   30.531677153  114.357264052    27.5736   6  16   0.0488   0.0850   0.1073  -0.0343   0.0472  -0.0440   0.00    0.0
2026/01/15 05:06:30.000   30.531677173  114.357264078    27.5758   6  16   0.0485   0.0848   0.1067  -0.0342   0.0471  -0.0438   0.00    0.0
2026/01/15 05:07:00.000   30.531677192  114.357264108    27.5779   6  16   0.0482   0.0845   0.1062  -0.0342   0.0469  -0.0436   0.00    0.0
2026/01/15 05:07:30.000   30.531677211  114.357264133    27.5799   6  16   0.0479   0.0842   0.1056  -0.0341   0.0468  -0.0434   0.00    0.0
2026/01/15 05:08:00.000   30.531677229  114.357264161    27.5815   6  16   0.0476   0.0839   0.1050  -0.0340   0.0466  -0.0431   0.00    0.0
2026/01/15 05:08:30.000   30.531677248  114.357264195    27.5833   6  16   0.0473   0.0836   0.1044  -0.0340   0.0465  -0.0429   0.00    0.0
2026/01/15 05:09:00.000   30.531677265  114.357264224    27.5853   6  16   0.0470   0.0833   0.1038  -0.0339   0.0463  -0.0427   0.00    0.0
2026/01/15 05:09:30.000   30.531677284  114.357264246    27.5867   6  16   0.0468   0.0830   0.1033  -0.0339   0.0462  -0.0425   0.00    0.0
2026/01/15 05:10:00.000   30.531677304  114.357264276    27.5883   6  16   0.0465   0.0828   0.1027  -0.0338   0.0460  -0.0423   0.00    0.0
2026/01/15 05:10:30.000   30.531677320  114.357264305    27.5902   6  16   0.0462   0.0825   0.1021  -0.0337   0.0459  -0.0420   0.00    0.0
2026/01/15 05:11:00.000   30.531677337  114.357264333    27.5919   6  16   0.0459   0.0822   0.1015  -0.0337   0.0457  -0.0418   0.00    0.0
2026/01/15 05:11:30.000   30.531677352  114.357264365    27.5942   6  16   0.0457   0.0819   0.1010  -0.0336   0.0455  -0.0416   0.00    0.0
2026/01/15 05:12:00.000   30.531677369  114.357264396    27.5964   6  16   0.0454   0.0816   0.1004  -0.0335   0.0454  -0.0414   0.00    0.0
2026/01/15 05:12:30.000   30.531677383  114.357264432    27.5992   6  16   0.0451   0.0813   0.0998  -0.0334   0.0452  -0.0412   0.00    0.0
2026/01/15 05:13:00.000   30.531677399  114.357264462    27.6016   6  16   0.0449   0.0811   0.0993  -0.0334   0.0450  -0.0410   0.00    0.0
2026/01/15 05:13:30.000   30.531677412  114.357264496    27.6039   6  16   0.0446   0.0808   0.0987  -0.0333   0.0449  -0.0407   0.00    0.0
2026/01/15 05:14:00.000   30.531677425  114.357264534    27.6063   6  16   0.0444   0.0805   0.0981  -0.0332   0.0447  -0.0405   0.00    0.0
2026/01/15 05:14:30.000   30.531677439  114.357264568    27.6084   6  16   0.0441   0.0802   0.0976  -0.0331   0.0445  -0.0403   0.00    0.0
2026/01/15 05:15:00.000   30.531677453  114.357264600    27.6108   6  16   0.0439   0.0799   0.0970  -0.0330   0.0443  -0.0401   0.00    0.0
2026/01/15 05:15:30.000   30.531677465  114.357264634    27.6134   6  16   0.0436   0.0797   0.0964  -0.0330   0.0442  -0.0399   0.00    0.0
2026/01/15 05:16:00.000   30.531677480  114.357264661    27.6153   6  15   0.0434   0.0794   0.0959  -0.0329   0.0440  -0.0397   0.00    0.0
2026/01/15 05:16:30.000   30.531677492  114.357264692    27.6173   6  16   0.0431   0.0791   0.0953  -0.0328   0.0438  -0.0395   0.00    0.0
2026/01/15 05:17:00.000   30.531677504  114.357264727    27.6195   6  16   0.0429   0.0788   0.0948  -0.0327   0.0436  -0.0392   0.00    0.0
2026/01/15 05:17:30.000   30.531677515  114.357264754    27.6215   6  16   0.0427   0.0786   0.0942  -0.0326   0.0434  -0.0390   0.00    0.0
2026/01/15 05:18:00.000   30.531677527  114.357264778    27.6231   6  16   0.0424   0.0783   0.0937  -0.0325   0.0433  -0.0388   0.00    0.0
2026/01/15 05:18:30.000   30.531677538  114.357264804    27.6248   6  16   0.0422   0.0780   0.0931  -0.0324   0.0431  -0.0386   0.00    0.0
2026/01/15 05:19:00.000   30.531677550  114.357264834    27.6267   6  16   0.0419   0.0778   0.0926  -0.0323   0.0429  -0.0384   0.00    0.0
2026/01/15 05:19:30.000   30.531677560  114.357264862    27.6286   6  16   0.0417   0.0775   0.0920  -0.0322   0.0427  -0.0382   0.00    0.0
2026/01/15 05:20:00.000   30.531677570  114.357264890    27.6304   6  16   0.0415   0.0772   0.0915  -0.0322   0.0425  -0.0380   0.00    0.0
2026/01/15 05:20:30.000   30.531677580  114.357264921    27.6327   6  16   0.0413   0.0769   0.0909  -0.0321   0.0423  -0.0378   0.00    0.0
2026/01/15 05:21:00.000   30.531677590  114.357264951    27.6348   6  16   0.0410   0.0767   0.0904  -0.0320   0.0422  -0.0376   0.00    0.0
2026/01/15 05:21:30.000   30.531677600  114.357264980    27.6370   6  16   0.0408   0.0764   0.0898  -0.0319   0.0420  -0.0374   0.00    0.0
2026/01/15 05:22:00.000   30.531677611  114.357265006    27.6385   6  16   0.0406   0.0761   0.0893  -0.0318   0.0418  -0.0371   0.00    0.0
2026/01/15 05:22:30.000   30.531677621  114.357265041    27.6400   6  16   0.0404   0.0759   0.0888  -0.0317   0.0416  -0.0369   0.00    0.0
2026/01/15 05:23:00.000   30.531677631  114.357265067    27.6416   6  16   0.0402   0.0756   0.0882  -0.0316   0.0414  -0.0367   0.00    0.0
2026/01/15 05:23:30.000   30.531677638  114.357265093    27.6436   6  16   0.0399   0.0753   0.0877  -0.0315   0.0412  -0.0365   0.00    0.0
2026/01/15 05:24:00.000   30.531677645  114.357265125    27.6451   6  16   0.0397   0.0751   0.0872  -0.0314   0.0410  -0.0363   0.00    0.0
2026/01/15 05:24:30.000   30.531677653  114.357265154    27.6466   6  16   0.0395   0.0748   0.0867  -0.0313   0.0408  -0.0361   0.00    0.0
2026/01/15 05:25:00.000   30.531677660  114.357265190    27.6485   6  16   0.0393   0.0746   0.0861  -0.0312   0.0407  -0.0359   0.00    0.0
2026/01/15 05:25:30.000   30.531677668  114.357265213    27.6498   6  16   0.0391   0.0743   0.0856  -0.0311   0.0405  -0.0357   0.00    0.0
2026/01/15 05:26:00.000   30.531677675  114.357265235    27.6510   6  16   0.0389   0.0740   0.0851  -0.0310   0.0403  -0.0355   0.00    0.0
2026/01/15 05:26:30.000   30.531677681  114.357265265    27.6526   6  16   0.0387   0.0738   0.0846  -0.0309   0.0401  -0.0353   0.00    0.0
2026/01/15 05:27:00.000   30.531677687  114.357265293    27.6542   6  15   0.0385   0.0735   0.0840  -0.0308   0.0399  -0.0351   0.00    0.0
2026/01/15 05:27:30.000   30.531677693  114.357265324    27.6559   6  16   0.0383   0.0733   0.0835  -0.0307   0.0397  -0.0349   0.00    0.0
2026/01/15 05:28:00.000   30.531677699  114.357265355    27.6574   6  16   0.0381   0.0730   0.0830  -0.0306   0.0395  -0.0347   0.00    0.0
2026/01/15 05:28:30.000   30.531677704  114.357265383    27.6585   6  16   0.0379   0.0728   0.0825  -0.0305   0.0393  -0.0345   0.00    0.0
2026/01/15 05:29:00.000   30.531677708  114.357265416    27.6597   6  16   0.0377   0.0725   0.0820  -0.0304   0.0391  -0.0343   0.00    0.0
2026/01/15 05:29:30.000   30.531677714  114.357265442    27.6607   6  16   0.0375   0.0722   0.0815  -0.0303   0.0390  -0.0341   0.00    0.0
2026/01/15 05:30:00.000   30.531677720  114.357265465    27.6613   6  15   0.0373   0.0720   0.0810  -0.0302   0.0388  -0.0339   0.00    0.0
2026/01/15 05:30:30.000   30.531677725  114.357265490    27.6621   6  15   0.0371   0.0717   0.0805  -0.0301   0.0386  -0.0338   0.00    0.0
2026/01/15 05:31:00.000   30.531677731  114.357265511    27.6628   6  16   0.0369   0.0715   0.0800  -0.0300   0.0384  -0.0336   0.00    0.0
2026/01/15 05:31:30.000   30.531677736  114.357265540    27.6638   6  16   0.0367   0.0712   0.0795  -0.0299   0.0382  -0.0334   0.00    0.0
2026/01/15 05:32:00.000   30.531677745  114.357265554    27.6650   6  14   0.0365   0.0710   0.0790  -0.0298   0.0380  -0.0332   0.00    0.0
2026/01/15 05:32:30.000   30.531677754  114.357265567    27.6658   6  15   0.0364   0.0708   0.0785  -0.0297   0.0378  -0.0330   0.00    0.0
2026/01/15 05:33:00.000   30.531677761  114.357265588    27.6669   6  15   0.0362   0.0706   0.0780  -0.0296   0.0376  -0.0328   0.00    0.0
2026/01/15 05:33:30.000   30.531677769  114.357265611    27.6681   6  15   0.0360   0.0703   0.0776  -0.0295   0.0374  -0.0326   0.00    0.0
2026/01/15 05:34:00.000   30.531677778  114.357265628    27.6687   6  15   0.0358   0.0701   0.0771  -0.0294   0.0372  -0.0324   0.00    0.0
2026/01/15 05:34:30.000   30.531677785  114.357265649    27.6698   6  14   0.0356   0.0699   0.0766  -0.0293   0.0370  -0.0322   0.00    0.0
2026/01/15 05:35:00.000   30.531677792  114.357265666    27.6701   6  14   0.0355   0.0697   0.0762  -0.0293   0.0369  -0.0320   0.00    0.0
2026/01/15 05:35:30.000   30.531677798  114.357265686    27.6706   6  14   0.0353   0.0695   0.0758  -0.0292   0.0367  -0.0318   0.00    0.0
2026/01/15 05:36:00.000   30.531677802  114.357265706    27.6714   6  15   0.0351   0.0692   0.0754  -0.0291   0.0366  -0.0316   0.00    0.0
2026/01/15 05:36:30.000   30.531677809  114.357265719    27.6717   6  15   0.0350   0.0690   0.0750  -0.0290   0.0364  -0.0314   0.00    0.0
2026/01/15 05:37:00.000   30.531677815  114.357265735    27.6721   6  16   0.0348   0.0688   0.0745  -0.0289   0.0363  -0.0312   0.00    0.0
2026/01/15 05:37:30.000   30.531677820  114.357265750    27.6728   6  15   0.0346   0.0686   0.0741  -0.0288   0.0361  -0.0310   0.00    0.0
2026/01/15 05:38:00.000   30.531677826  114.357265760    27.6730   6  16   0.0345   0.0684   0.0737  -0.0287   0.0360  -0.0308   0.00    0.0
2026/01/15 05:38:30.000   30.531677832  114.357265775    27.6735   6  16   0.0343   0.0682   0.0733  -0.0286   0.0358  -0.0306   0.00    0.0
2026/01/15 05:39:00.000   30.531677837  114.357265784    27.6738   6  16   0.0342   0.0680   0.0729  -0.0285   0.0357  -0.0304   0.00    0.0
2026/01/15 05:39:30.000   30.531677843  114.357265798    27.6743   6  16   0.0340   0.0677   0.0725  -0.0284   0.0355  -0.0302   0.00    0.0
2026/01/15 05:40:00.000   30.531677849  114.357265812    27.6748   6  15   0.0338   0.0675   0.0721  -0.0283   0.0354  -0.0300   0.00    0.0
2026/01/15 05:40:30.000   30.531677855  114.357265829    27.6751   6  15   0.0337   0.0673   0.0717  -0.0282   0.0352  -0.0298   0.00    0.0
2026/01/15 05:41:00.000   30.531677861  114.357265847    27.6756   6  16   0.0335   0.0671   0.0713  -0.0281   0.0351  -0.0296   0.00    0.0
2026/01/15 05:41:30.000   30.531677866  114.357265867    27.6763   6  15   0.0334   0.0669   0.0709  -0.0280   0.0349  -0.0294   0.00    0.0
2026/01/15 05:42:00.000   30.531677872  114.357265881    27.6765   6  14   0.0332   0.0667   0.0705  -0.0279   0.0348  -0.0292   0.00    0.0
2026/01/15 05:42:30.000   30.531677878  114.357265896    27.6769   6  15   0.0331   0.0665   0.0702  -0.0278   0.0346  -0.0291   0.00    0.0
2026/01/15 05:43:00.000   30.531677885  114.357265907    27.6771   6  14   0.0329   0.0663   0.0698  -0.0277   0.0345  -0.0289   0.00    0.0
2026/01/15 05:43:30.000   30.531677890  114.357265921    27.6775   6  15   0.0328   0.0661   0.0694  -0.0276   0.0343  -0.0287   0.00    0.0
2026/01/15 05:44:00.000   30.531677895  114.357265934    27.6778   6  15   0.0326   0.0659   0.0690  -0.0275   0.0342  -0.0285   0.00    0.0
2026/01/15 05:44:30.000   30.531677901  114.357265941    27.6778   6  16   0.0325   0.0657   0.0686  -0.0274   0.0340  -0.0283   0.00    0.0
2026/01/15 05:45:00.000   30.531677907  114.357265954    27.6777   6  16   0.0323   0.0655   0.0682  -0.0273   0.0339  -0.0281   0.00    0.0
2026/01/15 05:45:30.000   30.531677914  114.357265962    27.6776   6  17   0.0322   0.0652   0.0678  -0.0272   0.0337  -0.0280   0.00    0.0
2026/01/15 05:46:00.000   30.531677919  114.357265970    27.6776   6  16   0.0320   0.0650   0.0675  -0.0271   0.0336  -0.0278   0.00    0.0
2026/01/15 05:46:30.000   30.531677924  114.357265985    27.6775   6  16   0.0319   0.0648   0.0671  -0.0270   0.0335  -0.0276   0.00    0.0
2026/01/15 05:47:00.000   30.531677930  114.357266001    27.6774   6  17   0.0317   0.0646   0.0667  -0.0269   0.0333  -0.0275   0.00    0.0
2026/01/15 05:47:30.000   30.531677935  114.357266018    27.6774   6  17   0.0316   0.0644   0.0663  -0.0268   0.0332  -0.0273   0.00    0.0
2026/01/15 05:48:00.000   30.531677939  114.357266034    27.6775   6  17   0.0314   0.0642   0.0660  -0.0267   0.0330  -0.0271   0.00    0.0
2026/01/15 05:48:30.000   30.531677944  114.357266051    27.6776   6  17   0.0313   0.0640   0.0656  -0.0266   0.0329  -0.0269   0.00    0.0
2026/01/15 05:49:00.000   30.531677949  114.357266064    27.6772   6  17   0.0312   0.0638   0.0652  -0.0266   0.0327  -0.0268   0.00    0.0
2026/01/15 05:49:30.000   30.531677955  114.357266074    27.6768   6  17   0.0310   0.0636   0.0648  -0.0265   0.0326  -0.0266   0.00    0.0
2026/01/15 05:50:00.000   30.531677960  114.357266089    27.6762   6  17   0.0309   0.0634   0.0645  -0.0264   0.0325  -0.0265   0.00    0.0
2026/01/15 05:50:30.000   30.531677965  114.357266105    27.6758   6  17   0.0308   0.0632   0.0641  -0.0263   0.0323  -0.0263   0.00    0.0
2026/01/15 05:51:00.000   30.531677970  114.357266122    27.6752   6  17   0.0306   0.0630   0.0638  -0.0262   0.0322  -0.0261   0.00    0.0
