% program   : RTKLIB ver.EX 2.5.0
% inp file  : C:\Users\tevin\Desktop\GNSS - MASTA\SPRING SEM\4.SAT NAV DATA PROCESSING\TEAM PROJECT\SNDP-PROJECT\New_Data\obs\RNXDATA\WUH200CHN_R_20260150000_01D_30S_MO.rnx
% inp file  : C:\Users\tevin\Desktop\GNSS - MASTA\SPRING SEM\4.SAT NAV DATA PROCESSING\TEAM PROJECT\SNDP-PROJECT\Old_data\products\nav\BRDC00IGS_R_20260150000_01D_MN.rnx
% inp file  : C:\Users\tevin\Desktop\GNSS - MASTA\SPRING SEM\4.SAT NAV DATA PROCESSING\TEAM PROJECT\SNDP-PROJECT\Old_data\products\sp3\COD0MGXFIN_20260150000_01D_05M_ORB.SP3
% inp file  : C:\Users\tevin\Desktop\GNSS - MASTA\SPRING SEM\4.SAT NAV DATA PROCESSING\TEAM PROJECT\SNDP-PROJECT\Old_data\products\clk\COD0MGXFIN_20260150000_01D_30S_CLK.CLK
% obs start : 2026/01/15 00:00:00.0 GPST (week2401 345600.0s)
% obs end   : 2026/01/15 23:59:30.0 GPST (week2401 431970.0s)
% pos mode  : PPP Static
% freqs     : L1+L2/E5b
% solution  : Forward
% elev mask : 15.0 deg
% dynamics  : on
% tidecorr  :
% ionos opt : Iono-Free LC
% tropo opt : Saastamoinen
% ephemeris : Precise
% navi sys  : GPS
% antenna1  : JAVRINGANT_G5T  NONE  ( 0.0000  0.0000  0.1206)
%
% (lat/lon/height=WGS84/ellipsoidal,Q=1:fix,2:float,3:sbas,4:dgps,5:single,6:ppp,ns=# of satellites)
%  GPST                  latitude(deg) longitude(deg)  height(m)   Q  ns   sdn(m)   sde(m)   sdu(m)  sdne(m)  sdeu(m)  sdun(m) age(s)  ratio
2026/01/15 00:00:00.000   30.531662262  114.357269450    28.6747   6   6   4.2490   4.4480  11.9302  -2.1488   4.2100  -3.9795   0.00    0.0
2026/01/15 00:01:00.000   30.531670480  114.357266117    28.4096   6   7   2.4588   2.5810   6.9052  -1.2463   2.4548  -2.3064   0.00    0.0
2026/01/15 00:01:30.000   30.531671453  114.357265474    28.5948   6   7   2.1273   2.2350   5.9333  -1.0756   2.1164  -1.9896   0.00    0.0
2026/01/15 00:02:00.000   30.531670882  114.357268361    28.9187   6   7   1.8996   1.9975   5.2500  -0.9571   1.8786  -1.7689   0.00    0.0
2026/01/15 00:03:00.000   30.531670954  114.357268486    28.1607   6   7   1.5994   1.6846   4.3362  -0.7990   1.5600  -1.4720   0.00    0.0
2026/01/15 00:03:30.000   30.531671001  114.357270749    28.2973   6   7   1.4897   1.5703   3.9587  -0.7394   1.4281  -1.3630   0.00    0.0
2026/01/15 00:04:00.000   30.531671149  114.357271344    28.3827   6   7   1.3984   1.4755   3.6447  -0.6895   1.3183  -1.2721   0.00    0.0
2026/01/15 00:05:00.000   30.531672736  114.357270188    28.3371   6   7   1.2579   1.3297   3.2020  -0.6137   1.1633  -1.1313   0.00    0.0
2026/01/15 00:05:30.000   30.531672334  114.357270698    28.4178   6   7   1.1963   1.2663   2.9659  -0.5782   1.0792  -1.0698   0.00    0.0
2026/01/15 00:06:00.000   30.531672720  114.357270739    28.4369   6   7   1.1418   1.2104   2.7628  -0.5468   1.0067  -1.0158   0.00    0.0
2026/01/15 00:06:30.000   30.531672676  114.357270117    28.3163   6   7   1.0930   1.1606   2.5847  -0.5185   0.9427  -0.9678   0.00    0.0
2026/01/15 00:07:00.000   30.531672445  114.357269448    28.3445   6   7   1.0488   1.1158   2.4264  -0.4928   0.8855  -0.9247   0.00    0.0
2026/01/15 00:07:30.000   30.531671983  114.357269261    28.4941   6   7   1.0085   1.0751   2.2842  -0.4692   0.8338  -0.8856   0.00    0.0
2026/01/15 00:08:00.000   30.531672106  114.357269461    28.6230   6   7   0.9704   1.0356   2.1480  -0.4508   0.7788  -0.8548   0.00    0.0
2026/01/15 00:08:30.000   30.531672252  114.357269365    28.6177   6   7   0.9352   0.9996   2.0261  -0.4331   0.7300  -0.8256   0.00    0.0
2026/01/15 00:09:30.000   30.531672384  114.357270300    28.5348   6   7   0.8800   0.9419   1.8684  -0.4078   0.6677  -0.7786   0.00    0.0
2026/01/15 00:10:00.000   30.531672560  114.357270090    28.4938   6   8   0.8497   0.9121   1.7625  -0.3906   0.6256  -0.7520   0.00    0.0
2026/01/15 00:11:30.000   30.531672549  114.357270158    28.4148   6   8   0.7873   0.8473   1.5997  -0.3615   0.5636  -0.6965   0.00    0.0
2026/01/15 00:12:30.000   30.531672652  114.357270152    28.3751   6   8   0.7461   0.8065   1.4760  -0.3386   0.5159  -0.6590   0.00    0.0
2026/01/15 00:13:00.000   30.531673012  114.357269507    28.3274   6   8   0.7209   0.7832   1.3882  -0.3214   0.4808  -0.6358   0.00    0.0
2026/01/15 00:14:00.000   30.531673501  114.357269280    28.2424   6   8   0.6862   0.7491   1.2923  -0.3018   0.4441  -0.6040   0.00    0.0
2026/01/15 00:14:30.000   30.531673659  114.357269125    28.2123   6   8   0.6640   0.7289   1.2214  -0.2863   0.4155  -0.5836   0.00    0.0
2026/01/15 00:15:30.000   30.531674237  114.357269019    28.1528   6   8   0.6343   0.6996   1.1447  -0.2693   0.3864  -0.5564   0.00    0.0
2026/01/15 00:16:00.000   30.531674304  114.357268913    28.1223   6   8   0.6146   0.6818   1.0863  -0.2551   0.3626  -0.5383   0.00    0.0
2026/01/15 00:16:30.000   30.531674451  114.357268770    28.0813   6   8   0.5962   0.6650   1.0349  -0.2420   0.3416  -0.5216   0.00    0.0
2026/01/15 00:17:00.000   30.531674603  114.357268555    28.0366   6   8   0.5791   0.6493   0.9889  -0.2298   0.3228  -0.5061   0.00    0.0
2026/01/15 00:17:30.000   30.531674660  114.357268484    28.0001   6   8   0.5630   0.6343   0.9475  -0.2184   0.3057  -0.4916   0.00    0.0
2026/01/15 00:18:00.000   30.531674729  114.357268630    27.9850   6   8   0.5479   0.6202   0.9098  -0.2078   0.2902  -0.4779   0.00    0.0
2026/01/15 00:18:30.000   30.531674975  114.357268570    27.9471   6   8   0.5336   0.6067   0.8752  -0.1977   0.2760  -0.4650   0.00    0.0
2026/01/15 00:19:00.000   30.531675131  114.357268621    27.9265   6   8   0.5200   0.5939   0.8433  -0.1882   0.2629  -0.4529   0.00    0.0
2026/01/15 00:19:30.000   30.531675218  114.357268911    27.9097   6   8   0.5071   0.5816   0.8138  -0.1792   0.2508  -0.4413   0.00    0.0
2026/01/15 00:20:00.000   30.531675349  114.357269344    27.8991   6   8   0.4949   0.5698   0.7862  -0.1706   0.2396  -0.4303   0.00    0.0
2026/01/15 00:20:30.000   30.531675461  114.357269389    27.8955   6   8   0.4832   0.5584   0.7604  -0.1624   0.2291  -0.4198   0.00    0.0
2026/01/15 00:21:00.000   30.531675541  114.357269425    27.8812   6   8   0.4720   0.5475   0.7362  -0.1545   0.2192  -0.4098   0.00    0.0
2026/01/15 00:21:30.000   30.531675710  114.357269524    27.8601   6   8   0.4613   0.5370   0.7135  -0.1470   0.2100  -0.4002   0.00    0.0
2026/01/15 00:22:00.000   30.531675896  114.357269753    27.8237   6   8   0.4510   0.5269   0.6920  -0.1398   0.2014  -0.3910   0.00    0.0
2026/01/15 00:23:00.000   30.531675981  114.357270046    27.7975   6   4   0.4448   0.5168   0.6727  -0.1400   0.1923  -0.3839   0.00    0.0
2026/01/15 00:23:30.000   30.531676113  114.357269946    27.7658   6   8   0.4341   0.5066   0.6513  -0.1320   0.1842  -0.3745   0.00    0.0
2026/01/15 00:24:00.000   30.531676255  114.357269980    27.7407   6   8   0.4239   0.4967   0.6314  -0.1243   0.1766  -0.3655   0.00    0.0
2026/01/15 00:24:30.000   30.531676350  114.357269896    27.7217   6   8   0.4143   0.4872   0.6126  -0.1170   0.1694  -0.3570   0.00    0.0
2026/01/15 00:25:00.000   30.531676446  114.357269824    27.7096   6   8   0.4050   0.4781   0.5950  -0.1100   0.1627  -0.3489   0.00    0.0
2026/01/15 00:25:30.000   30.531676459  114.357269802    27.6976   6   8   0.3962   0.4692   0.5783  -0.1032   0.1562  -0.3411   0.00    0.0
2026/01/15 00:26:00.000   30.531676527  114.357269634    27.6799   6   9   0.3873   0.4602   0.5620  -0.0946   0.1483  -0.3330   0.00    0.0
2026/01/15 00:26:30.000   30.531676714  114.357269603    27.6667   6   9   0.3789   0.4517   0.5508  -0.0866   0.1444  -0.3256   0.00    0.0
2026/01/15 00:27:00.000   30.531676819  114.357269478    27.6632   6   9   0.3708   0.4435   0.5400  -0.0787   0.1407  -0.3185   0.00    0.0
2026/01/15 00:27:30.000   30.531677041  114.357269368    27.6455   6   9   0.3631   0.4356   0.5295  -0.0709   0.1372  -0.3117   0.00    0.0
2026/01/15 00:28:00.000   30.531677151  114.357269310    27.6425   6   8   0.3558   0.4279   0.5193  -0.0631   0.1339  -0.3052   0.00    0.0
2026/01/15 00:28:30.000   30.531677247  114.357269323    27.6446   6   8   0.3487   0.4205   0.5094  -0.0552   0.1308  -0.2989   0.00    0.0
2026/01/15 00:29:00.000   30.531677297  114.357269246    27.6441   6   8   0.3419   0.4132   0.4998  -0.0471   0.1278  -0.2929   0.00    0.0
2026/01/15 00:29:30.000   30.531677300  114.357269338    27.6517   6   8   0.3353   0.4062   0.4904  -0.0385   0.1250  -0.2870   0.00    0.0
2026/01/15 00:30:00.000   30.531677323  114.357269365    27.6641   6   8   0.3289   0.3994   0.4813  -0.0287   0.1224  -0.2814   0.00    0.0
2026/01/15 00:30:30.000   30.531677388  114.357269259    27.6639   6   8   0.3228   0.3928   0.4724  -0.0156   0.1198  -0.2760   0.00    0.0
2026/01/15 00:31:00.000   30.531677431  114.357269340    27.6676   6   8   0.3168   0.3863   0.4637   0.0165   0.1174  -0.2707   0.00    0.0
2026/01/15 00:31:30.000   30.531677458  114.357269353    27.6689   6   8   0.3110   0.3800   0.4553   0.0270   0.1151  -0.2656   0.00    0.0
2026/01/15 00:32:00.000   30.531677561  114.357269540    27.6628   6   8   0.3054   0.3739   0.4470   0.0336   0.1129  -0.2607   0.00    0.0
2026/01/15 00:32:30.000   30.531677610  114.357269618    27.6590   6   8   0.2999   0.3679   0.4390   0.0385   0.1109  -0.2559   0.00    0.0
2026/01/15 00:33:00.000   30.531677731  114.357269604    27.6459   6   8   0.2946   0.3620   0.4311   0.0423   0.1089  -0.2513   0.00    0.0
2026/01/15 00:33:30.000   30.531677797  114.357269560    27.6361   6   8   0.2895   0.3563   0.4235   0.0453   0.1070  -0.2468   0.00    0.0
2026/01/15 00:34:00.000   30.531677864  114.357269516    27.6259   6   8   0.2844   0.3507   0.4160   0.0478   0.1051  -0.2424   0.00    0.0
2026/01/15 00:34:30.000   30.531677925  114.357269542    27.6192   6   8   0.2795   0.3452   0.4087   0.0498   0.1034  -0.2381   0.00    0.0
2026/01/15 00:35:00.000   30.531677974  114.357269548    27.6155   6   8   0.2748   0.3399   0.4016   0.0514   0.1017  -0.2340   0.00    0.0
2026/01/15 00:35:30.000   30.531677999  114.357269675    27.6138   6   8   0.2701   0.3347   0.3947   0.0528   0.1001  -0.2300   0.00    0.0
2026/01/15 00:36:00.000   30.531678020  114.357269654    27.6070   6   8   0.2656   0.3295   0.3879   0.0538   0.0986  -0.2260   0.00    0.0
2026/01/15 00:36:30.000   30.531678142  114.357269651    27.5884   6   8   0.2612   0.3245   0.3813   0.0547   0.0971  -0.2222   0.00    0.0
2026/01/15 00:37:00.000   30.531678129  114.357269634    27.5850   6   8   0.2569   0.3196   0.3749   0.0553   0.0957  -0.2185   0.00    0.0
2026/01/15 00:37:30.000   30.531678136  114.357269580    27.5833   6   8   0.2527   0.3148   0.3686   0.0558   0.0943  -0.2149   0.00    0.0
2026/01/15 00:38:00.000   30.531678166  114.357269547    27.5796   6   8   0.2486   0.3101   0.3624   0.0562   0.0930  -0.2113   0.00    0.0
2026/01/15 00:38:30.000   30.531678189  114.357269602    27.5852   6   7   0.2452   0.3057   0.3606   0.0549   0.0945  -0.2102   0.00    0.0
2026/01/15 00:39:00.000   30.531678220  114.357269685    27.5880   6   7   0.2419   0.3013   0.3587   0.0535   0.0959  -0.2090   0.00    0.0
2026/01/15 00:39:30.000   30.531678238  114.357269717    27.5924   6   7   0.2387   0.2970   0.3568   0.0521   0.0972  -0.2078   0.00    0.0
2026/01/15 00:40:00.000   30.531678233  114.357269743    27.6000   6   8   0.2355   0.2928   0.3548   0.0507   0.0984  -0.2066   0.00    0.0
2026/01/15 00:40:30.000   30.531678242  114.357269815    27.6052   6   7   0.2324   0.2887   0.3528   0.0492   0.0994  -0.2054   0.00    0.0
2026/01/15 00:41:00.000   30.531678250  114.357269885    27.6089   6   8   0.2293   0.2846   0.3508   0.0476   0.1004  -0.2042   0.00    0.0
2026/01/15 00:41:30.000   30.531678286  114.357269910    27.6104   6   7   0.2264   0.2807   0.3489   0.0463   0.1012  -0.2030   0.00    0.0
2026/01/15 00:42:00.000   30.531678307  114.357269982    27.6150   6   7   0.2235   0.2768   0.3469   0.0449   0.1019  -0.2018   0.00    0.0
2026/01/15 00:42:30.000   30.531678340  114.357270053    27.6156   6   7   0.2206   0.2730   0.3448   0.0434   0.1025  -0.2006   0.00    0.0
2026/01/15 00:43:00.000   30.531678370  114.357270066    27.6176   6   7   0.2178   0.2693   0.3428   0.0419   0.1030  -0.1994   0.00    0.0
2026/01/15 00:43:30.000   30.531678373  114.357270066    27.6192   6   7   0.2151   0.2656   0.3407   0.0403   0.1035  -0.1982   0.00    0.0
2026/01/15 00:44:00.000   30.531678407  114.357270145    27.6218   6   7   0.2124   0.2620   0.3386   0.0388   0.1039  -0.1969   0.00    0.0
2026/01/15 00:44:30.000   30.531678433  114.357270163    27.6241   6   7   0.2097   0.2585   0.3364   0.0371   0.1043  -0.1956   0.00    0.0
2026/01/15 00:45:00.000   30.531678458  114.357270180    27.6278   6   7   0.2071   0.2551   0.3343   0.0355   0.1046  -0.1943   0.00    0.0
2026/01/15 00:45:30.000   30.531678463  114.357270178    27.6323   6   7   0.2045   0.2516   0.3321   0.0338   0.1048  -0.1930   0.00    0.0
2026/01/15 00:46:00.000   30.531678457  114.357270153    27.6377   6   7   0.2020   0.2483   0.3298   0.0320   0.1050  -0.1917   0.00    0.0
2026/01/15 00:46:30.000   30.531678469  114.357270207    27.6423   6   7   0.1995   0.2450   0.3276   0.0303   0.1051  -0.1903   0.00    0.0
2026/01/15 00:47:00.000   30.531678488  114.357270255    27.6465   6   7   0.1970   0.2418   0.3253   0.0284   0.1052  -0.1890   0.00    0.0
2026/01/15 00:47:30.000   30.531678505  114.357270246    27.6481   6   7   0.1946   0.2386   0.3230   0.0265   0.1052  -0.1876   0.00    0.0
2026/01/15 00:48:00.000   30.531678513  114.357270246    27.6514   6   7   0.1922   0.2355   0.3207   0.0246   0.1052  -0.1862   0.00    0.0
2026/01/15 00:48:30.000   30.531678536  114.357270267    27.6539   6   7   0.1899   0.2324   0.3184   0.0226   0.1051  -0.1848   0.00    0.0
2026/01/15 00:49:00.000   30.531678532  114.357270320    27.6614   6   7   0.1876   0.2294   0.3161   0.0204   0.1050  -0.1834   0.00    0.0
2026/01/15 00:49:30.000   30.531678557  114.357270367    27.6652   6   7   0.1853   0.2264   0.3137   0.0182   0.1049  -0.1820   0.00    0.0
2026/01/15 00:50:00.000   30.531678580  114.357270403    27.6682   6   7   0.1831   0.2235   0.3113   0.0157   0.1047  -0.1806   0.00    0.0
2026/01/15 00:50:30.000   30.531678588  114.357270440    27.6715   6   7   0.1809   0.2207   0.3090   0.0129   0.1044  -0.1791   0.00    0.0
2026/01/15 00:51:00.000   30.531678593  114.357270454    27.6762   6   7   0.1787   0.2179   0.3066   0.0096   0.1041  -0.1777   0.00    0.0
2026/01/15 00:51:30.000   30.531678579  114.357270463    27.6829   6   7   0.1766   0.2151   0.3042   0.0046   0.1038  -0.1763   0.00    0.0
2026/01/15 00:52:00.000   30.531678576  114.357270493    27.6880   6   7   0.1745   0.2124   0.3018  -0.0067   0.1035  -0.1748   0.00    0.0
2026/01/15 00:52:30.000   30.531678573  114.357270529    27.6918   6   7   0.1724   0.2097   0.2993  -0.0104   0.1031  -0.1734   0.00    0.0
2026/01/15 00:53:00.000   30.531678575  114.357270515    27.6946   6   7   0.1704   0.2071   0.2969  -0.0129   0.1026  -0.1719   0.00    0.0
2026/01/15 00:53:30.000   30.531678567  114.357270482    27.6993   6   7   0.1684   0.2045   0.2945  -0.0149   0.1022  -0.1705   0.00    0.0
2026/01/15 00:54:30.000   30.531678583  114.357270558    27.7008   6   7   0.1661   0.2016   0.2917  -0.0167   0.1016  -0.1687   0.00    0.0
2026/01/15 00:55:00.000   30.531678587  114.357270571    27.7039   6   7   0.1641   0.1990   0.2892  -0.0182   0.1010  -0.1672   0.00    0.0
2026/01/15 00:55:30.000   30.531678597  114.357270570    27.7074   6   7   0.1621   0.1964   0.2867  -0.0194   0.1005  -0.1657   0.00    0.0
2026/01/15 00:56:00.000   30.531678611  114.357270591    27.7089   6   7   0.1601   0.1939   0.2841  -0.0205   0.0999  -0.1642   0.00    0.0
2026/01/15 00:56:30.000   30.531678639  114.357270613    27.7086   6   7   0.1582   0.1915   0.2816  -0.0214   0.0992  -0.1627   0.00    0.0
2026/01/15 00:57:00.000   30.531678656  114.357270608    27.7101   6   7   0.1563   0.1891   0.2791  -0.0222   0.0986  -0.1612   0.00    0.0
2026/01/15 00:57:30.000   30.531678660  114.357270634    27.7143   6   7   0.1544   0.1867   0.2766  -0.0230   0.0979  -0.1597   0.00    0.0
2026/01/15 00:58:00.000   30.531678678  114.357270673    27.7176   6   7   0.1526   0.1844   0.2741  -0.0236   0.0972  -0.1582   0.00    0.0
2026/01/15 00:58:30.000   30.531678701  114.357270678    27.7191   6   7   0.1508   0.1821   0.2716  -0.0241   0.0965  -0.1567   0.00    0.0
2026/01/15 00:59:00.000   30.531678714  114.357270680    27.7208   6   7   0.1490   0.1799   0.2691  -0.0246   0.0958  -0.1552   0.00    0.0
2026/01/15 00:59:30.000   30.531678713  114.357270686    27.7240   6   7   0.1473   0.1777   0.2666  -0.0250   0.0951  -0.1537   0.00    0.0
2026/01/15 01:01:00.000   30.531678735  114.357270673    27.7223   6   7   0.1452   0.1750   0.2637  -0.0255   0.0941  -0.1519   0.00    0.0
2026/01/15 01:02:30.000   30.531678750  114.357270730    27.7236   6   7   0.1431   0.1723   0.2606  -0.0259   0.0930  -0.1499   0.00    0.0
2026/01/15 01:03:00.000   30.531678754  114.357270730    27.7275   6   7   0.1412   0.1699   0.2578  -0.0261   0.0921  -0.1483   0.00    0.0
2026/01/15 01:03:30.000   30.531678771  114.357270740    27.7277   6   7   0.1393   0.1676   0.2550  -0.0264   0.0911  -0.1466   0.00    0.0
2026/01/15 01:04:00.000   30.531678777  114.357270745    27.7300   6   7   0.1375   0.1654   0.2522  -0.0265   0.0902  -0.1450   0.00    0.0
2026/01/15 01:04:30.000   30.531678775  114.357270733    27.7334   6   7   0.1357   0.1632   0.2495  -0.0267   0.0892  -0.1434   0.00    0.0
2026/01/15 01:05:00.000   30.531678780  114.357270724    27.7352   6   7   0.1340   0.1610   0.2469  -0.0268   0.0883  -0.1418   0.00    0.0
2026/01/15 01:05:30.000   30.531678782  114.357270736    27.7380   6   7   0.1323   0.1590   0.2443  -0.0268   0.0873  -0.1403   0.00    0.0
2026/01/15 01:06:00.000   30.531678780  114.357270729    27.7407   6   7   0.1307   0.1569   0.2417  -0.0268   0.0863  -0.1387   0.00    0.0
2026/01/15 01:06:30.000   30.531678786  114.357270729    27.7433   6   7   0.1290   0.1549   0.2391  -0.0268   0.0854  -0.1372   0.00    0.0
2026/01/15 01:07:00.000   30.531678777  114.357270716    27.7471   6   7   0.1275   0.1530   0.2366  -0.0267   0.0844  -0.1357   0.00    0.0
2026/01/15 01:08:00.000   30.531678776  114.357270722    27.7496   6   7   0.1258   0.1509   0.2339  -0.0267   0.0833  -0.1341   0.00    0.0
2026/01/15 01:09:00.000   30.531678771  114.357270713    27.7530   6   7   0.1241   0.1488   0.2312  -0.0266   0.0823  -0.1325   0.00    0.0
2026/01/15 01:09:30.000   30.531678772  114.357270716    27.7548   6   7   0.1225   0.1468   0.2286  -0.0264   0.0812  -0.1310   0.00    0.0
2026/01/15 01:10:00.000   30.531678770  114.357270690    27.7560   6   7   0.1210   0.1449   0.2261  -0.0263   0.0802  -0.1295   0.00    0.0
2026/01/15 01:10:30.000   30.531678769  114.357270689    27.7596   6   7   0.1195   0.1431   0.2236  -0.0261   0.0791  -0.1280   0.00    0.0
2026/01/15 01:11:00.000   30.531678770  114.357270693    27.7612   6   7   0.1180   0.1413   0.2212  -0.0259   0.0781  -0.1266   0.00    0.0
2026/01/15 01:11:30.000   30.531678771  114.357270697    27.7634   6   7   0.1166   0.1395   0.2188  -0.0257   0.0771  -0.1252   0.00    0.0
2026/01/15 01:12:00.000   30.531678771  114.357270702    27.7658   6   7   0.1152   0.1378   0.2164  -0.0254   0.0760  -0.1238   0.00    0.0
2026/01/15 01:12:30.000   30.531678768  114.357270697    27.7680   6   7   0.1138   0.1361   0.2141  -0.0252   0.0750  -0.1224   0.00    0.0
2026/01/15 01:13:00.000   30.531678757  114.357270707    27.7719   6   7   0.1124   0.1345   0.2118  -0.0249   0.0740  -0.1211   0.00    0.0
2026/01/15 01:13:30.000   30.531678753  114.357270703    27.7748   6   7   0.1111   0.1328   0.2095  -0.0247   0.0730  -0.1197   0.00    0.0
2026/01/15 01:14:00.000   30.531678743  114.357270698    27.7777   6   7   0.1098   0.1313   0.2073  -0.0244   0.0720  -0.1184   0.00    0.0
2026/01/15 01:14:30.000   30.531678739  114.357270696    27.7801   6   7   0.1086   0.1297   0.2051  -0.0241   0.0711  -0.1172   0.00    0.0
2026/01/15 01:16:00.000   30.531678728  114.357270690    27.7835   6   7   0.1060   0.1278   0.2017  -0.0261   0.0707  -0.1146   0.00    0.0
2026/01/15 01:16:30.000   30.531678726  114.357270678    27.7859   6   7   0.1048   0.1262   0.1995  -0.0257   0.0696  -0.1133   0.00    0.0
2026/01/15 01:18:00.000   30.531678730  114.357270697    27.7869   6   7   0.1034   0.1245   0.1971  -0.0252   0.0685  -0.1119   0.00    0.0
2026/01/15 01:18:30.000   30.531678729  114.357270680    27.7891   6   7   0.1022   0.1230   0.1949  -0.0248   0.0673  -0.1107   0.00    0.0
2026/01/15 01:19:00.000   30.531678727  114.357270673    27.7911   6   7   0.1010   0.1214   0.1927  -0.0243   0.0662  -0.1094   0.00    0.0
2026/01/15 01:19:30.000   30.531678726  114.357270661    27.7927   6   7   0.0998   0.1199   0.1906  -0.0238   0.0651  -0.1082   0.00    0.0
2026/01/15 01:20:00.000   30.531678723  114.357270652    27.7950   6   7   0.0987   0.1185   0.1885  -0.0234   0.0641  -0.1070   0.00    0.0
2026/01/15 01:20:30.000   30.531678724  114.357270650    27.7968   6   7   0.0975   0.1171   0.1864  -0.0229   0.0630  -0.1058   0.00    0.0
2026/01/15 01:21:30.000   30.531678728  114.357270658    27.7975   6   7   0.0964   0.1156   0.1843  -0.0224   0.0619  -0.1046   0.00    0.0
2026/01/15 01:23:30.000   30.531678733  114.357270670    27.7979   6   7   0.0951   0.1140   0.1820  -0.0220   0.0607  -0.1032   0.00    0.0
2026/01/15 01:25:00.000   30.531678741  114.357270637    27.7964   6   7   0.0938   0.1124   0.1797  -0.0215   0.0595  -0.1018   0.00    0.0
2026/01/15 01:26:00.000   30.531678742  114.357270620    27.7968   6   7   0.0926   0.1109   0.1774  -0.0209   0.0582  -0.1005   0.00    0.0
2026/01/15 01:27:30.000   30.531678749  114.357270597    27.7967   6   7   0.0913   0.1092   0.1750  -0.0203   0.0569  -0.0991   0.00    0.0
2026/01/15 01:30:30.000   30.531678749  114.357270585    27.7992   6   7   0.0899   0.1074   0.1723  -0.0197   0.0555  -0.0975   0.00    0.0
2026/01/15 01:32:30.000   30.531678752  114.357270566    27.7996   6   7   0.0884   0.1056   0.1696  -0.0190   0.0539  -0.0959   0.00    0.0
2026/01/15 01:36:00.000   30.531678772  114.357270532    27.7947   6   8   0.0868   0.1036   0.1666  -0.0183   0.0521  -0.0941   0.00    0.0
2026/01/15 01:37:00.000   30.531678776  114.357270499    27.7947   6   8   0.0853   0.1018   0.1638  -0.0174   0.0504  -0.0924   0.00    0.0
2026/01/15 01:38:30.000   30.531678779  114.357270455    27.7931   6   8   0.0838   0.1000   0.1610  -0.0165   0.0486  -0.0908   0.00    0.0
2026/01/15 01:39:30.000   30.531678781  114.357270427    27.7922   6   8   0.0824   0.0983   0.1583  -0.0156   0.0469  -0.0892   0.00    0.0
2026/01/15 01:42:00.000   30.531678801  114.357270389    27.7867   6   8   0.0799   0.0963   0.1538  -0.0135   0.0437  -0.0862   0.00    0.0
2026/01/15 01:44:00.000   30.531678810  114.357270355    27.7828   6   7   0.0786   0.0948   0.1511  -0.0132   0.0418  -0.0846   0.00    0.0
2026/01/15 01:44:30.000   30.531678819  114.357270341    27.7818   6   6   0.0776   0.0936   0.1487  -0.0117   0.0396  -0.0833   0.00    0.0
2026/01/15 01:45:00.000   30.531678832  114.357270311    27.7801   6   8   0.0763   0.0920   0.1462  -0.0106   0.0379  -0.0819   0.00    0.0
2026/01/15 01:45:30.000   30.531678841  114.357270275    27.7790   6   8   0.0750   0.0905   0.1439  -0.0095   0.0363  -0.0806   0.00    0.0
2026/01/15 01:47:30.000   30.531678854  114.357270223    27.7740   6   8   0.0737   0.0889   0.1415  -0.0083   0.0347  -0.0792   0.00    0.0
2026/01/15 01:48:00.000   30.531678862  114.357270188    27.7730   6   8   0.0726   0.0875   0.1393  -0.0069   0.0331  -0.0779   0.00    0.0
2026/01/15 01:48:30.000   30.531678854  114.357270176    27.7756   6   7   0.0718   0.0865   0.1379  -0.0097   0.0333  -0.0773   0.00    0.0
2026/01/15 01:49:30.000   30.531678847  114.357270164    27.7782   6   7   0.0711   0.0856   0.1364  -0.0117   0.0334  -0.0768   0.00    0.0
2026/01/15 01:51:00.000   30.531678841  114.357270154    27.7791   6   8   0.0704   0.0846   0.1349  -0.0133   0.0335  -0.0762   0.00    0.0
2026/01/15 01:51:30.000   30.531678839  114.357270140    27.7798   6   8   0.0697   0.0837   0.1335  -0.0146   0.0335  -0.0756   0.00    0.0
2026/01/15 02:57:30.000   30.531678880  114.357270320    27.7276   6   6   0.0687   0.0812   0.1320  -0.0145   0.0324  -0.0745   0.00    0.0
2026/01/15 03:21:00.000   30.531678809  114.357270401    27.7285   6   4   0.0682   0.0803   0.1313  -0.0143   0.0322  -0.0737   0.00    0.0
2026/01/15 03:25:30.000   30.531678802  114.357270404    27.7279   6   5   0.0681   0.0801   0.1311  -0.0143   0.0322  -0.0736   0.00    0.0
2026/01/15 03:29:00.000   30.531678793  114.357270411    27.7277   6   5   0.0680   0.0800   0.1310  -0.0143   0.0321  -0.0734   0.00    0.0
2026/01/15 03:45:30.000   30.531678732  114.357270363    27.7319   6   5   0.0676   0.0794   0.1304  -0.0144   0.0321  -0.0729   0.00    0.0
2026/01/15 12:41:30.000   30.531677275  114.357270392    27.7887   6   5   0.0588   0.0658   0.1169  -0.0127   0.0248  -0.0609   0.00    0.0
2026/01/15 12:56:00.000   30.531677297  114.357270300    27.7787   6   6   0.0586   0.0653   0.1167  -0.0125   0.0245  -0.0607   0.00    0.0
2026/01/15 12:56:30.000   30.531677297  114.357270295    27.7786   6   7   0.0586   0.0653   0.1167  -0.0125   0.0245  -0.0606   0.00    0.0
2026/01/15 12:57:00.000   30.531677299  114.357270297    27.7784   6   7   0.0586   0.0653   0.1166  -0.0125   0.0245  -0.0606   0.00    0.0
2026/01/15 12:57:30.000   30.531677299  114.357270292    27.7785   6   7   0.0586   0.0653   0.1166  -0.0125   0.0245  -0.0606   0.00    0.0
2026/01/15 12:58:30.000   30.531677299  114.357270285    27.7784   6   7   0.0586   0.0653   0.1166  -0.0124   0.0245  -0.0606   0.00    0.0
2026/01/15 13:00:30.000   30.531677305  114.357270272    27.7772   6   7   0.0586   0.0652   0.1166  -0.0124   0.0245  -0.0606   0.00    0.0
2026/01/15 13:03:00.000   30.531677316  114.357270257    27.7753   6   7   0.0585   0.0651   0.1165  -0.0124   0.0244  -0.0605   0.00    0.0
2026/01/15 13:04:00.000   30.531677321  114.357270256    27.7748   6   7   0.0585   0.0651   0.1165  -0.0124   0.0244  -0.0605   0.00    0.0
2026/01/15 13:05:00.000   30.531677321  114.357270252    27.7751   6   7   0.0585   0.0650   0.1165  -0.0124   0.0244  -0.0605   0.00    0.0
2026/01/15 13:06:30.000   30.531677326  114.357270237    27.7746   6   7   0.0585   0.0650   0.1164  -0.0124   0.0244  -0.0605   0.00    0.0
2026/01/15 13:07:00.000   30.531677327  114.357270233    27.7746   6   6   0.0584   0.0650   0.1164  -0.0124   0.0244  -0.0605   0.00    0.0
2026/01/15 13:09:30.000   30.531677339  114.357270218    27.7734   6   7   0.0584   0.0649   0.1163  -0.0124   0.0244  -0.0604   0.00    0.0
2026/01/15 13:10:00.000   30.531677340  114.357270212    27.7737   6   7   0.0584   0.0649   0.1163  -0.0124   0.0244  -0.0604   0.00    0.0
2026/01/15 13:12:00.000   30.531677347  114.357270195    27.7733   6   7   0.0583   0.0648   0.1162  -0.0124   0.0243  -0.0603   0.00    0.0
2026/01/15 13:12:30.000   30.531677349  114.357270190    27.7736   6   7   0.0583   0.0648   0.1162  -0.0124   0.0243  -0.0603   0.00    0.0
2026/01/15 13:13:00.000   30.531677350  114.357270187    27.7739   6   7   0.0583   0.0647   0.1161  -0.0124   0.0243  -0.0603   0.00    0.0
2026/01/15 13:14:00.000   30.531677354  114.357270176    27.7734   6   7   0.0583   0.0647   0.1161  -0.0124   0.0243  -0.0603   0.00    0.0
2026/01/15 13:14:30.000   30.531677356  114.357270169    27.7736   6   7   0.0582   0.0647   0.1160  -0.0124   0.0243  -0.0602   0.00    0.0
2026/01/15 13:15:00.000   30.531677359  114.357270167    27.7735   6   7   0.0582   0.0646   0.1159  -0.0124   0.0243  -0.0602   0.00    0.0
2026/01/15 13:15:30.000   30.531677361  114.357270162    27.7736   6   7   0.0582   0.0646   0.1159  -0.0124   0.0242  -0.0602   0.00    0.0
2026/01/15 13:17:30.000   30.531677370  114.357270146    27.7727   6   7   0.0582   0.0645   0.1158  -0.0124   0.0242  -0.0602   0.00    0.0
2026/01/15 13:18:00.000   30.531677371  114.357270145    27.7735   6   7   0.0581   0.0645   0.1157  -0.0124   0.0242  -0.0601   0.00    0.0
2026/01/15 13:18:30.000   30.531677375  114.357270145    27.7737   6   7   0.0581   0.0645   0.1157  -0.0124   0.0242  -0.0601   0.00    0.0
2026/01/15 13:19:00.000   30.531677377  114.357270144    27.7743   6   7   0.0581   0.0644   0.1156  -0.0124   0.0241  -0.0601   0.00    0.0
2026/01/15 13:19:30.000   30.531677380  114.357270143    27.7747   6   7   0.0580   0.0644   0.1155  -0.0124   0.0241  -0.0600   0.00    0.0
2026/01/15 13:20:00.000   30.531677382  114.357270139    27.7750   6   7   0.0580   0.0644   0.1155  -0.0123   0.0241  -0.0600   0.00    0.0
2026/01/15 13:20:30.000   30.531677383  114.357270137    27.7754   6   7   0.0580   0.0644   0.1154  -0.0123   0.0241  -0.0600   0.00    0.0
2026/01/15 13:21:00.000   30.531677385  114.357270138    27.7760   6   8   0.0580   0.0643   0.1154  -0.0123   0.0240  -0.0600   0.00    0.0
2026/01/15 13:21:30.000   30.531677387  114.357270136    27.7766   6   8   0.0579   0.0643   0.1153  -0.0123   0.0240  -0.0599   0.00    0.0
2026/01/15 13:22:00.000   30.531677387  114.357270134    27.7772   6   8   0.0579   0.0643   0.1152  -0.0123   0.0240  -0.0599   0.00    0.0
2026/01/15 13:22:30.000   30.531677387  114.357270132    27.7777   6   8   0.0579   0.0642   0.1151  -0.0123   0.0239  -0.0599   0.00    0.0
2026/01/15 13:23:00.000   30.531677390  114.357270128    27.7781   6   8   0.0578   0.0642   0.1151  -0.0123   0.0239  -0.0598   0.00    0.0
2026/01/15 13:23:30.000   30.531677393  114.357270123    27.7783   6   8   0.0578   0.0641   0.1150  -0.0123   0.0239  -0.0598   0.00    0.0
2026/01/15 13:24:00.000   30.531677395  114.357270118    27.7787   6   8   0.0578   0.0641   0.1149  -0.0123   0.0238  -0.0598   0.00    0.0
2026/01/15 13:25:00.000   30.531677399  114.357270118    27.7789   6   9   0.0577   0.0641   0.1148  -0.0122   0.0238  -0.0597   0.00    0.0
2026/01/15 13:26:00.000   30.531677406  114.357270116    27.7788   6   9   0.0577   0.0640   0.1147  -0.0122   0.0237  -0.0597   0.00    0.0
2026/01/15 13:26:30.000   30.531677407  114.357270117    27.7796   6   9   0.0577   0.0640   0.1146  -0.0122   0.0237  -0.0597   0.00    0.0
2026/01/15 13:27:00.000   30.531677408  114.357270117    27.7803   6   9   0.0576   0.0639   0.1146  -0.0122   0.0236  -0.0596   0.00    0.0
2026/01/15 13:27:30.000   30.531677411  114.357270120    27.7808   6   9   0.0576   0.0639   0.1145  -0.0121   0.0236  -0.0596   0.00    0.0
2026/01/15 13:28:00.000   30.531677412  114.357270118    27.7817   6   9   0.0575   0.0638   0.1144  -0.0121   0.0235  -0.0595   0.00    0.0
2026/01/15 13:28:30.000   30.531677414  114.357270117    27.7826   6   9   0.0575   0.0638   0.1143  -0.0121   0.0234  -0.0595   0.00    0.0
2026/01/15 13:29:00.000   30.531677417  114.357270114    27.7833   6   9   0.0575   0.0638   0.1142  -0.0120   0.0234  -0.0595   0.00    0.0
2026/01/15 13:29:30.000   30.531677422  114.357270120    27.7840   6   9   0.0574   0.0637   0.1141  -0.0120   0.0233  -0.0594   0.00    0.0
2026/01/15 13:30:00.000   30.531677426  114.357270121    27.7843   6   9   0.0574   0.0637   0.1140  -0.0120   0.0232  -0.0594   0.00    0.0
2026/01/15 13:30:30.000   30.531677430  114.357270119    27.7850   6   9   0.0573   0.0636   0.1139  -0.0119   0.0231  -0.0593   0.00    0.0
2026/01/15 13:31:00.000   30.531677433  114.357270122    27.7854   6   9   0.0573   0.0636   0.1137  -0.0119   0.0231  -0.0593   0.00    0.0
2026/01/15 13:31:30.000   30.531677436  114.357270123    27.7862   6   9   0.0572   0.0635   0.1136  -0.0119   0.0230  -0.0592   0.00    0.0
2026/01/15 13:32:00.000   30.531677439  114.357270124    27.7868   6   9   0.0572   0.0635   0.1135  -0.0118   0.0229  -0.0592   0.00    0.0
2026/01/15 13:32:30.000   30.531677442  114.357270121    27.7865   6   5   0.0572   0.0635   0.1135  -0.0118   0.0228  -0.0591   0.00    0.0
2026/01/15 13:33:00.000   30.531677448  114.357270119    27.7864   6   9   0.0571   0.0634   0.1133  -0.0117   0.0227  -0.0591   0.00    0.0
2026/01/15 13:33:30.000   30.531677450  114.357270117    27.7875   6   9   0.0571   0.0634   0.1132  -0.0117   0.0227  -0.0590   0.00    0.0
2026/01/15 13:34:00.000   30.531677453  114.357270114    27.7884   6   9   0.0570   0.0633   0.1131  -0.0116   0.0226  -0.0590   0.00    0.0
2026/01/15 13:34:30.000   30.531677457  114.357270117    27.7892   6   8   0.0570   0.0633   0.1130  -0.0116   0.0225  -0.0590   0.00    0.0
2026/01/15 13:35:30.000   30.531677461  114.357270116    27.7898   6   8   0.0569   0.0632   0.1128  -0.0115   0.0223  -0.0589   0.00    0.0
2026/01/15 13:36:00.000   30.531677465  114.357270115    27.7906   6   8   0.0569   0.0631   0.1127  -0.0115   0.0222  -0.0588   0.00    0.0
2026/01/15 13:36:30.000   30.531677467  114.357270113    27.7918   6   8   0.0568   0.0631   0.1126  -0.0114   0.0221  -0.0588   0.00    0.0
2026/01/15 13:37:00.000   30.531677469  114.357270112    27.7929   6   8   0.0567   0.0630   0.1124  -0.0114   0.0220  -0.0587   0.00    0.0
2026/01/15 13:37:30.000   30.531677470  114.357270111    27.7944   6   8   0.0567   0.0630   0.1123  -0.0113   0.0219  -0.0587   0.00    0.0
2026/01/15 13:38:00.000   30.531677472  114.357270112    27.7959   6   8   0.0566   0.0629   0.1121  -0.0112   0.0217  -0.0586   0.00    0.0
2026/01/15 13:38:30.000   30.531677474  114.357270111    27.7970   6   8   0.0566   0.0628   0.1120  -0.0112   0.0216  -0.0585   0.00    0.0
2026/01/15 13:39:00.000   30.531677475  114.357270108    27.7983   6   8   0.0565   0.0628   0.1118  -0.0111   0.0214  -0.0585   0.00    0.0
2026/01/15 13:40:00.000   30.531677482  114.357270104    27.7987   6   8   0.0564   0.0627   0.1117  -0.0110   0.0213  -0.0584   0.00    0.0
2026/01/15 13:40:30.000   30.531677488  114.357270102    27.7994   6   8   0.0564   0.0627   0.1115  -0.0109   0.0211  -0.0584   0.00    0.0
2026/01/15 13:41:00.000   30.531677489  114.357270100    27.8012   6   8   0.0563   0.0626   0.1113  -0.0108   0.0210  -0.0583   0.00    0.0
2026/01/15 13:41:30.000   30.531677494  114.357270099    27.8024   6   8   0.0562   0.0625   0.1112  -0.0108   0.0208  -0.0582   0.00    0.0
2026/01/15 13:42:00.000   30.531677497  114.357270100    27.8036   6   8   0.0562   0.0625   0.1110  -0.0107   0.0206  -0.0582   0.00    0.0
2026/01/15 13:42:30.000   30.531677501  114.357270099    27.8048   6   8   0.0561   0.0624   0.1108  -0.0106   0.0204  -0.0581   0.00    0.0
2026/01/15 13:43:00.000   30.531677504  114.357270097    27.8063   6   8   0.0560   0.0623   0.1106  -0.0105   0.0202  -0.0580   0.00    0.0
2026/01/15 13:43:30.000   30.531677508  114.357270095    27.8069   6   8   0.0559   0.0623   0.1105  -0.0104   0.0200  -0.0579   0.00    0.0
2026/01/15 13:44:00.000   30.531677514  114.357270096    27.8073   6   8   0.0559   0.0622   0.1103  -0.0103   0.0198  -0.0579   0.00    0.0
2026/01/15 13:44:30.000   30.531677519  114.357270095    27.8080   6   8   0.0558   0.0621   0.1101  -0.0102   0.0196  -0.0578   0.00    0.0
2026/01/15 13:45:00.000   30.531677526  114.357270093    27.8086   6   9   0.0557   0.0621   0.1099  -0.0101   0.0194  -0.0577   0.00    0.0
2026/01/15 13:45:30.000   30.531677531  114.357270092    27.8096   6   9   0.0556   0.0620   0.1097  -0.0099   0.0192  -0.0577   0.00    0.0
2026/01/15 13:46:00.000   30.531677536  114.357270090    27.8106   6   9   0.0556   0.0619   0.1095  -0.0098   0.0190  -0.0576   0.00    0.0
2026/01/15 13:46:30.000   30.531677541  114.357270092    27.8117   6   9   0.0555   0.0618   0.1093  -0.0097   0.0187  -0.0575   0.00    0.0
2026/01/15 13:47:00.000   30.531677549  114.357270092    27.8124   6   9   0.0554   0.0618   0.1092  -0.0096   0.0185  -0.0574   0.00    0.0
2026/01/15 13:47:30.000   30.531677553  114.357270091    27.8135   6   9   0.0553   0.0617   0.1090  -0.0095   0.0182  -0.0573   0.00    0.0
2026/01/15 13:48:00.000   30.531677559  114.357270090    27.8146   6   9   0.0552   0.0616   0.1088  -0.0093   0.0180  -0.0573   0.00    0.0
2026/01/15 13:48:30.000   30.531677565  114.357270086    27.8155   6   9   0.0551   0.0616   0.1085  -0.0092   0.0177  -0.0572   0.00    0.0
2026/01/15 13:49:00.000   30.531677570  114.357270087    27.8167   6   9   0.0551   0.0615   0.1083  -0.0090   0.0174  -0.0571   0.00    0.0
2026/01/15 13:49:30.000   30.531677577  114.357270087    27.8177   6   9   0.0550   0.0614   0.1081  -0.0089   0.0172  -0.0570   0.00    0.0
2026/01/15 13:50:00.000   30.531677582  114.357270084    27.8191   6   9   0.0549   0.0613   0.1079  -0.0087   0.0169  -0.0569   0.00    0.0
2026/01/15 13:50:30.000   30.531677588  114.357270083    27.8205   6   9   0.0548   0.0612   0.1077  -0.0086   0.0166  -0.0568   0.00    0.0
2026/01/15 13:51:00.000   30.531677596  114.357270082    27.8209   6   9   0.0547   0.0612   0.1075  -0.0084   0.0163  -0.0567   0.00    0.0
2026/01/15 13:51:30.000   30.531677603  114.357270082    27.8215   6   9   0.0546   0.0611   0.1073  -0.0083   0.0159  -0.0567   0.00    0.0
2026/01/15 13:52:00.000   30.531677610  114.357270078    27.8227   6   7   0.0545   0.0610   0.1071  -0.0081   0.0157  -0.0566   0.00    0.0
2026/01/15 13:52:30.000   30.531677616  114.357270078    27.8239   6   8   0.0544   0.0609   0.1069  -0.0079   0.0155  -0.0565   0.00    0.0
2026/01/15 13:53:00.000   30.531677622  114.357270081    27.8250   6   8   0.0543   0.0609   0.1068  -0.0077   0.0153  -0.0564   0.00    0.0
2026/01/15 13:53:30.000   30.531677629  114.357270082    27.8260   6   8   0.0542   0.0608   0.1066  -0.0076   0.0150  -0.0563   0.00    0.0
2026/01/15 13:54:00.000   30.531677635  114.357270080    27.8271   6   8   0.0542   0.0607   0.1065  -0.0074   0.0148  -0.0562   0.00    0.0
2026/01/15 13:54:30.000   30.531677643  114.357270078    27.8278   6   8   0.0541   0.0607   0.1063  -0.0072   0.0145  -0.0561   0.00    0.0
2026/01/15 13:55:00.000   30.531677650  114.357270078    27.8289   6   8   0.0540   0.0606   0.1061  -0.0070   0.0142  -0.0560   0.00    0.0
2026/01/15 13:55:30.000   30.531677657  114.357270077    27.8299   6   8   0.0539   0.0605   0.1059  -0.0067   0.0139  -0.0560   0.00    0.0
2026/01/15 13:56:00.000   30.531677666  114.357270077    27.8304   6   8   0.0538   0.0604   0.1058  -0.0065   0.0136  -0.0559   0.00    0.0
2026/01/15 13:56:30.000   30.531677676  114.357270078    27.8312   6   8   0.0537   0.0603   0.1056  -0.0063   0.0133  -0.0558   0.00    0.0
2026/01/15 13:57:00.000   30.531677684  114.357270078    27.8321   6   8   0.0536   0.0603   0.1054  -0.0060   0.0130  -0.0557   0.00    0.0
2026/01/15 13:57:30.000   30.531677694  114.357270075    27.8325   6   8   0.0535   0.0602   0.1052  -0.0058   0.0127  -0.0556   0.00    0.0
2026/01/15 13:58:00.000   30.531677704  114.357270075    27.8328   6   8   0.0534   0.0601   0.1050  -0.0055   0.0123  -0.0555   0.00    0.0
2026/01/15 13:58:30.000   30.531677712  114.357270076    27.8336   6   8   0.0532   0.0600   0.1049  -0.0052   0.0120  -0.0554   0.00    0.0
2026/01/15 13:59:00.000   30.531677723  114.357270074    27.8339   6   8   0.0531   0.0600   0.1047  -0.0049   0.0116  -0.0553   0.00    0.0
2026/01/15 13:59:30.000   30.531677733  114.357270071    27.8343   6   8   0.0530   0.0599   0.1045  -0.0045   0.0112  -0.0552   0.00    0.0
2026/01/15 14:00:00.000   30.531677743  114.357270065    27.8346   6   8   0.0529   0.0598   0.1043  -0.0041   0.0108  -0.0551   0.00    0.0
2026/01/15 14:00:30.000   30.531677752  114.357270061    27.8352   6   9   0.0528   0.0597   0.1041  -0.0037   0.0103  -0.0550   0.00    0.0
2026/01/15 14:01:00.000   30.531677761  114.357270058    27.8359   6   9   0.0527   0.0596   0.1039  -0.0032   0.0099  -0.0549   0.00    0.0
2026/01/15 14:01:30.000   30.531677771  114.357270052    27.8364   6   9   0.0526   0.0595   0.1037  -0.0026   0.0094  -0.0548   0.00    0.0
2026/01/15 14:02:00.000   30.531677781  114.357270048    27.8369   6   9   0.0525   0.0595   0.1035  -0.0019   0.0088  -0.0547   0.00    0.0
2026/01/15 14:02:30.000   30.531677789  114.357270049    27.8377   6   9   0.0524   0.0594   0.1033  -0.0003   0.0082  -0.0546   0.00    0.0
2026/01/15 14:03:00.000   30.531677798  114.357270047    27.8384   6   9   0.0523   0.0593   0.1031   0.0019   0.0076  -0.0545   0.00    0.0
2026/01/15 14:03:30.000   30.531677807  114.357270047    27.8389   6   9   0.0521   0.0592   0.1029   0.0026   0.0069  -0.0544   0.00    0.0
2026/01/15 14:04:00.000   30.531677817  114.357270045    27.8395   6   9   0.0520   0.0591   0.1027   0.0032   0.0061  -0.0543   0.00    0.0
2026/01/15 14:04:30.000   30.531677826  114.357270045    27.8403   6   9   0.0519   0.0590   0.1024   0.0038   0.0052  -0.0541   0.00    0.0
2026/01/15 14:05:00.000   30.531677837  114.357270042    27.8405   6   9   0.0518   0.0590   0.1022   0.0042   0.0041  -0.0540   0.00    0.0
2026/01/15 14:05:30.000   30.531677847  114.357270040    27.8410   6   9   0.0517   0.0589   0.1020   0.0046   0.0025  -0.0539   0.00    0.0
2026/01/15 14:06:00.000   30.531677855  114.357270040    27.8418   6   9   0.0516   0.0588   0.1018   0.0050  -0.0021  -0.0538   0.00    0.0
2026/01/15 14:06:30.000   30.531677865  114.357270038    27.8426   6   9   0.0514   0.0587   0.1016   0.0053  -0.0039  -0.0537   0.00    0.0
2026/01/15 14:07:00.000   30.531677874  114.357270034    27.8432   6   9   0.0513   0.0586   0.1013   0.0057  -0.0051  -0.0536   0.00    0.0
2026/01/15 14:07:30.000   30.531677885  114.357270035    27.8437   6   9   0.0512   0.0585   0.1011   0.0060  -0.0061  -0.0535   0.00    0.0
2026/01/15 14:08:00.000   30.531677894  114.357270035    27.8445   6   9   0.0511   0.0584   0.1009   0.0063  -0.0069  -0.0534   0.00    0.0
2026/01/15 14:08:30.000   30.531677905  114.357270031    27.8445   6   9   0.0510   0.0584   0.1007   0.0066  -0.0077  -0.0532   0.00    0.0
2026/01/15 14:09:00.000   30.531677913  114.357270034    27.8455   6   9   0.0509   0.0583   0.1005   0.0066  -0.0079  -0.0532   0.00    0.0
2026/01/15 14:09:30.000   30.531677920  114.357270034    27.8464   6   9   0.0508   0.0582   0.1004   0.0066  -0.0081  -0.0532   0.00    0.0
2026/01/15 14:10:00.000   30.531677927  114.357270036    27.8477   6   9   0.0507   0.0582   0.1003   0.0065  -0.0083  -0.0532   0.00    0.0
2026/01/15 14:10:30.000   30.531677932  114.357270034    27.8491   6   8   0.0507   0.0581   0.1002   0.0065  -0.0085  -0.0532   0.00    0.0
2026/01/15 14:11:00.000   30.531677937  114.357270034    27.8504   6   9   0.0506   0.0580   0.1001   0.0065  -0.0086  -0.0532   0.00    0.0
2026/01/15 14:11:30.000   30.531677943  114.357270035    27.8516   6   8   0.0505   0.0580   0.0999   0.0065  -0.0088  -0.0532   0.00    0.0
2026/01/15 14:12:00.000   30.531677949  114.357270035    27.8530   6   8   0.0504   0.0579   0.0998   0.0065  -0.0090  -0.0531   0.00    0.0
2026/01/15 14:13:00.000   30.531677957  114.357270034    27.8540   6   8   0.0504   0.0578   0.0997   0.0065  -0.0092  -0.0531   0.00    0.0
2026/01/15 14:13:30.000   30.531677960  114.357270035    27.8541   6   5   0.0503   0.0578   0.0996   0.0066  -0.0093  -0.0531   0.00    0.0
2026/01/15 14:14:00.000   30.531677968  114.357270038    27.8554   6   8   0.0502   0.0577   0.0995   0.0066  -0.0095  -0.0531   0.00    0.0
2026/01/15 14:14:30.000   30.531677975  114.357270041    27.8570   6   8   0.0502   0.0576   0.0993   0.0066  -0.0097  -0.0530   0.00    0.0
2026/01/15 14:15:00.000   30.531677982  114.357270042    27.8583   6   8   0.0501   0.0576   0.0992   0.0065  -0.0099  -0.0530   0.00    0.0
2026/01/15 14:15:30.000   30.531677989  114.357270043    27.8592   6   8   0.0500   0.0575   0.0990   0.0065  -0.0101  -0.0530   0.00    0.0
2026/01/15 14:16:00.000   30.531677996  114.357270045    27.8604   6   8   0.0499   0.0574   0.0989   0.0065  -0.0103  -0.0530   0.00    0.0
2026/01/15 14:16:30.000   30.531678003  114.357270045    27.8615   6   8   0.0498   0.0574   0.0987   0.0065  -0.0105  -0.0529   0.00    0.0
2026/01/15 14:17:00.000   30.531678011  114.357270049    27.8629   6   8   0.0498   0.0573   0.0986   0.0065  -0.0107  -0.0529   0.00    0.0
2026/01/15 14:17:30.000   30.531678018  114.357270050    27.8643   6   8   0.0497   0.0572   0.0984   0.0065  -0.0109  -0.0529   0.00    0.0
2026/01/15 14:18:00.000   30.531678025  114.357270051    27.8657   6   8   0.0496   0.0571   0.0983   0.0065  -0.0111  -0.0528   0.00    0.0
2026/01/15 14:18:30.000   30.531678032  114.357270055    27.8673   6   8   0.0495   0.0571   0.0981   0.0066  -0.0113  -0.0528   0.00    0.0
2026/01/15 14:19:00.000   30.531678039  114.357270057    27.8686   6   8   0.0494   0.0570   0.0980   0.0066  -0.0115  -0.0528   0.00    0.0
2026/01/15 14:19:30.000   30.531678044  114.357270058    27.8700   6   8   0.0493   0.0569   0.0978   0.0066  -0.0117  -0.0527   0.00    0.0
2026/01/15 14:20:00.000   30.531678050  114.357270061    27.8713   6   8   0.0492   0.0569   0.0976   0.0066  -0.0119  -0.0527   0.00    0.0
2026/01/15 14:20:30.000   30.531678057  114.357270063    27.8726   6   8   0.0491   0.0568   0.0975   0.0066  -0.0121  -0.0527   0.00    0.0
2026/01/15 14:21:00.000   30.531678064  114.357270063    27.8739   6   8   0.0490   0.0567   0.0973   0.0066  -0.0123  -0.0526   0.00    0.0
2026/01/15 14:21:30.000   30.531678071  114.357270066    27.8747   6   8   0.0490   0.0566   0.0971   0.0066  -0.0125  -0.0526   0.00    0.0
2026/01/15 14:22:00.000   30.531678078  114.357270067    27.8757   6   8   0.0489   0.0566   0.0969   0.0066  -0.0127  -0.0525   0.00    0.0
2026/01/15 14:22:30.000   30.531678084  114.357270068    27.8766   6   8   0.0488   0.0565   0.0968   0.0066  -0.0129  -0.0525   0.00    0.0
2026/01/15 14:23:00.000   30.531678091  114.357270068    27.8773   6   8   0.0487   0.0564   0.0966   0.0066  -0.0131  -0.0524   0.00    0.0
2026/01/15 14:23:30.000   30.531678097  114.357270068    27.8782   6   8   0.0486   0.0564   0.0964   0.0066  -0.0133  -0.0524   0.00    0.0
2026/01/15 14:24:00.000   30.531678104  114.357270069    27.8785   6   8   0.0485   0.0563   0.0962   0.0066  -0.0134  -0.0523   0.00    0.0
2026/01/15 14:24:30.000   30.531678110  114.357270069    27.8793   6   8   0.0484   0.0562   0.0960   0.0067  -0.0136  -0.0523   0.00    0.0
2026/01/15 14:25:00.000   30.531678116  114.357270070    27.8802   6   8   0.0483   0.0561   0.0958   0.0067  -0.0138  -0.0522   0.00    0.0
2026/01/15 14:25:30.000   30.531678123  114.357270071    27.8808   6   8   0.0482   0.0561   0.0956   0.0067  -0.0140  -0.0522   0.00    0.0
2026/01/15 14:26:00.000   30.531678128  114.357270074    27.8815   6   8   0.0481   0.0560   0.0954   0.0067  -0.0142  -0.0521   0.00    0.0
2026/01/15 14:26:30.000   30.531678134  114.357270074    27.8823   6   8   0.0480   0.0559   0.0952   0.0067  -0.0144  -0.0520   0.00    0.0
2026/01/15 14:27:00.000   30.531678141  114.357270075    27.8828   6   8   0.0479   0.0558   0.0950   0.0067  -0.0145  -0.0520   0.00    0.0
2026/01/15 14:27:30.000   30.531678148  114.357270075    27.8833   6   8   0.0478   0.0558   0.0948   0.0068  -0.0147  -0.0519   0.00    0.0
2026/01/15 14:28:00.000   30.531678154  114.357270077    27.8840   6   8   0.0477   0.0557   0.0946   0.0068  -0.0149  -0.0518   0.00    0.0
2026/01/15 14:28:30.000   30.531678160  114.357270078    27.8846   6   8   0.0476   0.0556   0.0944   0.0068  -0.0151  -0.0518   0.00    0.0
2026/01/15 14:29:00.000   30.531678166  114.357270077    27.8852   6   8   0.0475   0.0555   0.0942   0.0068  -0.0152  -0.0517   0.00    0.0
2026/01/15 14:29:30.000   30.531678172  114.357270074    27.8857   6   8   0.0474   0.0555   0.0940   0.0068  -0.0154  -0.0516   0.00    0.0
2026/01/15 14:30:00.000   30.531678177  114.357270074    27.8863   6   8   0.0473   0.0554   0.0938   0.0068  -0.0156  -0.0515   0.00    0.0
2026/01/15 14:30:30.000   30.531678182  114.357270073    27.8869   6   8   0.0472   0.0553   0.0935   0.0069  -0.0157  -0.0515   0.00    0.0
2026/01/15 14:31:30.000   30.531678189  114.357270072    27.8871   6   8   0.0471   0.0552   0.0933   0.0069  -0.0159  -0.0514   0.00    0.0
2026/01/15 14:32:00.000   30.531678196  114.357270073    27.8874   6   8   0.0470   0.0551   0.0931   0.0069  -0.0161  -0.0513   0.00    0.0
2026/01/15 14:32:30.000   30.531678200  114.357270073    27.8878   6   8   0.0468   0.0551   0.0928   0.0069  -0.0162  -0.0512   0.00    0.0
2026/01/15 14:33:00.000   30.531678206  114.357270073    27.8879   6   8   0.0467   0.0550   0.0926   0.0069  -0.0164  -0.0511   0.00    0.0
2026/01/15 14:33:30.000   30.531678211  114.357270071    27.8885   6   8   0.0466   0.0549   0.0924   0.0070  -0.0166  -0.0510   0.00    0.0
2026/01/15 14:34:00.000   30.531678216  114.357270072    27.8891   6   7   0.0465   0.0548   0.0922   0.0069  -0.0165  -0.0510   0.00    0.0
2026/01/15 14:34:30.000   30.531678222  114.357270072    27.8895   6   6   0.0464   0.0548   0.0921   0.0069  -0.0165  -0.0509   0.00    0.0
2026/01/15 14:35:00.000   30.531678226  114.357270071    27.8901   6   7   0.0463   0.0547   0.0920   0.0069  -0.0165  -0.0509   0.00    0.0
2026/01/15 14:35:30.000   30.531678232  114.357270071    27.8906   6   7   0.0462   0.0547   0.0919   0.0069  -0.0165  -0.0508   0.00    0.0
2026/01/15 14:36:00.000   30.531678236  114.357270068    27.8910   6   7   0.0461   0.0546   0.0917   0.0069  -0.0165  -0.0507   0.00    0.0
2026/01/15 14:36:30.000   30.531678240  114.357270067    27.8912   6   7   0.0460   0.0546   0.0916   0.0069  -0.0165  -0.0507   0.00    0.0
2026/01/15 14:37:00.000   30.531678245  114.357270066    27.8915   6   7   0.0459   0.0545   0.0915   0.0069  -0.0165  -0.0506   0.00    0.0
2026/01/15 14:38:30.000   30.531678250  114.357270062    27.8917   6   7   0.0458   0.0545   0.0913   0.0068  -0.0165  -0.0505   0.00    0.0
2026/01/15 14:39:30.000   30.531678256  114.357270064    27.8919   6   7   0.0456   0.0544   0.0911   0.0068  -0.0165  -0.0505   0.00    0.0
2026/01/15 14:40:00.000   30.531678260  114.357270061    27.8922   6   7   0.0455   0.0543   0.0910   0.0068  -0.0165  -0.0504   0.00    0.0
2026/01/15 14:41:00.000   30.531678265  114.357270062    27.8924   6   7   0.0454   0.0543   0.0908   0.0068  -0.0164  -0.0503   0.00    0.0
2026/01/15 14:41:30.000   30.531678269  114.357270063    27.8928   6   7   0.0453   0.0542   0.0906   0.0068  -0.0164  -0.0502   0.00    0.0
2026/01/15 14:42:30.000   30.531678274  114.357270061    27.8930   6   7   0.0452   0.0542   0.0905   0.0067  -0.0164  -0.0501   0.00    0.0
2026/01/15 14:43:00.000   30.531678277  114.357270058    27.8932   6   7   0.0451   0.0541   0.0903   0.0067  -0.0164  -0.0500   0.00    0.0
2026/01/15 14:44:00.000   30.531678281  114.357270057    27.8934   6   7   0.0449   0.0540   0.0901   0.0067  -0.0164  -0.0500   0.00    0.0
2026/01/15 14:44:30.000   30.531678285  114.357270056    27.8937   6   7   0.0448   0.0540   0.0899   0.0066  -0.0163  -0.0499   0.00    0.0
2026/01/15 14:45:00.000   30.531678288  114.357270053    27.8941   6   7   0.0447   0.0539   0.0897   0.0066  -0.0163  -0.0498   0.00    0.0
2026/01/15 14:46:30.000   30.531678293  114.357270052    27.8944   6   8   0.0445   0.0538   0.0895   0.0066  -0.0163  -0.0497   0.00    0.0
2026/01/15 14:47:00.000   30.531678297  114.357270048    27.8948   6   8   0.0444   0.0538   0.0893   0.0066  -0.0163  -0.0496   0.00    0.0
2026/01/15 14:47:30.000   30.531678301  114.357270046    27.8951   6   8   0.0443   0.0537   0.0891   0.0065  -0.0163  -0.0495   0.00    0.0
2026/01/15 14:48:00.000   30.531678303  114.357270041    27.8955   6   8   0.0442   0.0537   0.0889   0.0065  -0.0162  -0.0494   0.00    0.0
2026/01/15 14:48:30.000   30.531678306  114.357270038    27.8959   6   8   0.0440   0.0536   0.0887   0.0065  -0.0162  -0.0493   0.00    0.0
2026/01/15 14:49:00.000   30.531678309  114.357270034    27.8961   6   8   0.0439   0.0535   0.0884   0.0064  -0.0162  -0.0491   0.00    0.0
2026/01/15 14:49:30.000   30.531678310  114.357270033    27.8965   6   8   0.0438   0.0535   0.0882   0.0064  -0.0161  -0.0490   0.00    0.0
2026/01/15 14:50:00.000   30.531678311  114.357270028    27.8969   6   8   0.0436   0.0534   0.0880   0.0064  -0.0161  -0.0489   0.00    0.0
2026/01/15 14:50:30.000   30.531678313  114.357270025    27.8970   6   8   0.0435   0.0534   0.0878   0.0063  -0.0161  -0.0488   0.00    0.0
2026/01/15 14:51:00.000   30.531678315  114.357270024    27.8973   6   8   0.0434   0.0533   0.0876   0.0063  -0.0161  -0.0487   0.00    0.0
2026/01/15 14:51:30.000   30.531678317  114.357270022    27.8974   6   8   0.0432   0.0532   0.0873   0.0062  -0.0160  -0.0486   0.00    0.0
2026/01/15 14:52:00.000   30.531678318  114.357270019    27.8977   6   8   0.0431   0.0532   0.0871   0.0062  -0.0160  -0.0485   0.00    0.0
2026/01/15 14:52:30.000   30.531678320  114.357270017    27.8981   6   8   0.0430   0.0531   0.0869   0.0061  -0.0160  -0.0484   0.00    0.0
2026/01/15 14:53:00.000   30.531678321  114.357270015    27.8987   6   8   0.0429   0.0531   0.0867   0.0061  -0.0159  -0.0482   0.00    0.0
2026/01/15 14:53:30.000   30.531678323  114.357270015    27.8994   6   8   0.0427   0.0530   0.0864   0.0060  -0.0159  -0.0481   0.00    0.0
2026/01/15 14:54:00.000   30.531678325  114.357270017    27.8997   6   8   0.0426   0.0529   0.0862   0.0060  -0.0158  -0.0480   0.00    0.0
2026/01/15 14:54:30.000   30.531678327  114.357270017    27.9001   6   8   0.0425   0.0529   0.0860   0.0059  -0.0158  -0.0479   0.00    0.0
2026/01/15 14:55:00.000   30.531678329  114.357270014    27.9005   6   8   0.0423   0.0528   0.0857   0.0059  -0.0158  -0.0478   0.00    0.0
2026/01/15 14:55:30.000   30.531678332  114.357270011    27.9011   6   8   0.0422   0.0528   0.0855   0.0058  -0.0157  -0.0477   0.00    0.0
2026/01/15 14:57:00.000   30.531678333  114.357270010    27.9013   6   8   0.0420   0.0527   0.0852   0.0057  -0.0157  -0.0475   0.00    0.0
2026/01/15 14:57:30.000   30.531678335  114.357270008    27.9023   6   7   0.0419   0.0526   0.0850   0.0056  -0.0155  -0.0474   0.00    0.0
2026/01/15 14:58:00.000   30.531678339  114.357270007    27.9030   6   7   0.0418   0.0526   0.0848   0.0056  -0.0154  -0.0473   0.00    0.0
2026/01/15 14:58:30.000   30.531678341  114.357270006    27.9038   6   7   0.0417   0.0525   0.0845   0.0056  -0.0153  -0.0471   0.00    0.0
2026/01/15 14:59:00.000   30.531678344  114.357270007    27.9047   6   7   0.0415   0.0525   0.0843   0.0056  -0.0151  -0.0470   0.00    0.0
2026/01/15 14:59:30.000   30.531678346  114.357270006    27.9058   6   7   0.0414   0.0524   0.0841   0.0056  -0.0150  -0.0468   0.00    0.0
2026/01/15 15:00:00.000   30.531678348  114.357270007    27.9069   6   7   0.0413   0.0524   0.0839   0.0055  -0.0148  -0.0467   0.00    0.0
2026/01/15 15:00:30.000   30.531678351  114.357270007    27.9078   6   7   0.0411   0.0523   0.0836   0.0055  -0.0146  -0.0465   0.00    0.0
2026/01/15 15:01:00.000   30.531678354  114.357270005    27.9088   6   7   0.0410   0.0523   0.0834   0.0055  -0.0145  -0.0464   0.00    0.0
2026/01/15 15:01:30.000   30.531678356  114.357270002    27.9097   6   7   0.0409   0.0522   0.0832   0.0054  -0.0143  -0.0462   0.00    0.0
2026/01/15 15:02:00.000   30.531678358  114.357270001    27.9106   6   7   0.0408   0.0522   0.0829   0.0054  -0.0141  -0.0460   0.00    0.0
2026/01/15 15:02:30.000   30.531678360  114.357269999    27.9115   6   7   0.0406   0.0521   0.0827   0.0053  -0.0140  -0.0459   0.00    0.0
2026/01/15 15:03:00.000   30.531678362  114.357270000    27.9125   6   7   0.0405   0.0521   0.0825   0.0053  -0.0138  -0.0457   0.00    0.0
2026/01/15 15:03:30.000   30.531678363  114.357270000    27.9135   6   7   0.0404   0.0520   0.0822   0.0052  -0.0136  -0.0456   0.00    0.0
2026/01/15 15:04:00.000   30.531678365  114.357269999    27.9146   6   7   0.0402   0.0520   0.0820   0.0052  -0.0134  -0.0454   0.00    0.0
2026/01/15 15:04:30.000   30.531678366  114.357269998    27.9155   6   7   0.0401   0.0519   0.0817   0.0051  -0.0133  -0.0453   0.00    0.0
2026/01/15 15:05:00.000   30.531678367  114.357269995    27.9163   6   7   0.0400   0.0519   0.0815   0.0050  -0.0131  -0.0451   0.00    0.0
2026/01/15 15:05:30.000   30.531678369  114.357269995    27.9172   6   7   0.0399   0.0518   0.0813   0.0050  -0.0129  -0.0450   0.00    0.0
2026/01/15 15:06:00.000   30.531678370  114.357269994    27.9181   6   7   0.0397   0.0518   0.0810   0.0049  -0.0127  -0.0448   0.00    0.0
2026/01/15 15:06:30.000   30.531678371  114.357269994    27.9191   6   7   0.0396   0.0517   0.0808   0.0048  -0.0125  -0.0447   0.00    0.0
2026/01/15 15:07:00.000   30.531678372  114.357269992    27.9203   6   7   0.0395   0.0517   0.0805   0.0047  -0.0123  -0.0445   0.00    0.0
2026/01/15 15:07:30.000   30.531678372  114.357269991    27.9213   6   7   0.0393   0.0516   0.0803   0.0046  -0.0121  -0.0444   0.00    0.0
2026/01/15 15:08:00.000   30.531678372  114.357269991    27.9224   6   7   0.0392   0.0516   0.0800   0.0045  -0.0119  -0.0442   0.00    0.0
2026/01/15 15:08:30.000   30.531678373  114.357269990    27.9235   6   7   0.0391   0.0515   0.0798   0.0044  -0.0117  -0.0440   0.00    0.0
2026/01/15 15:09:00.000   30.531678374  114.357269990    27.9245   6   7   0.0390   0.0515   0.0795   0.0043  -0.0114  -0.0439   0.00    0.0
2026/01/15 15:09:30.000   30.531678375  114.357269989    27.9255   6   7   0.0388   0.0514   0.0793   0.0042  -0.0112  -0.0437   0.00    0.0
2026/01/15 15:10:00.000   30.531678376  114.357269986    27.9264   6   7   0.0387   0.0514   0.0791   0.0040  -0.0110  -0.0436   0.00    0.0
2026/01/15 15:10:30.000   30.531678377  114.357269983    27.9273   6   7   0.0386   0.0513   0.0788   0.0039  -0.0107  -0.0434   0.00    0.0
2026/01/15 15:11:00.000   30.531678377  114.357269982    27.9283   6   7   0.0385   0.0513   0.0786   0.0038  -0.0105  -0.0433   0.00    0.0
2026/01/15 15:11:30.000   30.531678377  114.357269980    27.9294   6   7   0.0383   0.0512   0.0783   0.0036  -0.0102  -0.0431   0.00    0.0
2026/01/15 15:12:00.000   30.531678377  114.357269979    27.9305   6   7   0.0382   0.0512   0.0781   0.0034  -0.0100  -0.0430   0.00    0.0
2026/01/15 15:13:00.000   30.531678378  114.357269979    27.9315   6   7   0.0381   0.0511   0.0778   0.0033  -0.0097  -0.0428   0.00    0.0
2026/01/15 15:14:00.000   30.531678377  114.357269978    27.9326   6   7   0.0379   0.0511   0.0775   0.0030  -0.0094  -0.0426   0.00    0.0
2026/01/15 15:14:30.000   30.531678377  114.357269977    27.9338   6   7   0.0378   0.0510   0.0773   0.0028  -0.0091  -0.0425   0.00    0.0
2026/01/15 15:15:30.000   30.531678378  114.357269977    27.9350   6   7   0.0377   0.0509   0.0770   0.0025  -0.0088  -0.0423   0.00    0.0
2026/01/15 15:17:30.000   30.531678377  114.357269979    27.9364   6   7   0.0375   0.0509   0.0767   0.0021  -0.0084  -0.0421   0.00    0.0
2026/01/15 15:18:00.000   30.531678378  114.357269977    27.9380   6   7   0.0374   0.0508   0.0764   0.0016  -0.0080  -0.0419   0.00    0.0
2026/01/15 15:18:30.000   30.531678378  114.357269975    27.9395   6   7   0.0373   0.0507   0.0761   0.0009  -0.0075  -0.0418   0.00    0.0
2026/01/15 15:19:30.000   30.531678377  114.357269972    27.9408   6   7   0.0371   0.0507   0.0758  -0.0011  -0.0071  -0.0416   0.00    0.0
2026/01/15 15:20:00.000   30.531678377  114.357269969    27.9423   6   7   0.0370   0.0506   0.0755  -0.0018  -0.0066  -0.0414   0.00    0.0
2026/01/15 15:20:30.000   30.531678378  114.357269968    27.9437   6   7   0.0369   0.0505   0.0752  -0.0023  -0.0061  -0.0412   0.00    0.0
2026/01/15 15:21:30.000   30.531678378  114.357269967    27.9449   6   7   0.0367   0.0505   0.0749  -0.0027  -0.0055  -0.0410   0.00    0.0
2026/01/15 15:22:00.000   30.531678376  114.357269966    27.9463   6   7   0.0366   0.0504   0.0746  -0.0030  -0.0048  -0.0409   0.00    0.0
