% program   : RTKLIB ver.EX 2.5.0
% inp file  : C:\Users\tevin\Desktop\GNSS - MASTA\SPRING SEM\4.SAT NAV DATA PROCESSING\TEAM PROJECT\SNDP-PROJECT\New_Data\obs\RNXDATA\WUH200CHN_R_20260150000_01D_30S_MO.rnx
% inp file  : C:\Users\tevin\Desktop\GNSS - MASTA\SPRING SEM\4.SAT NAV DATA PROCESSING\TEAM PROJECT\SNDP-PROJECT\Old_data\products\nav\BRDC00IGS_R_20260150000_01D_MN.rnx
% obs start : 2026/01/15 00:00:00.0 GPST (week2401 345600.0s)
% obs end   : 2026/01/15 23:59:30.0 GPST (week2401 431970.0s)
% pos mode  : PPP Static
% freqs     : L1+L2/E5b
% solution  : Forward
% elev mask : 15.0 deg
% dynamics  : on
% tidecorr  :
% ionos opt : Broadcast
% tropo opt : Saastamoinen
% ephemeris : Broadcast
% navi sys  : GPS
% antenna1  :                       ( 0.0000  0.0000  0.1206)
%
% (lat/lon/height=WGS84/ellipsoidal,Q=1:fix,2:float,3:sbas,4:dgps,5:single,6:ppp,ns=# of satellites)
%  GPST                  latitude(deg) longitude(deg)  height(m)   Q  ns   sdn(m)   sde(m)   sdu(m)  sdne(m)  sdeu(m)  sdun(m) age(s)  ratio
2026/01/15 23:19:00.000   30.531684483  114.357267821    26.3307   6   4   0.0413   0.0382   0.0966  -0.0145   0.0214  -0.0267   0.00    0.0
2026/01/15 23:19:30.000   30.531684493  114.357267806    26.3309   6   4   0.0413   0.0382   0.0966  -0.0145   0.0214  -0.0267   0.00    0.0
2026/01/15 23:20:00.000   30.531684503  114.357267790    26.3309   6   4   0.0413   0.0382   0.0966  -0.0145   0.0214  -0.0267   0.00    0.0
2026/01/15 23:20:30.000   30.531684512  114.357267775    26.3311   6   4   0.0413   0.0382   0.0966  -0.0145   0.0214  -0.0267   0.00    0.0
2026/01/15 23:21:00.000   30.531684522  114.357267760    26.3313   6   4   0.0413   0.0382   0.0965  -0.0145   0.0214  -0.0267   0.00    0.0
2026/01/15 23:22:00.000   30.531684541  114.357267729    26.3317   6   5   0.0413   0.0382   0.0965  -0.0145   0.0214  -0.0267   0.00    0.0
2026/01/15 23:22:30.000   30.531684550  114.357267713    26.3319   6   5   0.0413   0.0381   0.0965  -0.0145   0.0214  -0.0268   0.00    0.0
2026/01/15 23:23:00.000   30.531684560  114.357267697    26.3321   6   5   0.0412   0.0381   0.0965  -0.0145   0.0213  -0.0268   0.00    0.0
2026/01/15 23:23:30.000   30.531684570  114.357267682    26.3322   6   5   0.0412   0.0381   0.0965  -0.0145   0.0213  -0.0268   0.00    0.0
2026/01/15 23:24:00.000   30.531684581  114.357267667    26.3324   6   5   0.0412   0.0381   0.0965  -0.0145   0.0213  -0.0268   0.00    0.0
2026/01/15 23:24:30.000   30.531684592  114.357267652    26.3328   6   5   0.0412   0.0381   0.0965  -0.0145   0.0213  -0.0268   0.00    0.0
2026/01/15 23:25:00.000   30.531684603  114.357267637    26.3331   6   5   0.0412   0.0381   0.0965  -0.0145   0.0213  -0.0268   0.00    0.0
2026/01/15 23:26:00.000   30.531684623  114.357267606    26.3337   6   4   0.0412   0.0381   0.0964  -0.0145   0.0213  -0.0268   0.00    0.0
2026/01/15 23:26:30.000   30.531684633  114.357267591    26.3341   6   5   0.0412   0.0381   0.0964  -0.0145   0.0213  -0.0268   0.00    0.0
2026/01/15 23:27:30.000   30.531684654  114.357267562    26.3348   6   5   0.0412   0.0381   0.0964  -0.0145   0.0213  -0.0269   0.00    0.0
2026/01/15 23:28:00.000   30.531684664  114.357267546    26.3351   6   4   0.0412   0.0381   0.0964  -0.0145   0.0213  -0.0269   0.00    0.0
2026/01/15 23:28:30.000   30.531684675  114.357267532    26.3355   6   5   0.0411   0.0381   0.0964  -0.0145   0.0213  -0.0269   0.00    0.0
2026/01/15 23:29:00.000   30.531684685  114.357267517    26.3359   6   4   0.0411   0.0381   0.0964  -0.0145   0.0213  -0.0269   0.00    0.0
2026/01/15 23:29:30.000   30.531684694  114.357267503    26.3363   6   5   0.0411   0.0381   0.0964  -0.0145   0.0212  -0.0269   0.00    0.0
2026/01/15 23:30:30.000   30.531684716  114.357267473    26.3371   6   5   0.0411   0.0381   0.0964  -0.0145   0.0212  -0.0269   0.00    0.0
2026/01/15 23:31:00.000   30.531684726  114.357267460    26.3376   6   5   0.0411   0.0380   0.0963  -0.0145   0.0212  -0.0269   0.00    0.0
2026/01/15 23:31:30.000   30.531684736  114.357267446    26.3382   6   5   0.0411   0.0380   0.0963  -0.0145   0.0212  -0.0269   0.00    0.0
2026/01/15 23:32:00.000   30.531684747  114.357267433    26.3388   6   5   0.0411   0.0380   0.0963  -0.0145   0.0212  -0.0270   0.00    0.0
2026/01/15 23:32:30.000   30.531684757  114.357267421    26.3394   6   5   0.0411   0.0380   0.0963  -0.0145   0.0212  -0.0270   0.00    0.0
2026/01/15 23:33:00.000   30.531684768  114.357267408    26.3399   6   5   0.0411   0.0380   0.0963  -0.0145   0.0212  -0.0270   0.00    0.0
2026/01/15 23:34:00.000   30.531684788  114.357267380    26.3410   6   5   0.0410   0.0380   0.0963  -0.0145   0.0212  -0.0270   0.00    0.0
2026/01/15 23:34:30.000   30.531684799  114.357267367    26.3417   6   5   0.0410   0.0380   0.0963  -0.0145   0.0212  -0.0270   0.00    0.0
2026/01/15 23:35:30.000   30.531684820  114.357267341    26.3429   6   5   0.0410   0.0380   0.0962  -0.0145   0.0212  -0.0270   0.00    0.0
2026/01/15 23:36:00.000   30.531684831  114.357267330    26.3435   6   5   0.0410   0.0380   0.0962  -0.0145   0.0212  -0.0270   0.00    0.0
2026/01/15 23:36:30.000   30.531684842  114.357267318    26.3442   6   5   0.0410   0.0380   0.0962  -0.0145   0.0211  -0.0271   0.00    0.0
2026/01/15 23:37:00.000   30.531684852  114.357267305    26.3448   6   5   0.0410   0.0380   0.0962  -0.0145   0.0211  -0.0271   0.00    0.0
2026/01/15 23:37:30.000   30.531684863  114.357267293    26.3455   6   5   0.0410   0.0380   0.0962  -0.0146   0.0211  -0.0271   0.00    0.0
2026/01/15 23:38:00.000   30.531684874  114.357267280    26.3462   6   5   0.0410   0.0380   0.0962  -0.0146   0.0211  -0.0271   0.00    0.0
2026/01/15 23:38:30.000   30.531684885  114.357267267    26.3470   6   5   0.0410   0.0380   0.0962  -0.0146   0.0211  -0.0271   0.00    0.0
2026/01/15 23:39:00.000   30.531684896  114.357267254    26.3478   6   5   0.0409   0.0380   0.0961  -0.0146   0.0211  -0.0271   0.00    0.0
2026/01/15 23:39:30.000   30.531684908  114.357267243    26.3487   6   5   0.0409   0.0379   0.0961  -0.0146   0.0211  -0.0271   0.00    0.0
2026/01/15 23:40:00.000   30.531684920  114.357267231    26.3494   6   5   0.0409   0.0379   0.0961  -0.0146   0.0211  -0.0271   0.00    0.0
2026/01/15 23:40:30.000   30.531684932  114.357267218    26.3501   6   5   0.0409   0.0379   0.0961  -0.0146   0.0211  -0.0271   0.00    0.0
2026/01/15 23:41:00.000   30.531684943  114.357267206    26.3509   6   5   0.0409   0.0379   0.0961  -0.0146   0.0211  -0.0271   0.00    0.0
2026/01/15 23:41:30.000   30.531684954  114.357267195    26.3514   6   5   0.0409   0.0379   0.0961  -0.0146   0.0211  -0.0272   0.00    0.0
2026/01/15 23:42:00.000   30.531684965  114.357267184    26.3518   6   5   0.0409   0.0379   0.0961  -0.0146   0.0211  -0.0272   0.00    0.0
2026/01/15 23:42:30.000   30.531684977  114.357267174    26.3521   6   5   0.0409   0.0379   0.0960  -0.0146   0.0211  -0.0272   0.00    0.0
2026/01/15 23:43:00.000   30.531684989  114.357267165    26.3525   6   5   0.0409   0.0379   0.0960  -0.0146   0.0211  -0.0272   0.00    0.0
2026/01/15 23:43:30.000   30.531685002  114.357267155    26.3530   6   5   0.0409   0.0379   0.0960  -0.0146   0.0211  -0.0272   0.00    0.0
2026/01/15 23:44:00.000   30.531685014  114.357267145    26.3534   6   5   0.0408   0.0379   0.0960  -0.0146   0.0211  -0.0272   0.00    0.0
2026/01/15 23:44:30.000   30.531685026  114.357267134    26.3539   6   5   0.0408   0.0379   0.0960  -0.0146   0.0211  -0.0272   0.00    0.0
2026/01/15 23:45:00.000   30.531685038  114.357267125    26.3545   6   5   0.0408   0.0379   0.0959  -0.0146   0.0211  -0.0272   0.00    0.0
2026/01/15 23:45:30.000   30.531685050  114.357267116    26.3550   6   5   0.0408   0.0379   0.0959  -0.0146   0.0211  -0.0272   0.00    0.0
2026/01/15 23:46:00.000   30.531685062  114.357267106    26.3553   6   5   0.0408   0.0379   0.0959  -0.0146   0.0211  -0.0272   0.00    0.0
2026/01/15 23:46:30.000   30.531685074  114.357267097    26.3556   6   5   0.0408   0.0379   0.0959  -0.0146   0.0211  -0.0272   0.00    0.0
2026/01/15 23:47:00.000   30.531685086  114.357267090    26.3558   6   5   0.0408   0.0379   0.0959  -0.0146   0.0211  -0.0273   0.00    0.0
2026/01/15 23:47:30.000   30.531685097  114.357267079    26.3564   6   5   0.0408   0.0378   0.0959  -0.0146   0.0211  -0.0273   0.00    0.0
2026/01/15 23:48:00.000   30.531685108  114.357267070    26.3568   6   5   0.0408   0.0378   0.0958  -0.0146   0.0211  -0.0273   0.00    0.0
2026/01/15 23:48:30.000   30.531685120  114.357267060    26.3571   6   5   0.0408   0.0378   0.0958  -0.0146   0.0211  -0.0273   0.00    0.0
2026/01/15 23:49:00.000   30.531685131  114.357267051    26.3575   6   5   0.0407   0.0378   0.0958  -0.0146   0.0211  -0.0273   0.00    0.0
2026/01/15 23:49:30.000   30.531685144  114.357267042    26.3578   6   5   0.0407   0.0378   0.0958  -0.0146   0.0211  -0.0273   0.00    0.0
2026/01/15 23:50:00.000   30.531685156  114.357267034    26.3581   6   5   0.0407   0.0378   0.0958  -0.0146   0.0211  -0.0273   0.00    0.0
2026/01/15 23:50:30.000   30.531685169  114.357267024    26.3586   6   5   0.0407   0.0378   0.0957  -0.0146   0.0211  -0.0273   0.00    0.0
2026/01/15 23:51:00.000   30.531685181  114.357267016    26.3590   6   5   0.0407   0.0378   0.0957  -0.0146   0.0211  -0.0273   0.00    0.0
2026/01/15 23:51:30.000   30.531685193  114.357267007    26.3595   6   5   0.0407   0.0378   0.0957  -0.0146   0.0211  -0.0273   0.00    0.0
2026/01/15 23:52:00.000   30.531685204  114.357266999    26.3600   6   5   0.0407   0.0378   0.0957  -0.0146   0.0211  -0.0273   0.00    0.0
2026/01/15 23:52:30.000   30.531685217  114.357266991    26.3604   6   5   0.0407   0.0378   0.0957  -0.0146   0.0211  -0.0273   0.00    0.0
2026/01/15 23:53:00.000   30.531685228  114.357266982    26.3610   6   5   0.0407   0.0378   0.0956  -0.0146   0.0211  -0.0273   0.00    0.0
2026/01/15 23:53:30.000   30.531685240  114.357266974    26.3614   6   5   0.0407   0.0378   0.0956  -0.0146   0.0211  -0.0274   0.00    0.0
2026/01/15 23:54:00.000   30.531685251  114.357266966    26.3617   6   5   0.0407   0.0378   0.0956  -0.0146   0.0211  -0.0274   0.00    0.0
2026/01/15 23:54:30.000   30.531685263  114.357266958    26.3622   6   5   0.0406   0.0378   0.0956  -0.0146   0.0211  -0.0274   0.00    0.0
2026/01/15 23:55:00.000   30.531685275  114.357266951    26.3626   6   5   0.0406   0.0378   0.0956  -0.0146   0.0211  -0.0274   0.00    0.0
2026/01/15 23:55:30.000   30.531685286  114.357266943    26.3632   6   5   0.0406   0.0377   0.0955  -0.0146   0.0211  -0.0274   0.00    0.0
2026/01/15 23:56:00.000   30.531685297  114.357266936    26.3635   6   5   0.0406   0.0377   0.0955  -0.0146   0.0211  -0.0274   0.00    0.0
2026/01/15 23:56:30.000   30.531685309  114.357266929    26.3640   6   5   0.0406   0.0377   0.0955  -0.0146   0.0211  -0.0274   0.00    0.0
2026/01/15 23:57:00.000   30.531685321  114.357266921    26.3646   6   5   0.0406   0.0377   0.0955  -0.0146   0.0211  -0.0274   0.00    0.0
2026/01/15 23:57:30.000   30.531685332  114.357266913    26.3652   6   5   0.0406   0.0377   0.0955  -0.0146   0.0211  -0.0274   0.00    0.0
2026/01/15 23:58:00.000   30.531685344  114.357266905    26.3656   6   5   0.0406   0.0377   0.0954  -0.0146   0.0211  -0.0274   0.00    0.0
2026/01/15 23:58:30.000   30.531685356  114.357266898    26.3660   6   5   0.0406   0.0377   0.0954  -0.0146   0.0211  -0.0274   0.00    0.0
2026/01/15 23:59:00.000   30.531685367  114.357266891    26.3665   6   5   0.0406   0.0377   0.0954  -0.0146   0.0211  -0.0274   0.00    0.0
2026/01/15 23:59:30.000   30.531685379  114.357266884    26.3671   6   5   0.0406   0.0377   0.0954  -0.0146   0.0211  -0.0274   0.00    0.0
