% program   : RTKLIB ver.EX 2.5.0
% inp file  : C:\Users\tevin\Desktop\GNSS - MASTA\SPRING SEM\4.SAT NAV DATA PROCESSING\TEAM PROJECT\SNDP-PROJECT\New_Data\obs\RNXDATA\WUH200CHN_R_20260150000_01D_30S_MO.rnx
% inp file  : C:\Users\tevin\Desktop\GNSS - MASTA\SPRING SEM\4.SAT NAV DATA PROCESSING\TEAM PROJECT\SNDP-PROJECT\Old_data\products\nav\BRDC00IGS_R_20260150000_01D_MN.rnx
% obs start : 2026/01/15 00:00:00.0 GPST (week2401 345600.0s)
% obs end   : 2026/01/15 23:59:30.0 GPST (week2401 431970.0s)
% pos mode  : PPP Static
% freqs     : L1
% solution  : Forward
% elev mask : 15.0 deg
% dynamics  : on
% tidecorr  :
% ionos opt : IONEX TEC
% tropo opt : Saastamoinen
% ephemeris : Broadcast
% navi sys  : GPS
% antenna1  :                       ( 0.0000  0.0000  0.1206)
%
% (lat/lon/height=WGS84/ellipsoidal,Q=1:fix,2:float,3:sbas,4:dgps,5:single,6:ppp,ns=# of satellites)
%  GPST                  latitude(deg) longitude(deg)  height(m)   Q  ns   sdn(m)   sde(m)   sdu(m)  sdne(m)  sdeu(m)  sdun(m) age(s)  ratio
2026/01/15 00:11:30.000   30.531701138  114.357248117    24.9676   6   4   0.5094   0.5631   1.3343  -0.3207   0.6019  -0.5204   0.00    0.0
2026/01/15 00:12:00.000   30.531701095  114.357248006    24.8990   6   4   0.4987   0.5503   1.2993  -0.3148   0.5850  -0.5097   0.00    0.0
2026/01/15 00:12:30.000   30.531701026  114.357247906    24.8864   6   4   0.4887   0.5383   1.2667  -0.3092   0.5694  -0.4994   0.00    0.0
2026/01/15 00:13:00.000   30.531701044  114.357247674    24.8968   6   4   0.4791   0.5272   1.2364  -0.3039   0.5550  -0.4897   0.00    0.0
2026/01/15 00:13:30.000   30.531701094  114.357247430    24.8280   6   4   0.4702   0.5167   1.2080  -0.2989   0.5417  -0.4804   0.00    0.0
2026/01/15 00:14:00.000   30.531701039  114.357247294    24.8098   6   4   0.4616   0.5069   1.1815  -0.2940   0.5292  -0.4715   0.00    0.0
2026/01/15 00:14:30.000   30.531701062  114.357247298    24.8219   6   4   0.4536   0.4977   1.1565  -0.2894   0.5176  -0.4630   0.00    0.0
2026/01/15 00:15:00.000   30.531701125  114.357247118    24.7829   6   4   0.4459   0.4889   1.1330  -0.2850   0.5067  -0.4549   0.00    0.0
2026/01/15 00:15:30.000   30.531701182  114.357247121    24.7754   6   4   0.4386   0.4807   1.1107  -0.2808   0.4965  -0.4471   0.00    0.0
2026/01/15 00:16:00.000   30.531701069  114.357247021    24.7530   6   4   0.4316   0.4728   1.0897  -0.2768   0.4869  -0.4396   0.00    0.0
2026/01/15 00:16:30.000   30.531700984  114.357246880    24.7484   6   4   0.4249   0.4654   1.0697  -0.2729   0.4778  -0.4324   0.00    0.0
2026/01/15 00:17:00.000   30.531700981  114.357246792    24.7487   6   4   0.4185   0.4583   1.0507  -0.2692   0.4692  -0.4255   0.00    0.0
2026/01/15 00:17:30.000   30.531700873  114.357246772    24.7520   6   4   0.4124   0.4516   1.0327  -0.2656   0.4611  -0.4189   0.00    0.0
2026/01/15 00:18:00.000   30.531700721  114.357246818    24.7707   6   4   0.4066   0.4451   1.0155  -0.2622   0.4534  -0.4125   0.00    0.0
2026/01/15 00:18:30.000   30.531700769  114.357246822    24.7629   6   4   0.4010   0.4390   0.9990  -0.2589   0.4461  -0.4063   0.00    0.0
2026/01/15 00:19:00.000   30.531700793  114.357246815    24.7777   6   4   0.3956   0.4331   0.9833  -0.2557   0.4391  -0.4004   0.00    0.0
2026/01/15 00:19:30.000   30.531700703  114.357246877    24.7722   6   4   0.3904   0.4274   0.9682  -0.2526   0.4324  -0.3946   0.00    0.0
2026/01/15 00:20:00.000   30.531700670  114.357247032    24.7656   6   4   0.3854   0.4220   0.9538  -0.2497   0.4261  -0.3891   0.00    0.0
2026/01/15 00:20:30.000   30.531700679  114.357247052    24.7791   6   4   0.3806   0.4168   0.9399  -0.2468   0.4200  -0.3837   0.00    0.0
2026/01/15 00:21:00.000   30.531700654  114.357247003    24.7964   6   4   0.3760   0.4118   0.9266  -0.2441   0.4142  -0.3785   0.00    0.0
2026/01/15 00:21:30.000   30.531700604  114.357247013    24.8026   6   4   0.3715   0.4070   0.9139  -0.2414   0.4086  -0.3735   0.00    0.0
2026/01/15 00:22:00.000   30.531700585  114.357247059    24.7886   6   4   0.3672   0.4024   0.9015  -0.2388   0.4033  -0.3686   0.00    0.0
2026/01/15 00:22:30.000   30.531700550  114.357247047    24.7558   6   4   0.3630   0.3979   0.8897  -0.2363   0.3981  -0.3639   0.00    0.0
2026/01/15 00:23:00.000   30.531700587  114.357247051    24.7336   6   4   0.3590   0.3936   0.8783  -0.2339   0.3932  -0.3593   0.00    0.0
2026/01/15 00:23:30.000   30.531700538  114.357246960    24.7262   6   4   0.3551   0.3895   0.8672  -0.2316   0.3884  -0.3548   0.00    0.0
2026/01/15 00:24:00.000   30.531700475  114.357246940    24.7323   6   4   0.3513   0.3854   0.8566  -0.2293   0.3839  -0.3505   0.00    0.0
2026/01/15 00:24:30.000   30.531700374  114.357246905    24.7229   6   4   0.3477   0.3816   0.8463  -0.2271   0.3795  -0.3463   0.00    0.0
2026/01/15 00:25:00.000   30.531700281  114.357246900    24.7385   6   4   0.3441   0.3778   0.8363  -0.2249   0.3752  -0.3422   0.00    0.0
2026/01/15 00:25:30.000   30.531700136  114.357246938    24.7592   6   4   0.3407   0.3742   0.8267  -0.2229   0.3711  -0.3383   0.00    0.0
2026/01/15 00:26:00.000   30.531699654  114.357247463    24.8845   6   4   0.3351   0.3675   0.8112  -0.2166   0.3606  -0.3285   0.00    0.0
2026/01/15 00:26:30.000   30.531699355  114.357247859    24.9624   6   4   0.3299   0.3613   0.7966  -0.2108   0.3508  -0.3195   0.00    0.0
2026/01/15 00:27:00.000   30.531699012  114.357248237    25.0448   6   4   0.3249   0.3554   0.7829  -0.2054   0.3416  -0.3110   0.00    0.0
2026/01/15 00:27:30.000   30.531698779  114.357248612    25.1104   6   4   0.3203   0.3499   0.7700  -0.2003   0.3330  -0.3030   0.00    0.0
2026/01/15 00:28:00.000   30.531698453  114.357248972    25.2020   6   4   0.3162   0.3446   0.7585  -0.1954   0.3250  -0.2947   0.00    0.0
2026/01/15 00:28:30.000   30.531698189  114.357249391    25.2939   6   4   0.3123   0.3396   0.7475  -0.1909   0.3175  -0.2868   0.00    0.0
2026/01/15 00:29:00.000   30.531697909  114.357249782    25.3737   6   4   0.3086   0.3349   0.7371  -0.1866   0.3104  -0.2793   0.00    0.0
2026/01/15 00:29:30.000   30.531697540  114.357250298    25.4738   6   4   0.3051   0.3303   0.7273  -0.1825   0.3037  -0.2722   0.00    0.0
2026/01/15 00:30:00.000   30.531697235  114.357250750    25.5713   6   4   0.3017   0.3260   0.7179  -0.1787   0.2974  -0.2654   0.00    0.0
2026/01/15 00:30:30.000   30.531697062  114.357251004    25.6324   6   4   0.2984   0.3218   0.7089  -0.1751   0.2914  -0.2589   0.00    0.0
2026/01/15 00:31:00.000   30.531696810  114.357251402    25.7103   6   4   0.2953   0.3179   0.7003  -0.1716   0.2857  -0.2527   0.00    0.0
2026/01/15 00:31:30.000   30.531696564  114.357251689    25.7731   6   4   0.2924   0.3140   0.6921  -0.1683   0.2803  -0.2468   0.00    0.0
2026/01/15 00:32:00.000   30.531696381  114.357252069    25.8360   6   4   0.2895   0.3104   0.6843  -0.1652   0.2752  -0.2411   0.00    0.0
2026/01/15 00:32:30.000   30.531696143  114.357252415    25.9020   6   4   0.2868   0.3068   0.6767  -0.1622   0.2703  -0.2356   0.00    0.0
2026/01/15 00:33:00.000   30.531696056  114.357252607    25.9237   6   4   0.2841   0.3034   0.6695  -0.1593   0.2656  -0.2304   0.00    0.0
2026/01/15 00:33:30.000   30.531695912  114.357252798    25.9558   6   4   0.2815   0.3002   0.6625  -0.1566   0.2612  -0.2254   0.00    0.0
2026/01/15 00:34:00.000   30.531695810  114.357252954    25.9903   6   4   0.2791   0.2970   0.6558  -0.1539   0.2569  -0.2205   0.00    0.0
2026/01/15 00:34:30.000   30.531695643  114.357253236    26.0327   6   4   0.2767   0.2939   0.6494  -0.1514   0.2529  -0.2159   0.00    0.0
2026/01/15 00:35:00.000   30.531695485  114.357253466    26.0815   6   4   0.2744   0.2910   0.6431  -0.1490   0.2490  -0.2114   0.00    0.0
2026/01/15 00:35:30.000   30.531695302  114.357253796    26.1275   6   4   0.2721   0.2881   0.6371  -0.1467   0.2453  -0.2071   0.00    0.0
2026/01/15 00:36:00.000   30.531695138  114.357253989    26.1703   6   4   0.2699   0.2853   0.6313  -0.1445   0.2417  -0.2029   0.00    0.0
2026/01/15 00:36:30.000   30.531695106  114.357254137    26.1872   6   4   0.2678   0.2827   0.6257  -0.1423   0.2383  -0.1988   0.00    0.0
2026/01/15 00:37:00.000   30.531694888  114.357254363    26.2413   6   4   0.2658   0.2800   0.6202  -0.1403   0.2350  -0.1949   0.00    0.0
2026/01/15 00:37:30.000   30.531694734  114.357254510    26.2862   6   4   0.2638   0.2775   0.6150  -0.1383   0.2319  -0.1911   0.00    0.0
2026/01/15 00:38:00.000   30.531694621  114.357254636    26.3186   6   4   0.2619   0.2751   0.6099  -0.1363   0.2288  -0.1875   0.00    0.0
2026/01/15 00:38:30.000   30.531694476  114.357254835    26.3579   6   4   0.2600   0.2727   0.6049  -0.1345   0.2259  -0.1839   0.00    0.0
2026/01/15 00:39:00.000   30.531694358  114.357255058    26.3843   6   4   0.2582   0.2704   0.6001  -0.1327   0.2231  -0.1805   0.00    0.0
2026/01/15 00:39:30.000   30.531694277  114.357255214    26.4028   6   4   0.2564   0.2681   0.5955  -0.1310   0.2204  -0.1772   0.00    0.0
2026/01/15 00:40:00.000   30.531694191  114.357255400    26.4289   6   4   0.2546   0.2659   0.5909  -0.1293   0.2178  -0.1740   0.00    0.0
2026/01/15 00:40:30.000   30.531694089  114.357255584    26.4479   6   4   0.2530   0.2637   0.5865  -0.1277   0.2153  -0.1708   0.00    0.0
2026/01/15 00:41:00.000   30.531693987  114.357255796    26.4679   6   4   0.2513   0.2617   0.5823  -0.1261   0.2129  -0.1678   0.00    0.0
2026/01/15 00:41:30.000   30.531694002  114.357255975    26.4626   6   4   0.2499   0.2596   0.5789  -0.1245   0.2103  -0.1657   0.00    0.0
2026/01/15 00:42:00.000   30.531693999  114.357256175    26.4633   6   4   0.2485   0.2577   0.5756  -0.1229   0.2079  -0.1637   0.00    0.0
2026/01/15 00:42:30.000   30.531694017  114.357256364    26.4476   6   4   0.2471   0.2557   0.5723  -0.1214   0.2055  -0.1617   0.00    0.0
2026/01/15 00:43:00.000   30.531694027  114.357256526    26.4381   6   4   0.2458   0.2539   0.5692  -0.1199   0.2032  -0.1598   0.00    0.0
2026/01/15 00:43:30.000   30.531694007  114.357256671    26.4256   6   4   0.2445   0.2520   0.5661  -0.1185   0.2010  -0.1580   0.00    0.0
2026/01/15 00:44:00.000   30.531694009  114.357256880    26.4209   6   4   0.2432   0.2502   0.5631  -0.1171   0.1989  -0.1562   0.00    0.0
2026/01/15 00:44:30.000   30.531694010  114.357257049    26.4140   6   4   0.2419   0.2485   0.5601  -0.1157   0.1968  -0.1544   0.00    0.0
2026/01/15 00:45:00.000   30.531694039  114.357257166    26.4067   6   4   0.2407   0.2468   0.5572  -0.1144   0.1947  -0.1527   0.00    0.0
2026/01/15 00:45:30.000   30.531694020  114.357257294    26.3974   6   4   0.2394   0.2451   0.5544  -0.1131   0.1928  -0.1511   0.00    0.0
2026/01/15 00:46:00.000   30.531694005  114.357257408    26.3933   6   4   0.2382   0.2434   0.5516  -0.1118   0.1909  -0.1494   0.00    0.0
2026/01/15 00:46:30.000   30.531694005  114.357257584    26.3953   6   4   0.2371   0.2418   0.5489  -0.1106   0.1890  -0.1479   0.00    0.0
2026/01/15 00:47:00.000   30.531694002  114.357257755    26.3976   6   4   0.2359   0.2403   0.5463  -0.1094   0.1872  -0.1463   0.00    0.0
2026/01/15 00:47:30.000   30.531694026  114.357257831    26.3847   6   4   0.2347   0.2387   0.5436  -0.1083   0.1855  -0.1448   0.00    0.0
2026/01/15 00:48:00.000   30.531694038  114.357257934    26.3740   6   4   0.2336   0.2372   0.5411  -0.1071   0.1838  -0.1434   0.00    0.0
2026/01/15 00:48:30.000   30.531694063  114.357258068    26.3645   6   4   0.2325   0.2357   0.5386  -0.1060   0.1822  -0.1419   0.00    0.0
2026/01/15 00:49:00.000   30.531694038  114.357258259    26.3687   6   4   0.2314   0.2343   0.5361  -0.1050   0.1806  -0.1405   0.00    0.0
2026/01/15 00:49:30.000   30.531694050  114.357258409    26.3682   6   4   0.2304   0.2328   0.5337  -0.1039   0.1790  -0.1392   0.00    0.0
2026/01/15 00:50:00.000   30.531694069  114.357258536    26.3644   6   4   0.2293   0.2314   0.5313  -0.1029   0.1775  -0.1379   0.00    0.0
2026/01/15 00:50:30.000   30.531694072  114.357258695    26.3523   6   4   0.2283   0.2301   0.5289  -0.1019   0.1760  -0.1366   0.00    0.0
2026/01/15 00:51:00.000   30.531694085  114.357258824    26.3456   6   4   0.2272   0.2287   0.5266  -0.1009   0.1746  -0.1353   0.00    0.0
2026/01/15 00:51:30.000   30.531694065  114.357258978    26.3462   6   4   0.2262   0.2274   0.5244  -0.1000   0.1732  -0.1341   0.00    0.0
2026/01/15 00:52:00.000   30.531694065  114.357259126    26.3388   6   4   0.2252   0.2261   0.5221  -0.0991   0.1719  -0.1329   0.00    0.0
2026/01/15 00:52:30.000   30.531694061  114.357259283    26.3285   6   4   0.2243   0.2248   0.5199  -0.0982   0.1705  -0.1317   0.00    0.0
2026/01/15 00:53:00.000   30.531694058  114.357259371    26.3199   6   4   0.2233   0.2236   0.5178  -0.0973   0.1693  -0.1306   0.00    0.0
2026/01/15 00:53:30.000   30.531694044  114.357259436    26.3158   6   4   0.2223   0.2223   0.5156  -0.0964   0.1680  -0.1295   0.00    0.0
2026/01/15 00:54:00.000   30.531694053  114.357259577    26.3019   6   4   0.2214   0.2211   0.5135  -0.0956   0.1668  -0.1284   0.00    0.0
2026/01/15 00:54:30.000   30.531694030  114.357259740    26.2951   6   4   0.2205   0.2199   0.5115  -0.0948   0.1656  -0.1273   0.00    0.0
2026/01/15 00:55:00.000   30.531694031  114.357259842    26.2881   6   4   0.2196   0.2188   0.5094  -0.0940   0.1645  -0.1263   0.00    0.0
2026/01/15 00:55:30.000   30.531694039  114.357259944    26.2885   6   4   0.2187   0.2176   0.5074  -0.0932   0.1634  -0.1253   0.00    0.0
2026/01/15 00:56:00.000   30.531694042  114.357260059    26.2779   6   4   0.2178   0.2165   0.5055  -0.0924   0.1623  -0.1243   0.00    0.0
2026/01/15 00:56:30.000   30.531694069  114.357260190    26.2677   6   4   0.2169   0.2154   0.5035  -0.0917   0.1612  -0.1234   0.00    0.0
2026/01/15 00:57:00.000   30.531694087  114.357260298    26.2605   6   4   0.2160   0.2143   0.5016  -0.0909   0.1602  -0.1224   0.00    0.0
2026/01/15 00:57:30.000   30.531694059  114.357260419    26.2583   6   4   0.2152   0.2132   0.4997  -0.0902   0.1592  -0.1215   0.00    0.0
2026/01/15 00:58:00.000   30.531694078  114.357260554    26.2536   6   4   0.2144   0.2121   0.4978  -0.0895   0.1582  -0.1206   0.00    0.0
2026/01/15 00:58:30.000   30.531694107  114.357260656    26.2473   6   4   0.2135   0.2111   0.4959  -0.0888   0.1572  -0.1198   0.00    0.0
2026/01/15 00:59:00.000   30.531694136  114.357260761    26.2414   6   4   0.2127   0.2101   0.4941  -0.0882   0.1563  -0.1189   0.00    0.0
2026/01/15 00:59:30.000   30.531694125  114.357260877    26.2374   6   4   0.2119   0.2090   0.4923  -0.0875   0.1554  -0.1181   0.00    0.0
2026/01/15 01:00:00.000   30.531694134  114.357260971    26.2247   6   4   0.2111   0.2080   0.4905  -0.0869   0.1545  -0.1173   0.00    0.0
2026/01/15 01:00:30.000   30.531694118  114.357261032    26.2135   6   4   0.2103   0.2070   0.4887  -0.0863   0.1536  -0.1165   0.00    0.0
2026/01/15 01:01:00.000   30.531694117  114.357261082    26.2076   6   4   0.2095   0.2061   0.4870  -0.0856   0.1527  -0.1158   0.00    0.0
2026/01/15 01:01:30.000   30.531694123  114.357261144    26.1997   6   4   0.2088   0.2051   0.4852  -0.0850   0.1519  -0.1150   0.00    0.0
2026/01/15 01:02:00.000   30.531694124  114.357261246    26.1913   6   4   0.2080   0.2042   0.4835  -0.0845   0.1511  -0.1143   0.00    0.0
2026/01/15 01:02:30.000   30.531694095  114.357261365    26.1864   6   4   0.2072   0.2032   0.4818  -0.0839   0.1503  -0.1136   0.00    0.0
2026/01/15 01:03:00.000   30.531694081  114.357261448    26.1868   6   4   0.2065   0.2023   0.4802  -0.0833   0.1495  -0.1129   0.00    0.0
2026/01/15 01:03:30.000   30.531694068  114.357261548    26.1818   6   4   0.2058   0.2014   0.4785  -0.0828   0.1488  -0.1122   0.00    0.0
2026/01/15 01:04:00.000   30.531694051  114.357261624    26.1776   6   4   0.2050   0.2005   0.4769  -0.0822   0.1480  -0.1116   0.00    0.0
2026/01/15 01:04:30.000   30.531694035  114.357261690    26.1769   6   4   0.2043   0.1996   0.4752  -0.0817   0.1473  -0.1110   0.00    0.0
2026/01/15 01:05:00.000   30.531694019  114.357261774    26.1764   6   4   0.2036   0.1988   0.4736  -0.0812   0.1466  -0.1103   0.00    0.0
2026/01/15 01:05:30.000   30.531694005  114.357261881    26.1768   6   4   0.2029   0.1979   0.4720  -0.0807   0.1459  -0.1097   0.00    0.0
2026/01/15 01:06:00.000   30.531694002  114.357261959    26.1700   6   4   0.2022   0.1971   0.4704  -0.0802   0.1452  -0.1092   0.00    0.0
2026/01/15 01:06:30.000   30.531694009  114.357262050    26.1645   6   4   0.2015   0.1962   0.4689  -0.0797   0.1446  -0.1086   0.00    0.0
2026/01/15 01:07:00.000   30.531694009  114.357262118    26.1602   6   4   0.2009   0.1954   0.4673  -0.0792   0.1439  -0.1080   0.00    0.0
2026/01/15 01:07:30.000   30.531694008  114.357262212    26.1548   6   4   0.2002   0.1946   0.4657  -0.0788   0.1433  -0.1075   0.00    0.0
2026/01/15 01:08:00.000   30.531693998  114.357262268    26.1533   6   4   0.1995   0.1938   0.4642  -0.0783   0.1427  -0.1070   0.00    0.0
2026/01/15 01:08:30.000   30.531693984  114.357262316    26.1455   6   4   0.1989   0.1930   0.4627  -0.0779   0.1421  -0.1065   0.00    0.0
2026/01/15 01:09:00.000   30.531693982  114.357262393    26.1425   6   4   0.1982   0.1922   0.4612  -0.0774   0.1415  -0.1060   0.00    0.0
2026/01/15 01:09:30.000   30.531693965  114.357262487    26.1382   6   4   0.1976   0.1914   0.4597  -0.0770   0.1409  -0.1055   0.00    0.0
2026/01/15 01:10:00.000   30.531693949  114.357262547    26.1324   6   4   0.1970   0.1906   0.4582  -0.0766   0.1403  -0.1051   0.00    0.0
2026/01/15 01:10:30.000   30.531693935  114.357262628    26.1393   6   4   0.1963   0.1899   0.4567  -0.0762   0.1397  -0.1046   0.00    0.0
2026/01/15 01:11:00.000   30.531693926  114.357262708    26.1377   6   4   0.1957   0.1891   0.4553  -0.0757   0.1392  -0.1042   0.00    0.0
2026/01/15 01:11:30.000   30.531693925  114.357262796    26.1357   6   4   0.1951   0.1884   0.4538  -0.0753   0.1386  -0.1038   0.00    0.0
2026/01/15 01:12:00.000   30.531693919  114.357262873    26.1353   6   4   0.1945   0.1877   0.4524  -0.0750   0.1381  -0.1034   0.00    0.0
2026/01/15 01:12:30.000   30.531693912  114.357262948    26.1348   6   4   0.1939   0.1869   0.4509  -0.0746   0.1376  -0.1030   0.00    0.0
2026/01/15 01:13:00.000   30.531693882  114.357263063    26.1407   6   5   0.1933   0.1862   0.4495  -0.0742   0.1371  -0.1026   0.00    0.0
2026/01/15 01:13:30.000   30.531693870  114.357263127    26.1392   6   5   0.1927   0.1855   0.4481  -0.0738   0.1366  -0.1022   0.00    0.0
2026/01/15 01:14:00.000   30.531693838  114.357263227    26.1372   6   5   0.1921   0.1848   0.4467  -0.0735   0.1361  -0.1019   0.00    0.0
2026/01/15 01:14:30.000   30.531693824  114.357263303    26.1361   6   5   0.1916   0.1841   0.4453  -0.0731   0.1356  -0.1016   0.00    0.0
2026/01/15 01:15:00.000   30.531693816  114.357263351    26.1339   6   5   0.1910   0.1834   0.4439  -0.0728   0.1351  -0.1012   0.00    0.0
2026/01/15 01:15:30.000   30.531693793  114.357263412    26.1332   6   5   0.1904   0.1828   0.4425  -0.0724   0.1346  -0.1009   0.00    0.0
2026/01/15 01:16:00.000   30.531693792  114.357263480    26.1329   6   5   0.1899   0.1821   0.4411  -0.0721   0.1341  -0.1006   0.00    0.0
2026/01/15 01:16:30.000   30.531693769  114.357263540    26.1350   6   5   0.1893   0.1814   0.4397  -0.0718   0.1337  -0.1003   0.00    0.0
2026/01/15 01:17:00.000   30.531693756  114.357263601    26.1303   6   5   0.1888   0.1808   0.4384  -0.0715   0.1332  -0.1000   0.00    0.0
2026/01/15 01:17:30.000   30.531693739  114.357263679    26.1272   6   5   0.1882   0.1801   0.4370  -0.0711   0.1328  -0.0998   0.00    0.0
2026/01/15 01:18:00.000   30.531693717  114.357263796    26.1293   6   5   0.1877   0.1795   0.4356  -0.0708   0.1323  -0.0995   0.00    0.0
2026/01/15 01:18:30.000   30.531693702  114.357263856    26.1329   6   5   0.1871   0.1788   0.4343  -0.0705   0.1319  -0.0992   0.00    0.0
2026/01/15 01:19:00.000   30.531693697  114.357263940    26.1354   6   5   0.1866   0.1782   0.4330  -0.0702   0.1315  -0.0990   0.00    0.0
2026/01/15 01:19:30.000   30.531693681  114.357264016    26.1324   6   5   0.1861   0.1776   0.4316  -0.0699   0.1310  -0.0988   0.00    0.0
2026/01/15 01:20:00.000   30.531693660  114.357264084    26.1366   6   5   0.1856   0.1770   0.4303  -0.0696   0.1306  -0.0986   0.00    0.0
2026/01/15 01:20:30.000   30.531693652  114.357264153    26.1368   6   5   0.1851   0.1764   0.4290  -0.0694   0.1302  -0.0984   0.00    0.0
2026/01/15 01:21:00.000   30.531693647  114.357264263    26.1346   6   5   0.1846   0.1757   0.4277  -0.0691   0.1298  -0.0982   0.00    0.0
2026/01/15 01:21:30.000   30.531693616  114.357264350    26.1338   6   5   0.1841   0.1751   0.4263  -0.0688   0.1294  -0.0980   0.00    0.0
2026/01/15 01:22:00.000   30.531693599  114.357264437    26.1357   6   5   0.1836   0.1746   0.4250  -0.0685   0.1290  -0.0978   0.00    0.0
2026/01/15 01:22:30.000   30.531693590  114.357264512    26.1338   6   5   0.1831   0.1740   0.4237  -0.0683   0.1286  -0.0976   0.00    0.0
2026/01/15 01:23:00.000   30.531693594  114.357264575    26.1336   6   5   0.1826   0.1734   0.4224  -0.0680   0.1282  -0.0974   0.00    0.0
2026/01/15 01:23:30.000   30.531693556  114.357264636    26.1345   6   5   0.1821   0.1728   0.4211  -0.0678   0.1278  -0.0973   0.00    0.0
2026/01/15 01:24:00.000   30.531693548  114.357264687    26.1325   6   5   0.1816   0.1722   0.4198  -0.0675   0.1274  -0.0971   0.00    0.0
2026/01/15 01:24:30.000   30.531693540  114.357264696    26.1286   6   5   0.1811   0.1717   0.4186  -0.0673   0.1270  -0.0970   0.00    0.0
2026/01/15 01:25:00.000   30.531693527  114.357264753    26.1306   6   5   0.1807   0.1711   0.4173  -0.0670   0.1266  -0.0969   0.00    0.0
2026/01/15 01:25:30.000   30.531693503  114.357264811    26.1285   6   5   0.1802   0.1705   0.4160  -0.0668   0.1262  -0.0968   0.00    0.0
2026/01/15 01:26:00.000   30.531693480  114.357264857    26.1326   6   5   0.1797   0.1700   0.4147  -0.0666   0.1259  -0.0966   0.00    0.0
2026/01/15 01:26:30.000   30.531693467  114.357264906    26.1313   6   5   0.1793   0.1694   0.4134  -0.0663   0.1255  -0.0965   0.00    0.0
2026/01/15 01:27:00.000   30.531693457  114.357264946    26.1340   6   5   0.1788   0.1689   0.4122  -0.0661   0.1251  -0.0964   0.00    0.0
2026/01/15 01:27:30.000   30.531693440  114.357265015    26.1391   6   5   0.1784   0.1684   0.4109  -0.0659   0.1248  -0.0964   0.00    0.0
2026/01/15 01:28:00.000   30.531693421  114.357265044    26.1428   6   5   0.1779   0.1678   0.4097  -0.0657   0.1244  -0.0963   0.00    0.0
2026/01/15 01:28:30.000   30.531693395  114.357265116    26.1451   6   5   0.1775   0.1673   0.4084  -0.0654   0.1240  -0.0962   0.00    0.0
2026/01/15 01:29:00.000   30.531693385  114.357265159    26.1446   6   5   0.1770   0.1668   0.4071  -0.0652   0.1236  -0.0961   0.00    0.0
2026/01/15 01:29:30.000   30.531693380  114.357265219    26.1477   6   5   0.1766   0.1663   0.4059  -0.0650   0.1233  -0.0961   0.00    0.0
2026/01/15 01:30:00.000   30.531693362  114.357265290    26.1487   6   5   0.1762   0.1658   0.4046  -0.0648   0.1229  -0.0960   0.00    0.0
2026/01/15 01:30:30.000   30.531693355  114.357265365    26.1545   6   5   0.1758   0.1652   0.4034  -0.0646   0.1226  -0.0959   0.00    0.0
2026/01/15 01:31:00.000   30.531693346  114.357265414    26.1577   6   5   0.1753   0.1647   0.4022  -0.0644   0.1222  -0.0959   0.00    0.0
2026/01/15 01:31:30.000   30.531693332  114.357265473    26.1598   6   5   0.1749   0.1642   0.4009  -0.0642   0.1218  -0.0959   0.00    0.0
2026/01/15 01:32:00.000   30.531693303  114.357265527    26.1594   6   5   0.1745   0.1637   0.3997  -0.0640   0.1215  -0.0958   0.00    0.0
2026/01/15 01:32:30.000   30.531693277  114.357265594    26.1641   6   5   0.1741   0.1632   0.3985  -0.0638   0.1211  -0.0958   0.00    0.0
2026/01/15 01:33:00.000   30.531693259  114.357265629    26.1572   6   5   0.1737   0.1627   0.3972  -0.0636   0.1208  -0.0958   0.00    0.0
2026/01/15 01:33:30.000   30.531693235  114.357265716    26.1591   6   5   0.1733   0.1623   0.3960  -0.0635   0.1204  -0.0958   0.00    0.0
2026/01/15 01:34:00.000   30.531693211  114.357265775    26.1639   6   5   0.1729   0.1618   0.3948  -0.0633   0.1201  -0.0957   0.00    0.0
2026/01/15 01:34:30.000   30.531693199  114.357265824    26.1635   6   5   0.1725   0.1613   0.3936  -0.0631   0.1197  -0.0957   0.00    0.0
2026/01/15 01:35:00.000   30.531693159  114.357265870    26.1636   6   5   0.1721   0.1608   0.3924  -0.0629   0.1194  -0.0957   0.00    0.0
2026/01/15 01:35:30.000   30.531693138  114.357265930    26.1664   6   5   0.1717   0.1604   0.3911  -0.0627   0.1190  -0.0957   0.00    0.0
2026/01/15 01:36:00.000   30.531693116  114.357265995    26.1712   6   5   0.1712   0.1599   0.3897  -0.0626   0.1186  -0.0961   0.00    0.0
2026/01/15 01:36:30.000   30.531693084  114.357266047    26.1741   6   5   0.1707   0.1594   0.3884  -0.0625   0.1182  -0.0965   0.00    0.0
2026/01/15 01:37:00.000   30.531693061  114.357266093    26.1789   6   5   0.1702   0.1589   0.3870  -0.0624   0.1178  -0.0969   0.00    0.0
2026/01/15 01:37:30.000   30.531693024  114.357266129    26.1759   6   5   0.1697   0.1585   0.3856  -0.0623   0.1173  -0.0972   0.00    0.0
2026/01/15 01:38:00.000   30.531692981  114.357266169    26.1747   6   5   0.1693   0.1580   0.3842  -0.0622   0.1169  -0.0976   0.00    0.0
2026/01/15 01:38:30.000   30.531692947  114.357266215    26.1799   6   5   0.1688   0.1576   0.3829  -0.0621   0.1165  -0.0979   0.00    0.0
2026/01/15 01:39:00.000   30.531692907  114.357266278    26.1825   6   5   0.1683   0.1571   0.3815  -0.0620   0.1161  -0.0983   0.00    0.0
2026/01/15 01:39:30.000   30.531692828  114.357266380    26.1942   6   5   0.1677   0.1565   0.3799  -0.0615   0.1153  -0.0981   0.00    0.0
2026/01/15 01:40:00.000   30.531692822  114.357266448    26.1994   6   5   0.1671   0.1559   0.3783  -0.0611   0.1145  -0.0980   0.00    0.0
2026/01/15 01:40:30.000   30.531692790  114.357266490    26.2028   6   5   0.1666   0.1554   0.3767  -0.0607   0.1137  -0.0978   0.00    0.0
2026/01/15 01:41:00.000   30.531692777  114.357266551    26.2103   6   5   0.1660   0.1548   0.3752  -0.0602   0.1129  -0.0977   0.00    0.0
2026/01/15 01:41:30.000   30.531692765  114.357266588    26.2146   6   5   0.1654   0.1542   0.3736  -0.0598   0.1121  -0.0976   0.00    0.0
2026/01/15 01:42:00.000   30.531692751  114.357266652    26.2255   6   5   0.1648   0.1537   0.3721  -0.0594   0.1114  -0.0975   0.00    0.0
2026/01/15 01:42:30.000   30.531692711  114.357266734    26.2317   6   5   0.1643   0.1531   0.3706  -0.0590   0.1106  -0.0974   0.00    0.0
2026/01/15 01:43:00.000   30.531692689  114.357266765    26.2332   6   5   0.1637   0.1526   0.3691  -0.0586   0.1099  -0.0973   0.00    0.0
2026/01/15 01:43:30.000   30.531692668  114.357266827    26.2395   6   5   0.1632   0.1521   0.3676  -0.0582   0.1092  -0.0972   0.00    0.0
2026/01/15 01:44:00.000   30.531692647  114.357266885    26.2453   6   5   0.1626   0.1515   0.3662  -0.0578   0.1085  -0.0971   0.00    0.0
2026/01/15 01:44:30.000   30.531692618  114.357266955    26.2532   6   5   0.1621   0.1510   0.3647  -0.0574   0.1077  -0.0970   0.00    0.0
2026/01/15 01:45:00.000   30.531692578  114.357267026    26.2614   6   5   0.1616   0.1505   0.3633  -0.0570   0.1070  -0.0970   0.00    0.0
2026/01/15 01:45:30.000   30.531692561  114.357267074    26.2696   6   5   0.1610   0.1500   0.3619  -0.0566   0.1064  -0.0969   0.00    0.0
2026/01/15 01:46:00.000   30.531692501  114.357267133    26.2746   6   5   0.1605   0.1495   0.3605  -0.0562   0.1057  -0.0968   0.00    0.0
2026/01/15 01:46:30.000   30.531692479  114.357267200    26.2741   6   5   0.1600   0.1489   0.3591  -0.0558   0.1050  -0.0968   0.00    0.0
2026/01/15 01:47:00.000   30.531692447  114.357267259    26.2800   6   5   0.1595   0.1484   0.3577  -0.0555   0.1043  -0.0967   0.00    0.0
2026/01/15 01:47:30.000   30.531692398  114.357267317    26.2895   6   5   0.1590   0.1479   0.3564  -0.0551   0.1037  -0.0967   0.00    0.0
2026/01/15 01:48:00.000   30.531692388  114.357267368    26.2993   6   5   0.1584   0.1475   0.3550  -0.0547   0.1030  -0.0966   0.00    0.0
2026/01/15 01:48:30.000   30.531692398  114.357267408    26.3083   6   4   0.1580   0.1470   0.3539  -0.0544   0.1023  -0.0969   0.00    0.0
2026/01/15 01:49:00.000   30.531692396  114.357267429    26.3121   6   4   0.1576   0.1465   0.3528  -0.0540   0.1017  -0.0971   0.00    0.0
2026/01/15 01:49:30.000   30.531692398  114.357267478    26.3205   6   4   0.1572   0.1461   0.3517  -0.0537   0.1010  -0.0974   0.00    0.0
2026/01/15 01:50:00.000   30.531692382  114.357267523    26.3250   6   4   0.1568   0.1456   0.3506  -0.0534   0.1004  -0.0977   0.00    0.0
2026/01/15 01:50:30.000   30.531692383  114.357267554    26.3316   6   4   0.1564   0.1452   0.3495  -0.0530   0.0997  -0.0979   0.00    0.0
2026/01/15 01:51:00.000   30.531692385  114.357267608    26.3432   6   4   0.1561   0.1447   0.3484  -0.0527   0.0991  -0.0982   0.00    0.0
2026/01/15 01:51:30.000   30.531692395  114.357267658    26.3527   6   4   0.1557   0.1443   0.3473  -0.0524   0.0984  -0.0984   0.00    0.0
2026/01/15 01:52:00.000   30.531692385  114.357267695    26.3593   6   4   0.1553   0.1439   0.3463  -0.0521   0.0978  -0.0987   0.00    0.0
2026/01/15 01:52:30.000   30.531692368  114.357267754    26.3650   6   4   0.1549   0.1434   0.3452  -0.0518   0.0972  -0.0989   0.00    0.0
2026/01/15 01:53:00.000   30.531692341  114.357267815    26.3716   6   4   0.1545   0.1430   0.3442  -0.0515   0.0966  -0.0992   0.00    0.0
2026/01/15 01:53:30.000   30.531692327  114.357267859    26.3767   6   4   0.1542   0.1426   0.3431  -0.0512   0.0960  -0.0994   0.00    0.0
2026/01/15 01:54:00.000   30.531692322  114.357267905    26.3814   6   4   0.1538   0.1422   0.3421  -0.0509   0.0954  -0.0996   0.00    0.0
2026/01/15 01:54:30.000   30.531692329  114.357267952    26.3893   6   4   0.1534   0.1418   0.3411  -0.0506   0.0948  -0.0999   0.00    0.0
2026/01/15 01:55:00.000   30.531692321  114.357267998    26.3942   6   4   0.1531   0.1414   0.3401  -0.0503   0.0943  -0.1001   0.00    0.0
2026/01/15 01:55:30.000   30.531692315  114.357268041    26.3960   6   4   0.1527   0.1409   0.3391  -0.0500   0.0937  -0.1004   0.00    0.0
2026/01/15 01:56:00.000   30.531692301  114.357268094    26.3983   6   4   0.1524   0.1405   0.3382  -0.0497   0.0931  -0.1006   0.00    0.0
2026/01/15 01:56:30.000   30.531692299  114.357268142    26.4032   6   4   0.1520   0.1401   0.3372  -0.0494   0.0926  -0.1008   0.00    0.0
2026/01/15 01:57:00.000   30.531692288  114.357268194    26.4084   6   4   0.1517   0.1397   0.3362  -0.0491   0.0920  -0.1011   0.00    0.0
2026/01/15 01:57:30.000   30.531692288  114.357268239    26.4149   6   4   0.1513   0.1394   0.3353  -0.0489   0.0915  -0.1013   0.00    0.0
2026/01/15 01:58:00.000   30.531692269  114.357268281    26.4177   6   4   0.1510   0.1390   0.3343  -0.0486   0.0910  -0.1015   0.00    0.0
2026/01/15 01:58:30.000   30.531692242  114.357268334    26.4238   6   4   0.1507   0.1386   0.3334  -0.0483   0.0904  -0.1017   0.00    0.0
2026/01/15 01:59:00.000   30.531692237  114.357268383    26.4316   6   4   0.1503   0.1382   0.3325  -0.0481   0.0899  -0.1019   0.00    0.0
2026/01/15 01:59:30.000   30.531692245  114.357268409    26.4342   6   4   0.1500   0.1378   0.3316  -0.0478   0.0894  -0.1022   0.00    0.0
2026/01/15 02:00:00.000   30.531692227  114.357268471    26.4342   6   4   0.1497   0.1374   0.3308  -0.0475   0.0888  -0.1024   0.00    0.0
2026/01/15 02:00:30.000   30.531692208  114.357268519    26.4338   6   4   0.1494   0.1371   0.3299  -0.0473   0.0883  -0.1026   0.00    0.0
2026/01/15 02:01:00.000   30.531692184  114.357268580    26.4362   6   4   0.1491   0.1367   0.3291  -0.0470   0.0877  -0.1029   0.00    0.0
2026/01/15 02:01:30.000   30.531692168  114.357268618    26.4364   6   4   0.1488   0.1364   0.3283  -0.0467   0.0871  -0.1031   0.00    0.0
2026/01/15 02:02:00.000   30.531692156  114.357268682    26.4385   6   4   0.1485   0.1360   0.3275  -0.0465   0.0866  -0.1033   0.00    0.0
2026/01/15 02:02:30.000   30.531692148  114.357268744    26.4400   6   4   0.1482   0.1356   0.3267  -0.0462   0.0860  -0.1035   0.00    0.0
2026/01/15 12:12:00.000   30.531676370  114.357270948    27.1981   6   4   0.0601   0.0545   0.1410  -0.0185   0.0328  -0.0401   0.00    0.0
2026/01/15 12:12:30.000   30.531676363  114.357270936    27.1982   6   4   0.0601   0.0545   0.1410  -0.0185   0.0328  -0.0401   0.00    0.0
2026/01/15 12:13:00.000   30.531676355  114.357270927    27.1981   6   4   0.0600   0.0544   0.1409  -0.0185   0.0327  -0.0401   0.00    0.0
2026/01/15 12:13:30.000   30.531676347  114.357270918    27.1978   6   4   0.0600   0.0544   0.1409  -0.0185   0.0327  -0.0401   0.00    0.0
2026/01/15 12:14:00.000   30.531676340  114.357270910    27.1976   6   4   0.0600   0.0544   0.1409  -0.0184   0.0327  -0.0401   0.00    0.0
2026/01/15 12:14:30.000   30.531676333  114.357270902    27.1971   6   4   0.0600   0.0544   0.1408  -0.0184   0.0326  -0.0401   0.00    0.0
2026/01/15 12:15:00.000   30.531676324  114.357270892    27.1970   6   4   0.0600   0.0543   0.1408  -0.0184   0.0326  -0.0401   0.00    0.0
2026/01/15 12:15:30.000   30.531676317  114.357270882    27.1965   6   4   0.0599   0.0543   0.1408  -0.0184   0.0326  -0.0401   0.00    0.0
2026/01/15 12:16:00.000   30.531676311  114.357270873    27.1957   6   4   0.0599   0.0543   0.1407  -0.0183   0.0325  -0.0401   0.00    0.0
2026/01/15 12:16:30.000   30.531676304  114.357270865    27.1951   6   4   0.0599   0.0543   0.1407  -0.0183   0.0325  -0.0401   0.00    0.0
2026/01/15 12:17:00.000   30.531676297  114.357270859    27.1953   6   4   0.0599   0.0543   0.1406  -0.0183   0.0325  -0.0401   0.00    0.0
2026/01/15 12:17:30.000   30.531676290  114.357270850    27.1952   6   4   0.0598   0.0542   0.1406  -0.0182   0.0324  -0.0400   0.00    0.0
2026/01/15 12:18:00.000   30.531676281  114.357270842    27.1952   6   4   0.0598   0.0542   0.1406  -0.0182   0.0324  -0.0400   0.00    0.0
2026/01/15 12:18:30.000   30.531676275  114.357270833    27.1945   6   4   0.0598   0.0542   0.1405  -0.0182   0.0323  -0.0400   0.00    0.0
2026/01/15 12:19:00.000   30.531676269  114.357270827    27.1945   6   4   0.0598   0.0542   0.1405  -0.0182   0.0323  -0.0400   0.00    0.0
2026/01/15 12:19:30.000   30.531676262  114.357270819    27.1940   6   4   0.0598   0.0541   0.1405  -0.0181   0.0323  -0.0400   0.00    0.0
2026/01/15 12:20:00.000   30.531676252  114.357270812    27.1936   6   4   0.0597   0.0541   0.1405  -0.0181   0.0322  -0.0400   0.00    0.0
2026/01/15 12:20:30.000   30.531676243  114.357270804    27.1931   6   4   0.0597   0.0541   0.1404  -0.0181   0.0322  -0.0400   0.00    0.0
2026/01/15 12:21:00.000   30.531676235  114.357270798    27.1924   6   4   0.0597   0.0541   0.1404  -0.0181   0.0322  -0.0400   0.00    0.0
2026/01/15 12:21:30.000   30.531676229  114.357270790    27.1918   6   4   0.0597   0.0540   0.1404  -0.0180   0.0321  -0.0400   0.00    0.0
2026/01/15 12:22:00.000   30.531676223  114.357270779    27.1911   6   4   0.0596   0.0540   0.1403  -0.0180   0.0321  -0.0400   0.00    0.0
2026/01/15 12:22:30.000   30.531676213  114.357270772    27.1908   6   4   0.0596   0.0540   0.1403  -0.0180   0.0321  -0.0400   0.00    0.0
2026/01/15 12:23:00.000   30.531676207  114.357270765    27.1905   6   4   0.0596   0.0540   0.1403  -0.0179   0.0320  -0.0400   0.00    0.0
2026/01/15 12:23:30.000   30.531676201  114.357270756    27.1896   6   4   0.0596   0.0540   0.1402  -0.0179   0.0320  -0.0400   0.00    0.0
2026/01/15 12:24:00.000   30.531676194  114.357270746    27.1884   6   4   0.0596   0.0539   0.1402  -0.0179   0.0320  -0.0400   0.00    0.0
2026/01/15 12:24:30.000   30.531676185  114.357270739    27.1882   6   4   0.0595   0.0539   0.1402  -0.0179   0.0319  -0.0400   0.00    0.0
2026/01/15 12:25:00.000   30.531676175  114.357270730    27.1886   6   5   0.0595   0.0539   0.1401  -0.0178   0.0319  -0.0400   0.00    0.0
2026/01/15 12:25:30.000   30.531676169  114.357270720    27.1882   6   5   0.0595   0.0539   0.1401  -0.0178   0.0319  -0.0400   0.00    0.0
2026/01/15 12:26:00.000   30.531676160  114.357270711    27.1884   6   5   0.0595   0.0538   0.1401  -0.0178   0.0319  -0.0400   0.00    0.0
2026/01/15 12:26:30.000   30.531676149  114.357270705    27.1882   6   5   0.0595   0.0538   0.1400  -0.0178   0.0318  -0.0399   0.00    0.0
2026/01/15 12:27:00.000   30.531676139  114.357270701    27.1879   6   5   0.0594   0.0538   0.1400  -0.0177   0.0318  -0.0399   0.00    0.0
2026/01/15 12:27:30.000   30.531676129  114.357270692    27.1881   6   5   0.0594   0.0538   0.1400  -0.0177   0.0318  -0.0399   0.00    0.0
2026/01/15 12:28:00.000   30.531676120  114.357270685    27.1877   6   5   0.0594   0.0537   0.1399  -0.0177   0.0317  -0.0399   0.00    0.0
2026/01/15 12:28:30.000   30.531676111  114.357270676    27.1875   6   5   0.0594   0.0537   0.1399  -0.0177   0.0317  -0.0399   0.00    0.0
2026/01/15 12:29:00.000   30.531676101  114.357270666    27.1873   6   5   0.0593   0.0537   0.1399  -0.0176   0.0317  -0.0399   0.00    0.0
2026/01/15 12:29:30.000   30.531676094  114.357270654    27.1867   6   5   0.0593   0.0537   0.1399  -0.0176   0.0316  -0.0399   0.00    0.0
2026/01/15 12:30:00.000   30.531676086  114.357270643    27.1864   6   5   0.0593   0.0537   0.1398  -0.0176   0.0316  -0.0399   0.00    0.0
2026/01/15 12:30:30.000   30.531676080  114.357270633    27.1861   6   5   0.0593   0.0536   0.1398  -0.0176   0.0316  -0.0399   0.00    0.0
2026/01/15 12:31:00.000   30.531676072  114.357270624    27.1859   6   5   0.0593   0.0536   0.1398  -0.0175   0.0316  -0.0399   0.00    0.0
2026/01/15 12:31:30.000   30.531676066  114.357270615    27.1855   6   5   0.0592   0.0536   0.1397  -0.0175   0.0315  -0.0399   0.00    0.0
2026/01/15 12:32:00.000   30.531676057  114.357270607    27.1852   6   5   0.0592   0.0536   0.1397  -0.0175   0.0315  -0.0399   0.00    0.0
2026/01/15 12:32:30.000   30.531676049  114.357270600    27.1852   6   5   0.0592   0.0535   0.1397  -0.0175   0.0315  -0.0399   0.00    0.0
2026/01/15 12:33:00.000   30.531676038  114.357270592    27.1846   6   5   0.0592   0.0535   0.1396  -0.0174   0.0314  -0.0399   0.00    0.0
2026/01/15 12:33:30.000   30.531676028  114.357270580    27.1833   6   5   0.0592   0.0535   0.1396  -0.0174   0.0314  -0.0399   0.00    0.0
2026/01/15 12:34:00.000   30.531676020  114.357270567    27.1821   6   5   0.0591   0.0535   0.1395  -0.0174   0.0314  -0.0399   0.00    0.0
2026/01/15 12:34:30.000   30.531676010  114.357270559    27.1812   6   5   0.0591   0.0534   0.1395  -0.0174   0.0313  -0.0399   0.00    0.0
2026/01/15 12:35:00.000   30.531676001  114.357270547    27.1797   6   5   0.0591   0.0534   0.1395  -0.0174   0.0313  -0.0399   0.00    0.0
2026/01/15 12:35:30.000   30.531675989  114.357270537    27.1783   6   5   0.0591   0.0534   0.1394  -0.0173   0.0313  -0.0399   0.00    0.0
2026/01/15 12:36:00.000   30.531675978  114.357270527    27.1777   6   5   0.0590   0.0534   0.1394  -0.0173   0.0312  -0.0399   0.00    0.0
2026/01/15 12:36:30.000   30.531675968  114.357270515    27.1765   6   5   0.0590   0.0534   0.1393  -0.0173   0.0312  -0.0399   0.00    0.0
2026/01/15 12:37:00.000   30.531675957  114.357270506    27.1763   6   5   0.0590   0.0533   0.1393  -0.0173   0.0311  -0.0399   0.00    0.0
2026/01/15 12:37:30.000   30.531675946  114.357270495    27.1757   6   5   0.0590   0.0533   0.1393  -0.0173   0.0311  -0.0399   0.00    0.0
2026/01/15 12:38:00.000   30.531675934  114.357270488    27.1755   6   5   0.0590   0.0533   0.1392  -0.0172   0.0311  -0.0399   0.00    0.0
2026/01/15 12:38:30.000   30.531675924  114.357270478    27.1743   6   5   0.0589   0.0533   0.1392  -0.0172   0.0310  -0.0399   0.00    0.0
2026/01/15 12:39:00.000   30.531675912  114.357270469    27.1732   6   5   0.0589   0.0532   0.1391  -0.0172   0.0310  -0.0399   0.00    0.0
2026/01/15 12:39:30.000   30.531675897  114.357270460    27.1712   6   5   0.0589   0.0532   0.1391  -0.0172   0.0310  -0.0399   0.00    0.0
2026/01/15 12:40:00.000   30.531675881  114.357270449    27.1697   6   5   0.0589   0.0532   0.1391  -0.0172   0.0309  -0.0399   0.00    0.0
2026/01/15 12:40:30.000   30.531675868  114.357270441    27.1689   6   5   0.0589   0.0532   0.1390  -0.0172   0.0309  -0.0399   0.00    0.0
2026/01/15 12:41:00.000   30.531675855  114.357270430    27.1680   6   5   0.0588   0.0531   0.1390  -0.0171   0.0309  -0.0399   0.00    0.0
2026/01/15 12:41:30.000   30.531675842  114.357270423    27.1681   6   5   0.0588   0.0531   0.1389  -0.0171   0.0308  -0.0399   0.00    0.0
2026/01/15 12:42:00.000   30.531675828  114.357270412    27.1665   6   5   0.0588   0.0531   0.1389  -0.0171   0.0308  -0.0400   0.00    0.0
2026/01/15 12:42:30.000   30.531675814  114.357270402    27.1657   6   5   0.0588   0.0531   0.1389  -0.0171   0.0308  -0.0400   0.00    0.0
2026/01/15 12:43:00.000   30.531675800  114.357270390    27.1644   6   5   0.0588   0.0530   0.1388  -0.0171   0.0307  -0.0400   0.00    0.0
2026/01/15 12:43:30.000   30.531675789  114.357270379    27.1634   6   5   0.0587   0.0530   0.1388  -0.0171   0.0307  -0.0400   0.00    0.0
2026/01/15 12:44:00.000   30.531675777  114.357270370    27.1628   6   5   0.0587   0.0530   0.1387  -0.0170   0.0307  -0.0400   0.00    0.0
2026/01/15 12:44:30.000   30.531675765  114.357270361    27.1625   6   5   0.0587   0.0530   0.1387  -0.0170   0.0306  -0.0400   0.00    0.0
2026/01/15 12:45:00.000   30.531675753  114.357270352    27.1617   6   5   0.0587   0.0529   0.1387  -0.0170   0.0306  -0.0400   0.00    0.0
2026/01/15 12:45:30.000   30.531675740  114.357270342    27.1612   6   5   0.0586   0.0529   0.1386  -0.0170   0.0306  -0.0400   0.00    0.0
2026/01/15 12:46:00.000   30.531675726  114.357270329    27.1601   6   5   0.0586   0.0529   0.1386  -0.0170   0.0305  -0.0400   0.00    0.0
2026/01/15 12:46:30.000   30.531675712  114.357270317    27.1594   6   5   0.0586   0.0529   0.1385  -0.0170   0.0305  -0.0400   0.00    0.0
2026/01/15 12:47:00.000   30.531675697  114.357270307    27.1583   6   5   0.0586   0.0528   0.1385  -0.0169   0.0305  -0.0400   0.00    0.0
2026/01/15 12:47:30.000   30.531675684  114.357270297    27.1572   6   5   0.0586   0.0528   0.1385  -0.0169   0.0305  -0.0400   0.00    0.0
2026/01/15 12:48:00.000   30.531675671  114.357270286    27.1562   6   5   0.0585   0.0528   0.1384  -0.0169   0.0304  -0.0400   0.00    0.0
2026/01/15 12:48:30.000   30.531675661  114.357270274    27.1548   6   5   0.0585   0.0528   0.1384  -0.0169   0.0304  -0.0400   0.00    0.0
2026/01/15 12:49:00.000   30.531675647  114.357270265    27.1535   6   5   0.0585   0.0527   0.1383  -0.0169   0.0304  -0.0400   0.00    0.0
2026/01/15 12:49:30.000   30.531675634  114.357270255    27.1526   6   5   0.0585   0.0527   0.1383  -0.0169   0.0304  -0.0400   0.00    0.0
2026/01/15 12:50:00.000   30.531675620  114.357270245    27.1516   6   5   0.0585   0.0527   0.1383  -0.0168   0.0303  -0.0400   0.00    0.0
2026/01/15 12:50:30.000   30.531675607  114.357270235    27.1509   6   5   0.0584   0.0527   0.1382  -0.0168   0.0303  -0.0400   0.00    0.0
2026/01/15 12:51:00.000   30.531675596  114.357270227    27.1505   6   5   0.0584   0.0526   0.1382  -0.0168   0.0303  -0.0400   0.00    0.0
2026/01/15 12:51:30.000   30.531675588  114.357270217    27.1512   6   5   0.0584   0.0526   0.1381  -0.0168   0.0303  -0.0400   0.00    0.0
2026/01/15 12:52:00.000   30.531675579  114.357270207    27.1515   6   5   0.0584   0.0526   0.1381  -0.0168   0.0302  -0.0400   0.00    0.0
2026/01/15 12:52:30.000   30.531675571  114.357270194    27.1512   6   5   0.0584   0.0526   0.1381  -0.0168   0.0302  -0.0400   0.00    0.0
2026/01/15 12:53:00.000   30.531675561  114.357270184    27.1516   6   5   0.0583   0.0526   0.1381  -0.0168   0.0302  -0.0400   0.00    0.0
2026/01/15 12:53:30.000   30.531675554  114.357270172    27.1524   6   5   0.0583   0.0525   0.1380  -0.0167   0.0302  -0.0400   0.00    0.0
2026/01/15 12:54:00.000   30.531675544  114.357270163    27.1529   6   5   0.0583   0.0525   0.1380  -0.0167   0.0301  -0.0400   0.00    0.0
2026/01/15 12:54:30.000   30.531675538  114.357270151    27.1537   6   5   0.0583   0.0525   0.1380  -0.0167   0.0301  -0.0400   0.00    0.0
2026/01/15 12:55:00.000   30.531675529  114.357270140    27.1544   6   5   0.0583   0.0525   0.1379  -0.0167   0.0301  -0.0400   0.00    0.0
2026/01/15 12:55:30.000   30.531675522  114.357270130    27.1551   6   5   0.0583   0.0524   0.1379  -0.0167   0.0301  -0.0400   0.00    0.0
2026/01/15 12:56:00.000   30.531675513  114.357270121    27.1561   6   5   0.0582   0.0524   0.1379  -0.0167   0.0301  -0.0400   0.00    0.0
2026/01/15 12:56:30.000   30.531675505  114.357270110    27.1571   6   5   0.0582   0.0524   0.1378  -0.0167   0.0300  -0.0399   0.00    0.0
2026/01/15 12:57:00.000   30.531675496  114.357270103    27.1581   6   5   0.0582   0.0524   0.1378  -0.0167   0.0300  -0.0399   0.00    0.0
2026/01/15 12:57:30.000   30.531675486  114.357270092    27.1590   6   5   0.0582   0.0523   0.1378  -0.0166   0.0300  -0.0399   0.00    0.0
2026/01/15 12:58:00.000   30.531675478  114.357270080    27.1599   6   5   0.0582   0.0523   0.1377  -0.0166   0.0300  -0.0399   0.00    0.0
2026/01/15 12:58:30.000   30.531675467  114.357270071    27.1608   6   5   0.0581   0.0523   0.1377  -0.0166   0.0300  -0.0399   0.00    0.0
2026/01/15 12:59:00.000   30.531675458  114.357270058    27.1618   6   5   0.0581   0.0523   0.1377  -0.0166   0.0299  -0.0399   0.00    0.0
2026/01/15 12:59:30.000   30.531675449  114.357270049    27.1626   6   5   0.0581   0.0523   0.1376  -0.0166   0.0299  -0.0399   0.00    0.0
2026/01/15 13:00:00.000   30.531675440  114.357270035    27.1632   6   5   0.0581   0.0522   0.1376  -0.0166   0.0299  -0.0399   0.00    0.0
2026/01/15 13:00:30.000   30.531675434  114.357270026    27.1645   6   6   0.0581   0.0522   0.1376  -0.0166   0.0299  -0.0399   0.00    0.0
2026/01/15 13:01:00.000   30.531675423  114.357270013    27.1654   6   6   0.0581   0.0522   0.1375  -0.0166   0.0299  -0.0399   0.00    0.0
2026/01/15 13:01:30.000   30.531675414  114.357270000    27.1665   6   6   0.0580   0.0522   0.1375  -0.0165   0.0299  -0.0399   0.00    0.0
2026/01/15 13:02:00.000   30.531675405  114.357269990    27.1672   6   6   0.0580   0.0521   0.1375  -0.0165   0.0299  -0.0399   0.00    0.0
2026/01/15 13:02:30.000   30.531675398  114.357269979    27.1682   6   6   0.0580   0.0521   0.1375  -0.0165   0.0298  -0.0399   0.00    0.0
2026/01/15 13:03:00.000   30.531675390  114.357269968    27.1695   6   6   0.0580   0.0521   0.1374  -0.0165   0.0298  -0.0399   0.00    0.0
2026/01/15 13:03:30.000   30.531675381  114.357269960    27.1707   6   6   0.0580   0.0521   0.1374  -0.0165   0.0298  -0.0399   0.00    0.0
2026/01/15 13:04:00.000   30.531675373  114.357269950    27.1722   6   6   0.0579   0.0520   0.1374  -0.0165   0.0298  -0.0399   0.00    0.0
2026/01/15 13:04:30.000   30.531675363  114.357269938    27.1735   6   6   0.0579   0.0520   0.1373  -0.0165   0.0298  -0.0399   0.00    0.0
2026/01/15 13:05:00.000   30.531675354  114.357269927    27.1750   6   6   0.0579   0.0520   0.1373  -0.0165   0.0298  -0.0399   0.00    0.0
2026/01/15 13:05:30.000   30.531675348  114.357269913    27.1761   6   6   0.0579   0.0520   0.1373  -0.0165   0.0298  -0.0399   0.00    0.0
2026/01/15 13:06:00.000   30.531675339  114.357269902    27.1771   6   6   0.0579   0.0520   0.1372  -0.0165   0.0298  -0.0399   0.00    0.0
2026/01/15 13:06:30.000   30.531675329  114.357269889    27.1786   6   6   0.0578   0.0519   0.1372  -0.0164   0.0297  -0.0399   0.00    0.0
2026/01/15 13:07:00.000   30.531675320  114.357269878    27.1799   6   6   0.0578   0.0519   0.1372  -0.0164   0.0297  -0.0399   0.00    0.0
2026/01/15 13:07:30.000   30.531675312  114.357269866    27.1812   6   6   0.0578   0.0519   0.1371  -0.0164   0.0297  -0.0399   0.00    0.0
2026/01/15 13:08:00.000   30.531675305  114.357269855    27.1823   6   6   0.0578   0.0519   0.1371  -0.0164   0.0297  -0.0399   0.00    0.0
2026/01/15 13:08:30.000   30.531675298  114.357269846    27.1837   6   6   0.0578   0.0518   0.1371  -0.0164   0.0297  -0.0399   0.00    0.0
2026/01/15 13:09:00.000   30.531675289  114.357269836    27.1848   6   6   0.0578   0.0518   0.1370  -0.0164   0.0297  -0.0398   0.00    0.0
2026/01/15 13:09:30.000   30.531675279  114.357269826    27.1865   6   6   0.0577   0.0518   0.1370  -0.0164   0.0297  -0.0398   0.00    0.0
2026/01/15 13:10:00.000   30.531675270  114.357269814    27.1882   6   6   0.0577   0.0518   0.1370  -0.0164   0.0297  -0.0398   0.00    0.0
2026/01/15 13:10:30.000   30.531675263  114.357269801    27.1895   6   6   0.0577   0.0518   0.1369  -0.0164   0.0297  -0.0398   0.00    0.0
2026/01/15 13:11:00.000   30.531675255  114.357269790    27.1906   6   6   0.0577   0.0517   0.1369  -0.0164   0.0297  -0.0398   0.00    0.0
2026/01/15 13:11:30.000   30.531675246  114.357269780    27.1920   6   6   0.0577   0.0517   0.1369  -0.0164   0.0297  -0.0398   0.00    0.0
2026/01/15 13:12:00.000   30.531675237  114.357269768    27.1937   6   6   0.0576   0.0517   0.1368  -0.0164   0.0297  -0.0398   0.00    0.0
2026/01/15 13:12:30.000   30.531675229  114.357269756    27.1954   6   7   0.0576   0.0517   0.1368  -0.0163   0.0297  -0.0398   0.00    0.0
2026/01/15 13:13:00.000   30.531675220  114.357269747    27.1969   6   7   0.0576   0.0517   0.1368  -0.0163   0.0296  -0.0398   0.00    0.0
2026/01/15 13:13:30.000   30.531675212  114.357269734    27.1979   6   7   0.0576   0.0516   0.1367  -0.0163   0.0296  -0.0398   0.00    0.0
2026/01/15 13:14:00.000   30.531675204  114.357269722    27.1994   6   7   0.0576   0.0516   0.1367  -0.0163   0.0296  -0.0398   0.00    0.0
2026/01/15 13:14:30.000   30.531675195  114.357269709    27.2010   6   7   0.0575   0.0516   0.1367  -0.0163   0.0296  -0.0398   0.00    0.0
2026/01/15 13:15:00.000   30.531675187  114.357269699    27.2025   6   7   0.0575   0.0516   0.1366  -0.0163   0.0296  -0.0398   0.00    0.0
2026/01/15 13:15:30.000   30.531675179  114.357269687    27.2042   6   7   0.0575   0.0515   0.1366  -0.0163   0.0296  -0.0398   0.00    0.0
2026/01/15 13:16:00.000   30.531675174  114.357269674    27.2055   6   7   0.0575   0.0515   0.1365  -0.0163   0.0296  -0.0398   0.00    0.0
2026/01/15 13:16:30.000   30.531675166  114.357269660    27.2068   6   7   0.0575   0.0515   0.1365  -0.0163   0.0296  -0.0398   0.00    0.0
2026/01/15 13:17:00.000   30.531675158  114.357269649    27.2080   6   7   0.0574   0.0515   0.1365  -0.0163   0.0296  -0.0398   0.00    0.0
2026/01/15 13:17:30.000   30.531675151  114.357269639    27.2097   6   7   0.0574   0.0515   0.1364  -0.0163   0.0296  -0.0398   0.00    0.0
2026/01/15 13:18:00.000   30.531675141  114.357269629    27.2117   6   7   0.0574   0.0514   0.1364  -0.0163   0.0296  -0.0398   0.00    0.0
2026/01/15 13:18:30.000   30.531675135  114.357269620    27.2135   6   7   0.0574   0.0514   0.1364  -0.0163   0.0296  -0.0398   0.00    0.0
2026/01/15 13:19:00.000   30.531675126  114.357269611    27.2153   6   7   0.0574   0.0514   0.1363  -0.0163   0.0296  -0.0398   0.00    0.0
2026/01/15 13:19:30.000   30.531675119  114.357269603    27.2172   6   7   0.0573   0.0514   0.1363  -0.0163   0.0296  -0.0398   0.00    0.0
2026/01/15 13:20:00.000   30.531675110  114.357269592    27.2190   6   7   0.0573   0.0514   0.1362  -0.0163   0.0296  -0.0398   0.00    0.0
2026/01/15 13:20:30.000   30.531675101  114.357269581    27.2210   6   7   0.0573   0.0513   0.1362  -0.0163   0.0296  -0.0398   0.00    0.0
2026/01/15 13:21:00.000   30.531675092  114.357269574    27.2235   6   8   0.0573   0.0513   0.1362  -0.0162   0.0296  -0.0398   0.00    0.0
2026/01/15 13:21:30.000   30.531675083  114.357269564    27.2257   6   8   0.0573   0.0513   0.1361  -0.0162   0.0296  -0.0399   0.00    0.0
2026/01/15 13:22:00.000   30.531675073  114.357269555    27.2279   6   8   0.0573   0.0513   0.1361  -0.0162   0.0296  -0.0399   0.00    0.0
2026/01/15 13:22:30.000   30.531675063  114.357269546    27.2299   6   8   0.0572   0.0513   0.1361  -0.0162   0.0296  -0.0399   0.00    0.0
2026/01/15 13:23:00.000   30.531675056  114.357269536    27.2321   6   8   0.0572   0.0512   0.1360  -0.0162   0.0296  -0.0399   0.00    0.0
2026/01/15 13:23:30.000   30.531675047  114.357269525    27.2342   6   8   0.0572   0.0512   0.1360  -0.0162   0.0296  -0.0399   0.00    0.0
2026/01/15 13:24:00.000   30.531675031  114.357269522    27.2387   6   8   0.0572   0.0512   0.1359  -0.0162   0.0296  -0.0398   0.00    0.0
2026/01/15 13:24:30.000   30.531675017  114.357269519    27.2419   6   8   0.0571   0.0512   0.1359  -0.0162   0.0296  -0.0398   0.00    0.0
2026/01/15 13:25:00.000   30.531675002  114.357269518    27.2459   6   8   0.0571   0.0511   0.1358  -0.0162   0.0296  -0.0398   0.00    0.0
2026/01/15 13:25:30.000   30.531674992  114.357269512    27.2490   6   8   0.0571   0.0511   0.1358  -0.0162   0.0295  -0.0398   0.00    0.0
2026/01/15 13:26:00.000   30.531674980  114.357269513    27.2527   6   8   0.0571   0.0511   0.1357  -0.0161   0.0295  -0.0398   0.00    0.0
2026/01/15 13:26:30.000   30.531674966  114.357269512    27.2566   6   8   0.0570   0.0511   0.1356  -0.0161   0.0295  -0.0398   0.00    0.0
2026/01/15 13:27:00.000   30.531674950  114.357269511    27.2614   6   8   0.0570   0.0510   0.1356  -0.0161   0.0295  -0.0398   0.00    0.0
2026/01/15 13:27:30.000   30.531674935  114.357269512    27.2652   6   8   0.0570   0.0510   0.1355  -0.0161   0.0295  -0.0398   0.00    0.0
2026/01/15 13:28:00.000   30.531674920  114.357269510    27.2700   6   8   0.0570   0.0510   0.1355  -0.0161   0.0295  -0.0397   0.00    0.0
2026/01/15 13:28:30.000   30.531674905  114.357269508    27.2745   6   8   0.0570   0.0510   0.1354  -0.0161   0.0294  -0.0397   0.00    0.0
2026/01/15 13:29:00.000   30.531674893  114.357269503    27.2792   6   8   0.0569   0.0509   0.1354  -0.0161   0.0294  -0.0397   0.00    0.0
2026/01/15 13:29:30.000   30.531674881  114.357269506    27.2834   6   8   0.0569   0.0509   0.1353  -0.0160   0.0294  -0.0397   0.00    0.0
2026/01/15 13:30:00.000   30.531674869  114.357269504    27.2874   6   8   0.0569   0.0509   0.1352  -0.0160   0.0294  -0.0397   0.00    0.0
2026/01/15 13:30:30.000   30.531674858  114.357269499    27.2910   6   8   0.0569   0.0509   0.1352  -0.0160   0.0294  -0.0397   0.00    0.0
2026/01/15 13:31:00.000   30.531674845  114.357269500    27.2946   6   8   0.0568   0.0509   0.1351  -0.0160   0.0294  -0.0397   0.00    0.0
2026/01/15 13:31:30.000   30.531674832  114.357269499    27.2989   6   8   0.0568   0.0508   0.1351  -0.0160   0.0293  -0.0397   0.00    0.0
2026/01/15 13:32:00.000   30.531674820  114.357269497    27.3030   6   8   0.0568   0.0508   0.1350  -0.0160   0.0293  -0.0397   0.00    0.0
2026/01/15 13:32:30.000   30.531674810  114.357269491    27.3064   6   8   0.0568   0.0508   0.1349  -0.0160   0.0293  -0.0397   0.00    0.0
2026/01/15 13:33:00.000   30.531674802  114.357269488    27.3100   6   8   0.0567   0.0508   0.1349  -0.0159   0.0293  -0.0396   0.00    0.0
2026/01/15 13:33:30.000   30.531674787  114.357269485    27.3145   6   8   0.0567   0.0507   0.1348  -0.0159   0.0293  -0.0396   0.00    0.0
2026/01/15 13:34:00.000   30.531674773  114.357269482    27.3186   6   8   0.0567   0.0507   0.1348  -0.0159   0.0293  -0.0396   0.00    0.0
2026/01/15 13:34:30.000   30.531674760  114.357269482    27.3229   6   8   0.0567   0.0507   0.1347  -0.0159   0.0293  -0.0396   0.00    0.0
2026/01/15 13:35:00.000   30.531674748  114.357269478    27.3262   6   8   0.0566   0.0507   0.1346  -0.0159   0.0292  -0.0396   0.00    0.0
2026/01/15 13:35:30.000   30.531674735  114.357269478    27.3307   6   8   0.0566   0.0506   0.1346  -0.0159   0.0292  -0.0396   0.00    0.0
2026/01/15 13:36:00.000   30.531674723  114.357269476    27.3343   6   8   0.0566   0.0506   0.1345  -0.0159   0.0292  -0.0396   0.00    0.0
2026/01/15 13:36:30.000   30.531674709  114.357269472    27.3387   6   8   0.0566   0.0506   0.1344  -0.0159   0.0292  -0.0396   0.00    0.0
2026/01/15 13:37:00.000   30.531674696  114.357269469    27.3427   6   8   0.0566   0.0506   0.1344  -0.0158   0.0292  -0.0396   0.00    0.0
2026/01/15 13:37:30.000   30.531674681  114.357269469    27.3472   6   8   0.0565   0.0506   0.1343  -0.0158   0.0292  -0.0396   0.00    0.0
2026/01/15 13:38:00.000   30.531674666  114.357269468    27.3517   6   8   0.0565   0.0505   0.1343  -0.0158   0.0292  -0.0396   0.00    0.0
2026/01/15 13:38:30.000   30.531674653  114.357269466    27.3561   6   8   0.0565   0.0505   0.1342  -0.0158   0.0291  -0.0396   0.00    0.0
2026/01/15 13:39:00.000   30.531674640  114.357269463    27.3611   6   8   0.0565   0.0505   0.1341  -0.0158   0.0291  -0.0396   0.00    0.0
2026/01/15 13:39:30.000   30.531674629  114.357269461    27.3646   6   8   0.0564   0.0505   0.1341  -0.0158   0.0291  -0.0396   0.00    0.0
2026/01/15 13:40:00.000   30.531674621  114.357269459    27.3685   6   8   0.0564   0.0504   0.1340  -0.0158   0.0291  -0.0396   0.00    0.0
2026/01/15 13:40:30.000   30.531674612  114.357269458    27.3728   6   8   0.0564   0.0504   0.1339  -0.0158   0.0291  -0.0396   0.00    0.0
2026/01/15 13:41:00.000   30.531674599  114.357269456    27.3782   6   8   0.0564   0.0504   0.1339  -0.0157   0.0291  -0.0396   0.00    0.0
2026/01/15 13:41:30.000   30.531674589  114.357269454    27.3825   6   8   0.0563   0.0504   0.1338  -0.0157   0.0291  -0.0396   0.00    0.0
2026/01/15 13:42:00.000   30.531674575  114.357269456    27.3875   6   8   0.0563   0.0504   0.1337  -0.0157   0.0290  -0.0396   0.00    0.0
2026/01/15 13:42:30.000   30.531674563  114.357269455    27.3924   6   8   0.0563   0.0503   0.1337  -0.0157   0.0290  -0.0396   0.00    0.0
2026/01/15 13:43:00.000   30.531674552  114.357269453    27.3971   6   8   0.0563   0.0503   0.1336  -0.0157   0.0290  -0.0396   0.00    0.0
2026/01/15 13:43:30.000   30.531674542  114.357269452    27.4012   6   8   0.0563   0.0503   0.1335  -0.0157   0.0290  -0.0396   0.00    0.0
2026/01/15 13:44:00.000   30.531674531  114.357269453    27.4053   6   8   0.0562   0.0503   0.1335  -0.0157   0.0290  -0.0396   0.00    0.0
2026/01/15 13:44:30.000   30.531674521  114.357269453    27.4101   6   8   0.0562   0.0502   0.1334  -0.0157   0.0290  -0.0396   0.00    0.0
2026/01/15 13:45:00.000   30.531674515  114.357269450    27.4148   6   8   0.0562   0.0502   0.1333  -0.0157   0.0290  -0.0396   0.00    0.0
2026/01/15 13:45:30.000   30.531674506  114.357269447    27.4190   6   8   0.0562   0.0502   0.1333  -0.0157   0.0290  -0.0396   0.00    0.0
2026/01/15 13:46:00.000   30.531674496  114.357269445    27.4243   6   8   0.0561   0.0502   0.1332  -0.0156   0.0289  -0.0396   0.00    0.0
2026/01/15 13:46:30.000   30.531674486  114.357269447    27.4289   6   8   0.0561   0.0502   0.1331  -0.0156   0.0289  -0.0396   0.00    0.0
2026/01/15 13:47:00.000   30.531674479  114.357269446    27.4329   6   8   0.0561   0.0501   0.1331  -0.0156   0.0289  -0.0396   0.00    0.0
2026/01/15 13:47:30.000   30.531674468  114.357269447    27.4383   6   8   0.0561   0.0501   0.1330  -0.0156   0.0289  -0.0396   0.00    0.0
2026/01/15 13:48:00.000   30.531674456  114.357269448    27.4432   6   8   0.0560   0.0501   0.1329  -0.0156   0.0289  -0.0396   0.00    0.0
2026/01/15 13:48:30.000   30.531674445  114.357269446    27.4479   6   8   0.0560   0.0501   0.1328  -0.0156   0.0289  -0.0396   0.00    0.0
2026/01/15 13:49:00.000   30.531674435  114.357269448    27.4533   6   8   0.0560   0.0500   0.1328  -0.0156   0.0289  -0.0396   0.00    0.0
