% program   : RTKPOST-EX 2.5.0
% inp file  : C:\Users\tevin\Desktop\GNSS - MASTA\SPRING SEM\4.SAT NAV DATA PROCESSING\TEAM PROJECT\SNDP-PROJECT\New_Data\obs\RNXDATA\WUH200CHN_R_20260150000_01D_30S_MO.rnx
% inp file  : C:\Users\tevin\Desktop\GNSS - MASTA\SPRING SEM\4.SAT NAV DATA PROCESSING\TEAM PROJECT\SNDP-PROJECT\Old_data\products\nav\BRD400DLR_S_20260150000_01D_MN.rnx
% obs start : 2026/01/15 00:00:00.0 GPST (week2401 345600.0s)
% obs end   : 2026/01/15 23:59:30.0 GPST (week2401 431970.0s)
% pos mode  : PPP Static
% freqs     : L1+L2/E5b
% solution  : Forward
% elev mask : 15.0 deg
% dynamics  : on
% tidecorr  :
% ionos opt : Broadcast
% tropo opt : Saastamoinen
% ephemeris : Broadcast
% navi sys  : GPS
% antenna1  :                       ( 0.0000  0.0000  0.1206)
%
% (lat/lon/height=WGS84/ellipsoidal,Q=1:fix,2:float,3:sbas,4:dgps,5:single,6:ppp,ns=# of satellites)
%  GPST                  latitude(deg) longitude(deg)  height(m)   Q  ns   sdn(m)   sde(m)   sdu(m)  sdne(m)  sdeu(m)  sdun(m) age(s)  ratio
2026/01/15 00:10:00.000   30.531716659  114.357238159    24.8012   6   4   0.4381   0.4783   1.1717  -0.2549   0.5027  -0.4222   0.00    0.0
2026/01/15 00:10:30.000   30.531716642  114.357237844    24.6749   6   4   0.4277   0.4660   1.1362  -0.2499   0.4862  -0.4132   0.00    0.0
2026/01/15 00:11:00.000   30.531716545  114.357237561    24.5709   6   4   0.4180   0.4547   1.1038  -0.2452   0.4713  -0.4045   0.00    0.0
2026/01/15 00:12:00.000   30.531716293  114.357237576    24.4627   6   4   0.4004   0.4346   1.0465  -0.2363   0.4453  -0.3883   0.00    0.0
2026/01/15 00:12:30.000   30.531716242  114.357237445    24.4118   6   4   0.3923   0.4255   1.0209  -0.2322   0.4337  -0.3808   0.00    0.0
2026/01/15 00:13:30.000   30.531716192  114.357237267    24.3526   6   5   0.3777   0.4090   0.9746  -0.2246   0.4132  -0.3667   0.00    0.0
2026/01/15 00:14:00.000   30.531716127  114.357237242    24.3341   6   5   0.3709   0.4016   0.9536  -0.2210   0.4041  -0.3601   0.00    0.0
2026/01/15 00:15:00.000   30.531716195  114.357237201    24.2825   6   5   0.3584   0.3879   0.9154  -0.2145   0.3875  -0.3477   0.00    0.0
2026/01/15 00:15:30.000   30.531716226  114.357237221    24.2630   6   5   0.3527   0.3816   0.8978  -0.2114   0.3799  -0.3418   0.00    0.0
2026/01/15 00:16:00.000   30.531716174  114.357237173    24.2321   6   5   0.3471   0.3756   0.8812  -0.2084   0.3728  -0.3362   0.00    0.0
2026/01/15 00:16:30.000   30.531716123  114.357237104    24.2255   6   4   0.3419   0.3700   0.8654  -0.2056   0.3661  -0.3309   0.00    0.0
2026/01/15 00:18:30.000   30.531716048  114.357237246    24.2295   6   4   0.3231   0.3499   0.8099  -0.1953   0.3428  -0.3113   0.00    0.0
2026/01/15 00:19:30.000   30.531716012  114.357237241    24.2060   6   4   0.3148   0.3411   0.7856  -0.1908   0.3328  -0.3025   0.00    0.0
2026/01/15 00:20:00.000   30.531716013  114.357237292    24.1764   6   4   0.3109   0.3369   0.7741  -0.1886   0.3281  -0.2983   0.00    0.0
2026/01/15 00:22:00.000   30.531716035  114.357237298    24.1428   6   5   0.2966   0.3220   0.7332  -0.1806   0.3114  -0.2830   0.00    0.0
2026/01/15 00:22:30.000   30.531716013  114.357237334    24.1197   6   5   0.2933   0.3185   0.7237  -0.1788   0.3076  -0.2794   0.00    0.0
2026/01/15 00:23:00.000   30.531716033  114.357237351    24.0992   6   5   0.2901   0.3152   0.7146  -0.1770   0.3040  -0.2760   0.00    0.0
2026/01/15 00:26:00.000   30.531715221  114.357238197    24.2657   6   5   0.2716   0.2955   0.6619  -0.1642   0.2798  -0.2526   0.00    0.0
2026/01/15 00:26:30.000   30.531714717  114.357238913    24.4076   6   4   0.2676   0.2909   0.6503  -0.1598   0.2722  -0.2455   0.00    0.0
2026/01/15 00:27:00.000   30.531714236  114.357239584    24.5446   6   4   0.2638   0.2865   0.6394  -0.1557   0.2651  -0.2389   0.00    0.0
2026/01/15 00:27:30.000   30.531713799  114.357240290    24.6744   6   4   0.2603   0.2824   0.6291  -0.1519   0.2585  -0.2326   0.00    0.0
2026/01/15 00:28:00.000   30.531713319  114.357240906    24.8025   6   4   0.2571   0.2784   0.6199  -0.1482   0.2523  -0.2261   0.00    0.0
2026/01/15 00:29:00.000   30.531712543  114.357242195    25.0285   6   4   0.2514   0.2712   0.6029  -0.1416   0.2409  -0.2139   0.00    0.0
2026/01/15 00:29:30.000   30.531712113  114.357242872    25.1424   6   4   0.2487   0.2677   0.5950  -0.1386   0.2357  -0.2083   0.00    0.0
2026/01/15 00:30:30.000   30.531711476  114.357243991    25.3331   6   4   0.2436   0.2614   0.5804  -0.1329   0.2260  -0.1978   0.00    0.0
2026/01/15 00:31:00.000   30.531711163  114.357244505    25.4175   6   4   0.2412   0.2584   0.5735  -0.1303   0.2216  -0.1929   0.00    0.0
2026/01/15 00:31:30.000   30.531710856  114.357244939    25.4918   6   4   0.2389   0.2555   0.5670  -0.1278   0.2174  -0.1882   0.00    0.0
2026/01/15 00:32:00.000   30.531710588  114.357245398    25.5694   6   4   0.2367   0.2527   0.5607  -0.1254   0.2134  -0.1838   0.00    0.0
2026/01/15 00:32:30.000   30.531710302  114.357245853    25.6461   6   4   0.2345   0.2500   0.5547  -0.1232   0.2096  -0.1795   0.00    0.0
2026/01/15 00:33:00.000   30.531710095  114.357246249    25.6944   6   4   0.2325   0.2475   0.5489  -0.1210   0.2059  -0.1753   0.00    0.0
2026/01/15 00:33:30.000   30.531709860  114.357246634    25.7506   6   4   0.2305   0.2450   0.5433  -0.1189   0.2024  -0.1713   0.00    0.0
2026/01/15 00:34:00.000   30.531709673  114.357246990    25.8023   6   4   0.2286   0.2426   0.5379  -0.1169   0.1991  -0.1675   0.00    0.0
2026/01/15 00:34:30.000   30.531709443  114.357247408    25.8537   6   4   0.2267   0.2402   0.5327  -0.1150   0.1959  -0.1638   0.00    0.0
2026/01/15 00:35:00.000   30.531709234  114.357247778    25.9090   6   4   0.2249   0.2380   0.5277  -0.1131   0.1929  -0.1603   0.00    0.0
2026/01/15 00:35:30.000   30.531709018  114.357248197    25.9606   6   4   0.2231   0.2358   0.5229  -0.1114   0.1899  -0.1569   0.00    0.0
2026/01/15 00:36:00.000   30.531708819  114.357248555    26.0147   6   4   0.2214   0.2337   0.5182  -0.1097   0.1871  -0.1536   0.00    0.0
2026/01/15 00:36:30.000   30.531708689  114.357248866    26.0463   6   4   0.2198   0.2316   0.5137  -0.1080   0.1844  -0.1504   0.00    0.0
2026/01/15 00:37:00.000   30.531708458  114.357249246    26.1044   6   4   0.2182   0.2297   0.5093  -0.1065   0.1818  -0.1473   0.00    0.0
2026/01/15 00:37:30.000   30.531708268  114.357249553    26.1547   6   4   0.2166   0.2277   0.5051  -0.1050   0.1794  -0.1443   0.00    0.0
2026/01/15 00:38:00.000   30.531708112  114.357249828    26.1918   6   4   0.2151   0.2259   0.5010  -0.1035   0.1770  -0.1414   0.00    0.0
2026/01/15 00:38:30.000   30.531707907  114.357250139    26.2353   6   4   0.2136   0.2240   0.4970  -0.1021   0.1746  -0.1386   0.00    0.0
2026/01/15 00:39:00.000   30.531707732  114.357250461    26.2712   6   4   0.2122   0.2223   0.4931  -0.1007   0.1724  -0.1359   0.00    0.0
2026/01/15 00:39:30.000   30.531707589  114.357250728    26.2978   6   4   0.2108   0.2205   0.4894  -0.0994   0.1703  -0.1333   0.00    0.0
2026/01/15 00:40:00.000   30.531707474  114.357251001    26.3243   6   4   0.2095   0.2189   0.4857  -0.0982   0.1683  -0.1308   0.00    0.0
2026/01/15 00:40:30.000   30.531707351  114.357251240    26.3434   6   4   0.2081   0.2172   0.4822  -0.0969   0.1663  -0.1284   0.00    0.0
2026/01/15 00:41:00.000   30.531707229  114.357251519    26.3689   6   4   0.2069   0.2156   0.4788  -0.0958   0.1644  -0.1260   0.00    0.0
2026/01/15 00:41:30.000   30.531707194  114.357251819    26.3656   6   4   0.2057   0.2141   0.4761  -0.0945   0.1624  -0.1244   0.00    0.0
2026/01/15 00:42:00.000   30.531707143  114.357252111    26.3675   6   4   0.2046   0.2126   0.4735  -0.0933   0.1604  -0.1229   0.00    0.0
2026/01/15 00:42:30.000   30.531707105  114.357252387    26.3559   6   4   0.2035   0.2112   0.4709  -0.0921   0.1584  -0.1214   0.00    0.0
2026/01/15 00:43:00.000   30.531707068  114.357252644    26.3467   6   4   0.2025   0.2098   0.4684  -0.0910   0.1566  -0.1200   0.00    0.0
2026/01/15 00:43:30.000   30.531707003  114.357252918    26.3405   6   4   0.2014   0.2084   0.4659  -0.0899   0.1548  -0.1186   0.00    0.0
2026/01/15 00:44:00.000   30.531706944  114.357253210    26.3362   6   4   0.2004   0.2071   0.4635  -0.0888   0.1530  -0.1173   0.00    0.0
2026/01/15 00:44:30.000   30.531706898  114.357253470    26.3304   6   4   0.1994   0.2058   0.4612  -0.0878   0.1513  -0.1160   0.00    0.0
2026/01/15 00:45:00.000   30.531706872  114.357253687    26.3221   6   4   0.1984   0.2045   0.4589  -0.0868   0.1497  -0.1147   0.00    0.0
2026/01/15 00:45:30.000   30.531706814  114.357253916    26.3108   6   4   0.1974   0.2032   0.4566  -0.0858   0.1481  -0.1135   0.00    0.0
2026/01/15 00:46:00.000   30.531706767  114.357254138    26.3064   6   4   0.1965   0.2020   0.4544  -0.0849   0.1465  -0.1123   0.00    0.0
2026/01/15 00:46:30.000   30.531706732  114.357254390    26.3051   6   4   0.1955   0.2008   0.4523  -0.0840   0.1450  -0.1112   0.00    0.0
2026/01/15 00:47:00.000   30.531706695  114.357254621    26.3024   6   4   0.1946   0.1996   0.4502  -0.0831   0.1436  -0.1101   0.00    0.0
2026/01/15 00:47:30.000   30.531706681  114.357254805    26.2879   6   4   0.1937   0.1985   0.4481  -0.0822   0.1422  -0.1090   0.00    0.0
2026/01/15 00:48:00.000   30.531706666  114.357254999    26.2746   6   4   0.1928   0.1973   0.4461  -0.0814   0.1408  -0.1080   0.00    0.0
2026/01/15 00:48:30.000   30.531706653  114.357255206    26.2619   6   4   0.1919   0.1962   0.4441  -0.0806   0.1395  -0.1070   0.00    0.0
2026/01/15 00:49:00.000   30.531706611  114.357255439    26.2557   6   4   0.1911   0.1951   0.4421  -0.0798   0.1382  -0.1060   0.00    0.0
2026/01/15 00:49:30.000   30.531706584  114.357255652    26.2480   6   4   0.1902   0.1941   0.4402  -0.0790   0.1369  -0.1051   0.00    0.0
2026/01/15 00:50:00.000   30.531706558  114.357255854    26.2405   6   4   0.1894   0.1930   0.4383  -0.0783   0.1357  -0.1041   0.00    0.0
2026/01/15 00:50:30.000   30.531706535  114.357256069    26.2243   6   4   0.1886   0.1920   0.4364  -0.0775   0.1345  -0.1033   0.00    0.0
2026/01/15 00:51:00.000   30.531706518  114.357256261    26.2104   6   4   0.1878   0.1910   0.4346  -0.0768   0.1334  -0.1024   0.00    0.0
2026/01/15 00:51:30.000   30.531706488  114.357256479    26.2038   6   4   0.1870   0.1900   0.4328  -0.0761   0.1323  -0.1016   0.00    0.0
2026/01/15 00:52:00.000   30.531706461  114.357256683    26.1917   6   4   0.1862   0.1891   0.4310  -0.0755   0.1312  -0.1008   0.00    0.0
2026/01/15 00:52:30.000   30.531706437  114.357256897    26.1771   6   4   0.1854   0.1881   0.4293  -0.0748   0.1301  -0.1000   0.00    0.0
2026/01/15 00:53:00.000   30.531706413  114.357257077    26.1651   6   4   0.1847   0.1872   0.4276  -0.0742   0.1291  -0.0992   0.00    0.0
2026/01/15 00:53:30.000   30.531706373  114.357257238    26.1559   6   4   0.1839   0.1863   0.4259  -0.0736   0.1281  -0.0985   0.00    0.0
2026/01/15 00:54:00.000   30.531706350  114.357257431    26.1414   6   4   0.1832   0.1854   0.4242  -0.0730   0.1271  -0.0978   0.00    0.0
2026/01/15 00:54:30.000   30.531706308  114.357257631    26.1301   6   4   0.1825   0.1845   0.4225  -0.0724   0.1262  -0.0971   0.00    0.0
2026/01/15 00:55:00.000   30.531706289  114.357257792    26.1188   6   4   0.1818   0.1836   0.4209  -0.0719   0.1253  -0.0964   0.00    0.0
2026/01/15 00:55:30.000   30.531706265  114.357257963    26.1111   6   4   0.1810   0.1828   0.4193  -0.0713   0.1244  -0.0958   0.00    0.0
2026/01/15 00:56:00.000   30.531706242  114.357258130    26.0967   6   4   0.1804   0.1819   0.4178  -0.0708   0.1235  -0.0952   0.00    0.0
2026/01/15 00:56:30.000   30.531706231  114.357258313    26.0866   6   4   0.1797   0.1811   0.4162  -0.0703   0.1227  -0.0946   0.00    0.0
2026/01/15 00:57:00.000   30.531706212  114.357258478    26.0760   6   4   0.1790   0.1803   0.4147  -0.0698   0.1219  -0.0940   0.00    0.0
2026/01/15 00:57:30.000   30.531706169  114.357258627    26.0670   6   4   0.1783   0.1795   0.4131  -0.0693   0.1211  -0.0934   0.00    0.0
2026/01/15 00:58:00.000   30.531706152  114.357258789    26.0558   6   4   0.1777   0.1787   0.4117  -0.0688   0.1203  -0.0929   0.00    0.0
2026/01/15 00:58:30.000   30.531706150  114.357258944    26.0447   6   4   0.1770   0.1779   0.4102  -0.0683   0.1195  -0.0923   0.00    0.0
2026/01/15 00:59:00.000   30.531706151  114.357259090    26.0340   6   4   0.1764   0.1772   0.4087  -0.0679   0.1188  -0.0918   0.00    0.0
2026/01/15 00:59:30.000   30.531706131  114.357259242    26.0219   6   4   0.1758   0.1764   0.4073  -0.0675   0.1181  -0.0913   0.00    0.0
2026/01/15 01:00:00.000   30.531706113  114.357259373    26.0077   6   4   0.1752   0.1757   0.4058  -0.0670   0.1174  -0.0909   0.00    0.0
2026/01/15 01:00:30.000   30.531706085  114.357259496    25.9937   6   4   0.1745   0.1750   0.4044  -0.0666   0.1167  -0.0904   0.00    0.0
2026/01/15 01:01:00.000   30.531706057  114.357259602    25.9832   6   4   0.1739   0.1742   0.4030  -0.0662   0.1160  -0.0900   0.00    0.0
2026/01/15 01:01:30.000   30.531706035  114.357259718    25.9712   6   4   0.1733   0.1735   0.4017  -0.0658   0.1154  -0.0895   0.00    0.0
2026/01/15 01:02:00.000   30.531706021  114.357259861    25.9599   6   4   0.1728   0.1728   0.4003  -0.0655   0.1148  -0.0891   0.00    0.0
2026/01/15 01:02:30.000   30.531705993  114.357259993    25.9488   6   4   0.1722   0.1722   0.3989  -0.0651   0.1142  -0.0887   0.00    0.0
2026/01/15 01:03:00.000   30.531705967  114.357260120    25.9424   6   4   0.1716   0.1715   0.3976  -0.0648   0.1136  -0.0884   0.00    0.0
2026/01/15 01:03:30.000   30.531705934  114.357260254    25.9337   6   4   0.1710   0.1708   0.3963  -0.0644   0.1130  -0.0880   0.00    0.0
2026/01/15 01:04:00.000   30.531705899  114.357260375    25.9261   6   4   0.1705   0.1702   0.3950  -0.0641   0.1124  -0.0876   0.00    0.0
2026/01/15 01:04:30.000   30.531705866  114.357260497    25.9201   6   4   0.1699   0.1695   0.3937  -0.0638   0.1119  -0.0873   0.00    0.0
2026/01/15 01:05:00.000   30.531705833  114.357260620    25.9138   6   4   0.1694   0.1689   0.3924  -0.0634   0.1113  -0.0870   0.00    0.0
2026/01/15 01:05:30.000   30.531705804  114.357260757    25.9097   6   4   0.1689   0.1682   0.3911  -0.0631   0.1108  -0.0867   0.00    0.0
2026/01/15 01:06:00.000   30.531705784  114.357260877    25.9003   6   4   0.1683   0.1676   0.3899  -0.0628   0.1103  -0.0864   0.00    0.0
2026/01/15 01:06:30.000   30.531705768  114.357261000    25.8898   6   4   0.1678   0.1670   0.3886  -0.0626   0.1098  -0.0861   0.00    0.0
2026/01/15 01:07:00.000   30.531705753  114.357261111    25.8799   6   4   0.1673   0.1664   0.3874  -0.0623   0.1093  -0.0858   0.00    0.0
2026/01/15 01:07:30.000   30.531705732  114.357261236    25.8723   6   4   0.1668   0.1658   0.3861  -0.0620   0.1088  -0.0856   0.00    0.0
2026/01/15 01:08:00.000   30.531705707  114.357261335    25.8660   6   4   0.1663   0.1652   0.3849  -0.0617   0.1084  -0.0853   0.00    0.0
2026/01/15 01:08:30.000   30.531705680  114.357261433    25.8551   6   4   0.1658   0.1646   0.3837  -0.0615   0.1079  -0.0851   0.00    0.0
2026/01/15 01:09:00.000   30.531705659  114.357261539    25.8440   6   4   0.1653   0.1641   0.3825  -0.0612   0.1075  -0.0848   0.00    0.0
2026/01/15 01:09:30.000   30.531705627  114.357261655    25.8356   6   4   0.1648   0.1635   0.3813  -0.0610   0.1070  -0.0846   0.00    0.0
2026/01/15 01:10:00.000   30.531705596  114.357261767    25.8279   6   4   0.1643   0.1629   0.3801  -0.0608   0.1066  -0.0844   0.00    0.0
2026/01/15 01:10:30.000   30.531705569  114.357261875    25.8253   6   4   0.1638   0.1624   0.3790  -0.0605   0.1062  -0.0842   0.00    0.0
2026/01/15 01:11:00.000   30.531705543  114.357261985    25.8178   6   4   0.1634   0.1619   0.3778  -0.0603   0.1058  -0.0840   0.00    0.0
2026/01/15 01:11:30.000   30.531705522  114.357262100    25.8127   6   4   0.1629   0.1613   0.3766  -0.0601   0.1054  -0.0838   0.00    0.0
2026/01/15 01:12:00.000   30.531705495  114.357262201    25.8067   6   4   0.1624   0.1608   0.3755  -0.0599   0.1050  -0.0837   0.00    0.0
2026/01/15 01:12:30.000   30.531705472  114.357262300    25.8010   6   4   0.1620   0.1603   0.3743  -0.0597   0.1046  -0.0835   0.00    0.0
2026/01/15 01:13:00.000   30.531705437  114.357262419    25.7979   6   4   0.1615   0.1597   0.3732  -0.0595   0.1042  -0.0834   0.00    0.0
2026/01/15 01:13:30.000   30.531705411  114.357262506    25.7913   6   4   0.1611   0.1592   0.3721  -0.0594   0.1039  -0.0832   0.00    0.0
2026/01/15 01:14:00.000   30.531705380  114.357262616    25.7844   6   4   0.1607   0.1587   0.3710  -0.0592   0.1035  -0.0831   0.00    0.0
2026/01/15 01:14:30.000   30.531705348  114.357262711    25.7777   6   4   0.1602   0.1582   0.3699  -0.0590   0.1032  -0.0830   0.00    0.0
2026/01/15 01:15:00.000   30.531705325  114.357262778    25.7690   6   4   0.1598   0.1577   0.3688  -0.0588   0.1028  -0.0828   0.00    0.0
2026/01/15 01:15:30.000   30.531705294  114.357262861    25.7615   6   4   0.1594   0.1572   0.3677  -0.0587   0.1025  -0.0827   0.00    0.0
2026/01/15 01:16:00.000   30.531705278  114.357262943    25.7547   6   4   0.1590   0.1568   0.3666  -0.0585   0.1022  -0.0826   0.00    0.0
2026/01/15 01:16:30.000   30.531705251  114.357263024    25.7508   6   4   0.1585   0.1563   0.3655  -0.0584   0.1018  -0.0825   0.00    0.0
2026/01/15 01:17:00.000   30.531705226  114.357263107    25.7424   6   4   0.1581   0.1558   0.3644  -0.0582   0.1015  -0.0824   0.00    0.0
2026/01/15 01:17:30.000   30.531705200  114.357263198    25.7355   6   4   0.1577   0.1553   0.3634  -0.0581   0.1012  -0.0824   0.00    0.0
2026/01/15 01:18:00.000   30.531705172  114.357263309    25.7314   6   4   0.1573   0.1549   0.3623  -0.0580   0.1009  -0.0823   0.00    0.0
2026/01/15 01:18:30.000   30.531705140  114.357263391    25.7277   6   4   0.1569   0.1544   0.3612  -0.0578   0.1006  -0.0822   0.00    0.0
2026/01/15 01:19:00.000   30.531705123  114.357263481    25.7226   6   4   0.1565   0.1540   0.3602  -0.0577   0.1003  -0.0821   0.00    0.0
2026/01/15 01:19:30.000   30.531705093  114.357263568    25.7155   6   4   0.1562   0.1535   0.3591  -0.0576   0.1000  -0.0821   0.00    0.0
2026/01/15 01:20:00.000   30.531705061  114.357263652    25.7117   6   4   0.1558   0.1531   0.3581  -0.0575   0.0998  -0.0820   0.00    0.0
2026/01/15 01:20:30.000   30.531705034  114.357263724    25.7046   6   4   0.1554   0.1526   0.3571  -0.0574   0.0995  -0.0820   0.00    0.0
2026/01/15 01:21:00.000   30.531705005  114.357263825    25.6976   6   4   0.1550   0.1522   0.3560  -0.0573   0.0992  -0.0819   0.00    0.0
2026/01/15 01:21:30.000   30.531704966  114.357263907    25.6905   6   4   0.1547   0.1518   0.3550  -0.0572   0.0989  -0.0819   0.00    0.0
2026/01/15 01:22:00.000   30.531704933  114.357263996    25.6832   6   4   0.1543   0.1514   0.3540  -0.0571   0.0987  -0.0819   0.00    0.0
2026/01/15 01:22:30.000   30.531704903  114.357264064    25.6771   6   4   0.1539   0.1510   0.3530  -0.0570   0.0984  -0.0819   0.00    0.0
2026/01/15 01:23:00.000   30.531704882  114.357264124    25.6721   6   4   0.1536   0.1505   0.3520  -0.0569   0.0981  -0.0818   0.00    0.0
2026/01/15 01:23:30.000   30.531704841  114.357264189    25.6666   6   4   0.1532   0.1501   0.3510  -0.0568   0.0979  -0.0818   0.00    0.0
2026/01/15 01:24:00.000   30.531704813  114.357264263    25.6608   6   4   0.1529   0.1497   0.3500  -0.0567   0.0976  -0.0818   0.00    0.0
2026/01/15 01:24:30.000   30.531704786  114.357264300    25.6540   6   4   0.1525   0.1493   0.3490  -0.0567   0.0974  -0.0818   0.00    0.0
2026/01/15 01:25:00.000   30.531704758  114.357264358    25.6488   6   4   0.1522   0.1489   0.3480  -0.0566   0.0972  -0.0818   0.00    0.0
2026/01/15 01:25:30.000   30.531704723  114.357264425    25.6429   6   4   0.1519   0.1485   0.3470  -0.0565   0.0969  -0.0818   0.00    0.0
2026/01/15 01:26:00.000   30.531704687  114.357264479    25.6392   6   4   0.1515   0.1481   0.3460  -0.0564   0.0967  -0.0818   0.00    0.0
2026/01/15 01:26:30.000   30.531704658  114.357264527    25.6328   6   4   0.1512   0.1478   0.3451  -0.0564   0.0964  -0.0818   0.00    0.0
2026/01/15 01:27:00.000   30.531704628  114.357264578    25.6280   6   4   0.1509   0.1474   0.3441  -0.0563   0.0962  -0.0818   0.00    0.0
2026/01/15 01:27:30.000   30.531704599  114.357264643    25.6242   6   4   0.1505   0.1470   0.3431  -0.0563   0.0960  -0.0818   0.00    0.0
2026/01/15 01:28:00.000   30.531704566  114.357264689    25.6207   6   4   0.1502   0.1466   0.3422  -0.0562   0.0958  -0.0818   0.00    0.0
2026/01/15 01:28:30.000   30.531704532  114.357264749    25.6156   6   4   0.1499   0.1463   0.3412  -0.0562   0.0955  -0.0819   0.00    0.0
2026/01/15 01:29:00.000   30.531704506  114.357264792    25.6077   6   4   0.1496   0.1459   0.3403  -0.0561   0.0953  -0.0819   0.00    0.0
2026/01/15 01:29:30.000   30.531704480  114.357264853    25.6028   6   4   0.1493   0.1455   0.3393  -0.0561   0.0951  -0.0819   0.00    0.0
2026/01/15 01:30:00.000   30.531704448  114.357264917    25.5981   6   4   0.1490   0.1452   0.3384  -0.0560   0.0949  -0.0819   0.00    0.0
2026/01/15 01:30:30.000   30.531704417  114.357264981    25.5963   6   4   0.1487   0.1448   0.3375  -0.0560   0.0947  -0.0820   0.00    0.0
2026/01/15 01:31:00.000   30.531704386  114.357265028    25.5930   6   4   0.1484   0.1445   0.3365  -0.0559   0.0945  -0.0820   0.00    0.0
2026/01/15 01:31:30.000   30.531704351  114.357265083    25.5898   6   4   0.1481   0.1441   0.3356  -0.0559   0.0942  -0.0820   0.00    0.0
2026/01/15 01:32:00.000   30.531704313  114.357265142    25.5855   6   4   0.1478   0.1438   0.3347  -0.0559   0.0940  -0.0821   0.00    0.0
2026/01/15 01:32:30.000   30.531704274  114.357265197    25.5832   6   4   0.1475   0.1434   0.3338  -0.0558   0.0938  -0.0821   0.00    0.0
2026/01/15 01:33:00.000   30.531704237  114.357265232    25.5747   6   4   0.1472   0.1431   0.3328  -0.0558   0.0936  -0.0821   0.00    0.0
2026/01/15 01:33:30.000   30.531704196  114.357265305    25.5722   6   4   0.1469   0.1428   0.3319  -0.0558   0.0934  -0.0822   0.00    0.0
2026/01/15 01:34:00.000   30.531704158  114.357265357    25.5710   6   4   0.1467   0.1424   0.3310  -0.0558   0.0932  -0.0822   0.00    0.0
2026/01/15 01:34:30.000   30.531704124  114.357265399    25.5665   6   4   0.1464   0.1421   0.3301  -0.0557   0.0930  -0.0823   0.00    0.0
2026/01/15 01:35:00.000   30.531704078  114.357265455    25.5631   6   4   0.1461   0.1418   0.3292  -0.0557   0.0928  -0.0823   0.00    0.0
2026/01/15 01:35:30.000   30.531704041  114.357265508    25.5597   6   4   0.1458   0.1414   0.3283  -0.0557   0.0926  -0.0824   0.00    0.0
2026/01/15 01:36:00.000   30.531704035  114.357265565    25.5654   6   4   0.1455   0.1411   0.3273  -0.0557   0.0924  -0.0827   0.00    0.0
2026/01/15 01:36:30.000   30.531704026  114.357265612    25.5702   6   4   0.1452   0.1408   0.3263  -0.0557   0.0922  -0.0830   0.00    0.0
2026/01/15 01:37:00.000   30.531704023  114.357265651    25.5752   6   4   0.1448   0.1405   0.3253  -0.0557   0.0920  -0.0833   0.00    0.0
2026/01/15 01:37:30.000   30.531704009  114.357265695    25.5776   6   4   0.1445   0.1402   0.3243  -0.0557   0.0918  -0.0836   0.00    0.0
2026/01/15 01:38:00.000   30.531703990  114.357265737    25.5806   6   4   0.1442   0.1399   0.3233  -0.0557   0.0916  -0.0839   0.00    0.0
2026/01/15 01:38:30.000   30.531703978  114.357265778    25.5859   6   4   0.1439   0.1396   0.3223  -0.0557   0.0913  -0.0842   0.00    0.0
2026/01/15 01:39:00.000   30.531703962  114.357265829    25.5907   6   4   0.1435   0.1393   0.3213  -0.0557   0.0911  -0.0845   0.00    0.0
2026/01/15 01:39:30.000   30.531703917  114.357265913    25.6048   6   4   0.1432   0.1389   0.3202  -0.0556   0.0907  -0.0845   0.00    0.0
2026/01/15 01:40:00.000   30.531703909  114.357265981    25.6135   6   4   0.1428   0.1385   0.3191  -0.0555   0.0903  -0.0846   0.00    0.0
2026/01/15 01:40:30.000   30.531703889  114.357266030    25.6228   6   4   0.1424   0.1382   0.3179  -0.0554   0.0899  -0.0846   0.00    0.0
2026/01/15 01:41:00.000   30.531703872  114.357266089    25.6336   6   4   0.1421   0.1378   0.3169  -0.0553   0.0895  -0.0847   0.00    0.0
2026/01/15 01:41:30.000   30.531703853  114.357266139    25.6417   6   4   0.1417   0.1375   0.3158  -0.0552   0.0891  -0.0847   0.00    0.0
2026/01/15 01:42:00.000   30.531703836  114.357266199    25.6525   6   4   0.1414   0.1372   0.3147  -0.0550   0.0887  -0.0848   0.00    0.0
2026/01/15 01:42:30.000   30.531703807  114.357266273    25.6616   6   4   0.1411   0.1368   0.3136  -0.0549   0.0883  -0.0849   0.00    0.0
2026/01/15 01:43:00.000   30.531703786  114.357266323    25.6692   6   4   0.1407   0.1365   0.3126  -0.0548   0.0879  -0.0849   0.00    0.0
2026/01/15 01:43:30.000   30.531703764  114.357266382    25.6788   6   4   0.1404   0.1362   0.3115  -0.0547   0.0875  -0.0850   0.00    0.0
2026/01/15 01:44:00.000   30.531703739  114.357266437    25.6887   6   4   0.1400   0.1358   0.3105  -0.0546   0.0871  -0.0850   0.00    0.0
2026/01/15 01:44:30.000   30.531703719  114.357266490    25.6951   6   4   0.1397   0.1355   0.3094  -0.0545   0.0867  -0.0850   0.00    0.0
2026/01/15 01:45:00.000   30.531703695  114.357266538    25.7012   6   4   0.1393   0.1351   0.3083  -0.0543   0.0862  -0.0849   0.00    0.0
2026/01/15 01:45:30.000   30.531703687  114.357266566    25.7062   6   4   0.1390   0.1348   0.3073  -0.0541   0.0857  -0.0849   0.00    0.0
2026/01/15 01:46:00.000   30.531703652  114.357266617    25.7129   6   4   0.1386   0.1344   0.3062  -0.0540   0.0852  -0.0849   0.00    0.0
2026/01/15 01:46:30.000   30.531703629  114.357266674    25.7156   6   4   0.1383   0.1341   0.3052  -0.0538   0.0848  -0.0848   0.00    0.0
2026/01/15 01:47:00.000   30.531703602  114.357266717    25.7225   6   4   0.1379   0.1337   0.3042  -0.0536   0.0843  -0.0848   0.00    0.0
2026/01/15 01:47:30.000   30.531703571  114.357266764    25.7319   6   4   0.1376   0.1334   0.3031  -0.0535   0.0839  -0.0847   0.00    0.0
2026/01/15 01:48:00.000   30.531703561  114.357266802    25.7384   6   4   0.1373   0.1331   0.3021  -0.0533   0.0835  -0.0847   0.00    0.0
2026/01/15 14:50:00.000   30.531683705  114.357267830    28.1059   6   4   0.0537   0.0478   0.1244  -0.0179   0.0233  -0.0365   0.00    0.0
2026/01/15 14:50:30.000   30.531683701  114.357267812    28.1058   6   4   0.0537   0.0477   0.1243  -0.0179   0.0233  -0.0365   0.00    0.0
2026/01/15 14:51:00.000   30.531683698  114.357267794    28.1062   6   4   0.0536   0.0477   0.1242  -0.0178   0.0232  -0.0365   0.00    0.0
2026/01/15 14:51:30.000   30.531683694  114.357267774    28.1064   6   4   0.0536   0.0477   0.1242  -0.0178   0.0232  -0.0365   0.00    0.0
2026/01/15 14:52:00.000   30.531683692  114.357267756    28.1071   6   4   0.0536   0.0477   0.1241  -0.0178   0.0232  -0.0365   0.00    0.0
2026/01/15 14:52:30.000   30.531683688  114.357267737    28.1078   6   4   0.0536   0.0477   0.1240  -0.0178   0.0232  -0.0366   0.00    0.0
2026/01/15 14:53:00.000   30.531683686  114.357267719    28.1085   6   4   0.0535   0.0476   0.1240  -0.0178   0.0231  -0.0366   0.00    0.0
2026/01/15 14:53:30.000   30.531683681  114.357267703    28.1100   6   4   0.0535   0.0476   0.1239  -0.0178   0.0231  -0.0366   0.00    0.0
2026/01/15 14:54:00.000   30.531683679  114.357267689    28.1110   6   4   0.0535   0.0476   0.1239  -0.0177   0.0231  -0.0366   0.00    0.0
2026/01/15 14:54:30.000   30.531683675  114.357267675    28.1116   6   4   0.0534   0.0476   0.1238  -0.0177   0.0231  -0.0367   0.00    0.0
2026/01/15 14:55:00.000   30.531683673  114.357267658    28.1126   6   4   0.0534   0.0476   0.1237  -0.0177   0.0230  -0.0367   0.00    0.0
2026/01/15 14:55:30.000   30.531683669  114.357267644    28.1136   6   4   0.0534   0.0475   0.1237  -0.0177   0.0230  -0.0367   0.00    0.0
2026/01/15 14:56:00.000   30.531683667  114.357267628    28.1143   6   4   0.0534   0.0475   0.1236  -0.0177   0.0230  -0.0367   0.00    0.0
2026/01/15 14:56:30.000   30.531683666  114.357267611    28.1148   6   4   0.0533   0.0475   0.1236  -0.0177   0.0230  -0.0368   0.00    0.0
2026/01/15 14:57:00.000   30.531683663  114.357267594    28.1156   6   4   0.0533   0.0475   0.1235  -0.0176   0.0230  -0.0368   0.00    0.0
2026/01/15 23:07:00.000   30.531683874  114.357268351    27.2794   6   4   0.0381   0.0359   0.0889  -0.0141   0.0207  -0.0239   0.00    0.0
2026/01/15 23:07:30.000   30.531683882  114.357268335    27.2790   6   4   0.0381   0.0359   0.0889  -0.0141   0.0207  -0.0239   0.00    0.0
2026/01/15 23:08:00.000   30.531683891  114.357268318    27.2784   6   4   0.0381   0.0359   0.0889  -0.0141   0.0207  -0.0239   0.00    0.0
2026/01/15 23:08:30.000   30.531683900  114.357268301    27.2778   6   4   0.0381   0.0359   0.0888  -0.0141   0.0207  -0.0239   0.00    0.0
2026/01/15 23:09:00.000   30.531683908  114.357268285    27.2775   6   4   0.0381   0.0359   0.0888  -0.0141   0.0207  -0.0239   0.00    0.0
2026/01/15 23:09:30.000   30.531683917  114.357268268    27.2770   6   5   0.0381   0.0359   0.0888  -0.0141   0.0207  -0.0239   0.00    0.0
2026/01/15 23:10:00.000   30.531683926  114.357268252    27.2765   6   5   0.0381   0.0359   0.0888  -0.0141   0.0206  -0.0240   0.00    0.0
2026/01/15 23:11:00.000   30.531683944  114.357268218    27.2758   6   5   0.0381   0.0359   0.0888  -0.0141   0.0206  -0.0240   0.00    0.0
2026/01/15 23:11:30.000   30.531683952  114.357268203    27.2754   6   5   0.0381   0.0359   0.0888  -0.0141   0.0206  -0.0240   0.00    0.0
2026/01/15 23:12:00.000   30.531683961  114.357268187    27.2751   6   5   0.0380   0.0359   0.0888  -0.0142   0.0206  -0.0240   0.00    0.0
2026/01/15 23:12:30.000   30.531683971  114.357268170    27.2748   6   4   0.0380   0.0359   0.0888  -0.0142   0.0206  -0.0240   0.00    0.0
2026/01/15 23:13:00.000   30.531683980  114.357268154    27.2744   6   5   0.0380   0.0359   0.0888  -0.0142   0.0206  -0.0240   0.00    0.0
2026/01/15 23:13:30.000   30.531683989  114.357268136    27.2740   6   5   0.0380   0.0358   0.0888  -0.0142   0.0206  -0.0240   0.00    0.0
2026/01/15 23:14:00.000   30.531683999  114.357268119    27.2735   6   5   0.0380   0.0358   0.0887  -0.0142   0.0206  -0.0240   0.00    0.0
2026/01/15 23:15:00.000   30.531684017  114.357268085    27.2732   6   4   0.0380   0.0358   0.0887  -0.0142   0.0205  -0.0240   0.00    0.0
2026/01/15 23:15:30.000   30.531684025  114.357268068    27.2729   6   5   0.0380   0.0358   0.0887  -0.0142   0.0205  -0.0241   0.00    0.0
2026/01/15 23:16:00.000   30.531684035  114.357268053    27.2727   6   5   0.0380   0.0358   0.0887  -0.0142   0.0205  -0.0241   0.00    0.0
2026/01/15 23:16:30.000   30.531684045  114.357268037    27.2725   6   5   0.0380   0.0358   0.0887  -0.0142   0.0205  -0.0241   0.00    0.0
2026/01/15 23:18:00.000   30.531684073  114.357267991    27.2724   6   5   0.0380   0.0358   0.0887  -0.0142   0.0205  -0.0241   0.00    0.0
2026/01/15 23:20:00.000   30.531684111  114.357267926    27.2727   6   5   0.0379   0.0358   0.0886  -0.0142   0.0204  -0.0241   0.00    0.0
2026/01/15 23:23:30.000   30.531684179  114.357267812    27.2738   6   5   0.0379   0.0357   0.0886  -0.0142   0.0204  -0.0242   0.00    0.0
2026/01/15 23:24:00.000   30.531684191  114.357267798    27.2738   6   5   0.0379   0.0357   0.0886  -0.0142   0.0204  -0.0242   0.00    0.0
2026/01/15 23:27:30.000   30.531684267  114.357267688    27.2762   6   5   0.0378   0.0357   0.0886  -0.0142   0.0203  -0.0242   0.00    0.0
2026/01/15 23:28:30.000   30.531684291  114.357267658    27.2772   6   4   0.0378   0.0357   0.0885  -0.0142   0.0203  -0.0242   0.00    0.0
2026/01/15 23:30:30.000   30.531684335  114.357267596    27.2790   6   4   0.0378   0.0357   0.0885  -0.0142   0.0203  -0.0242   0.00    0.0
2026/01/15 23:33:00.000   30.531684390  114.357267526    27.2822   6   4   0.0378   0.0356   0.0885  -0.0142   0.0203  -0.0243   0.00    0.0
2026/01/15 23:36:00.000   30.531684461  114.357267441    27.2872   6   4   0.0377   0.0356   0.0884  -0.0142   0.0202  -0.0243   0.00    0.0
2026/01/15 23:38:00.000   30.531684506  114.357267385    27.2907   6   4   0.0377   0.0356   0.0884  -0.0142   0.0202  -0.0243   0.00    0.0
2026/01/15 23:40:00.000   30.531684555  114.357267329    27.2943   6   4   0.0377   0.0356   0.0884  -0.0142   0.0202  -0.0243   0.00    0.0
2026/01/15 23:40:30.000   30.531684568  114.357267316    27.2956   6   4   0.0376   0.0356   0.0884  -0.0142   0.0202  -0.0243   0.00    0.0
2026/01/15 23:42:00.000   30.531684605  114.357267276    27.2981   6   4   0.0376   0.0356   0.0884  -0.0142   0.0202  -0.0243   0.00    0.0
2026/01/15 23:42:30.000   30.531684617  114.357267264    27.2990   6   4   0.0376   0.0355   0.0883  -0.0142   0.0202  -0.0243   0.00    0.0
2026/01/15 23:46:00.000   30.531684706  114.357267179    27.3041   6   5   0.0376   0.0355   0.0883  -0.0142   0.0202  -0.0243   0.00    0.0
2026/01/15 23:46:30.000   30.531684719  114.357267168    27.3049   6   5   0.0376   0.0355   0.0882  -0.0142   0.0202  -0.0243   0.00    0.0
2026/01/15 23:47:00.000   30.531684731  114.357267158    27.3057   6   5   0.0376   0.0355   0.0882  -0.0142   0.0202  -0.0243   0.00    0.0
2026/01/15 23:48:00.000   30.531684755  114.357267133    27.3074   6   5   0.0375   0.0355   0.0882  -0.0142   0.0202  -0.0243   0.00    0.0
2026/01/15 23:48:30.000   30.531684767  114.357267122    27.3082   6   5   0.0375   0.0355   0.0882  -0.0142   0.0203  -0.0243   0.00    0.0
2026/01/15 23:49:00.000   30.531684779  114.357267110    27.3091   6   5   0.0375   0.0355   0.0882  -0.0142   0.0203  -0.0243   0.00    0.0
2026/01/15 23:49:30.000   30.531684792  114.357267099    27.3099   6   5   0.0375   0.0355   0.0882  -0.0142   0.0203  -0.0243   0.00    0.0
2026/01/15 23:50:00.000   30.531684805  114.357267088    27.3106   6   5   0.0375   0.0355   0.0882  -0.0142   0.0203  -0.0243   0.00    0.0
2026/01/15 23:50:30.000   30.531684817  114.357267077    27.3116   6   5   0.0375   0.0355   0.0881  -0.0142   0.0203  -0.0243   0.00    0.0
2026/01/15 23:51:00.000   30.531684830  114.357267066    27.3125   6   5   0.0375   0.0355   0.0881  -0.0142   0.0203  -0.0243   0.00    0.0
2026/01/15 23:52:00.000   30.531684855  114.357267043    27.3142   6   5   0.0375   0.0354   0.0881  -0.0142   0.0203  -0.0243   0.00    0.0
2026/01/15 23:52:30.000   30.531684867  114.357267033    27.3150   6   5   0.0375   0.0354   0.0881  -0.0142   0.0203  -0.0243   0.00    0.0
2026/01/15 23:53:30.000   30.531684891  114.357267011    27.3167   6   5   0.0375   0.0354   0.0881  -0.0142   0.0203  -0.0243   0.00    0.0
2026/01/15 23:54:00.000   30.531684903  114.357267001    27.3175   6   5   0.0375   0.0354   0.0880  -0.0142   0.0203  -0.0243   0.00    0.0
2026/01/15 23:54:30.000   30.531684915  114.357266991    27.3184   6   5   0.0374   0.0354   0.0880  -0.0142   0.0203  -0.0243   0.00    0.0
2026/01/15 23:55:00.000   30.531684927  114.357266981    27.3193   6   5   0.0374   0.0354   0.0880  -0.0142   0.0203  -0.0243   0.00    0.0
2026/01/15 23:56:00.000   30.531684950  114.357266961    27.3209   6   5   0.0374   0.0354   0.0880  -0.0142   0.0203  -0.0243   0.00    0.0
2026/01/15 23:56:30.000   30.531684963  114.357266951    27.3218   6   4   0.0374   0.0354   0.0880  -0.0142   0.0203  -0.0243   0.00    0.0
2026/01/15 23:57:00.000   30.531684975  114.357266940    27.3229   6   4   0.0374   0.0354   0.0880  -0.0142   0.0203  -0.0243   0.00    0.0
2026/01/15 23:58:00.000   30.531684999  114.357266919    27.3246   6   5   0.0374   0.0354   0.0879  -0.0142   0.0203  -0.0243   0.00    0.0
2026/01/15 23:58:30.000   30.531685011  114.357266910    27.3255   6   5   0.0374   0.0354   0.0879  -0.0142   0.0203  -0.0243   0.00    0.0
