% program   : RTKPOST-EX 2.5.0
% inp file  : C:\Users\tevin\Desktop\GNSS - MASTA\SPRING SEM\4.SAT NAV DATA PROCESSING\TEAM PROJECT\SNDP-PROJECT\New_Data\obs\RNXDATA\WUH200CHN_R_20260150000_01D_30S_MO.rnx
% inp file  : C:\Users\tevin\Desktop\GNSS - MASTA\SPRING SEM\4.SAT NAV DATA PROCESSING\TEAM PROJECT\SNDP-PROJECT\Old_data\products\nav\BRDC00IGS_R_20260150000_01D_MN.rnx
% inp file  : C:\Users\tevin\Desktop\GNSS - MASTA\SPRING SEM\4.SAT NAV DATA PROCESSING\TEAM PROJECT\SNDP-PROJECT\Old_data\products\sp3\COD0MGXFIN_20260150000_01D_05M_ORB.SP3
% inp file  : C:\Users\tevin\Desktop\GNSS - MASTA\SPRING SEM\4.SAT NAV DATA PROCESSING\TEAM PROJECT\SNDP-PROJECT\New_Data\DATA_FINAL_ANT_EXTRA\COD0MGXFIN_20260150000_01D_05M_ORB.SP3
% inp file  : C:\Users\tevin\Desktop\GNSS - MASTA\SPRING SEM\4.SAT NAV DATA PROCESSING\TEAM PROJECT\SNDP-PROJECT\Old_data\products\atx\igs20_2401.atx
% obs start : 2026/01/15 00:00:00.0 GPST (week2401 345600.0s)
% obs end   : 2026/01/15 23:59:30.0 GPST (week2401 431970.0s)
% pos mode  : PPP Static
% freqs     : L1+L2/E5b
% solution  : Forward
% elev mask : 15.0 deg
% dynamics  : on
% tidecorr  :
% ionos opt : Iono-Free LC
% tropo opt : Saastamoinen
% ephemeris : Precise
% navi sys  : GPS
% antenna1  : JAVRINGANT_G5T  NONE  ( 0.0000  0.0000  0.1206)
%
% (lat/lon/height=WGS84/ellipsoidal,Q=1:fix,2:float,3:sbas,4:dgps,5:single,6:ppp,ns=# of satellites)
%  GPST                  latitude(deg) longitude(deg)  height(m)   Q  ns   sdn(m)   sde(m)   sdu(m)  sdne(m)  sdeu(m)  sdun(m) age(s)  ratio
2026/01/15 00:00:00.000   30.531662262  114.357269450    28.6748   6   6   4.2490   4.4480  11.9302  -2.1488   4.2100  -3.9795   0.00    0.0
2026/01/15 00:01:00.000   30.531670472  114.357266119    28.4000   6   7   2.4589   2.5812   6.9067  -1.2464   2.4554  -2.3064   0.00    0.0
2026/01/15 00:01:30.000   30.531671462  114.357265465    28.5862   6   7   2.1276   2.2354   5.9374  -1.0758   2.1178  -1.9897   0.00    0.0
2026/01/15 00:02:00.000   30.531670858  114.357268362    28.9083   6   7   1.9003   1.9983   5.2593  -0.9577   1.8819  -1.7694   0.00    0.0
2026/01/15 00:03:00.000   30.531670882  114.357268487    28.1322   6   7   1.6007   1.6861   4.3532  -0.8002   1.5662  -1.4734   0.00    0.0
2026/01/15 00:03:30.000   30.531670896  114.357270709    28.2445   6   7   1.4911   1.5718   3.9756  -0.7407   1.4345  -1.3646   0.00    0.0
2026/01/15 00:04:00.000   30.531671029  114.357271329    28.3312   6   7   1.3996   1.4768   3.6589  -0.6907   1.3237  -1.2737   0.00    0.0
2026/01/15 00:05:00.000   30.531672636  114.357270255    28.3261   6   7   1.2588   1.3306   3.2110  -0.6146   1.1669  -1.1326   0.00    0.0
2026/01/15 00:05:30.000   30.531672280  114.357270851    28.4623   6   7   1.1973   1.2672   2.9757  -0.5793   1.0833  -1.0714   0.00    0.0
2026/01/15 00:06:00.000   30.531672697  114.357270949    28.5374   6   7   1.1432   1.2117   2.7767  -0.5483   1.0123  -1.0180   0.00    0.0
2026/01/15 00:06:30.000   30.531672673  114.357270338    28.4397   6   7   1.0952   1.1626   2.6057  -0.5208   0.9511  -0.9707   0.00    0.0
2026/01/15 00:07:00.000   30.531672487  114.357269667    28.4997   6   7   1.0522   1.1187   2.4569  -0.4962   0.8978  -0.9286   0.00    0.0
2026/01/15 00:07:30.000   30.531672096  114.357269460    28.6940   6   7   1.0134   1.0792   2.3263  -0.4740   0.8507  -0.8907   0.00    0.0
2026/01/15 00:08:00.000   30.531672239  114.357269639    28.8375   6   7   0.9758   1.0401   2.1921  -0.4562   0.7967  -0.8606   0.00    0.0
2026/01/15 00:08:30.000   30.531672401  114.357269494    28.8271   6   7   0.9407   1.0039   2.0670  -0.4386   0.7467  -0.8314   0.00    0.0
2026/01/15 00:09:30.000   30.531672552  114.357270376    28.7175   6   7   0.8844   0.9454   1.8995  -0.4123   0.6805  -0.7835   0.00    0.0
2026/01/15 00:10:00.000   30.531672692  114.357270181    28.6453   6   8   0.8537   0.9151   1.7879  -0.3947   0.6363  -0.7564   0.00    0.0
2026/01/15 00:11:30.000   30.531672634  114.357270307    28.5509   6   8   0.7916   0.8504   1.6254  -0.3659   0.5744  -0.7012   0.00    0.0
2026/01/15 00:12:30.000   30.531672714  114.357270339    28.5153   6   8   0.7525   0.8111   1.5116  -0.3452   0.5310  -0.6655   0.00    0.0
2026/01/15 00:13:00.000   30.531673039  114.357269732    28.4662   6   8   0.7283   0.7885   1.4260  -0.3291   0.4972  -0.6431   0.00    0.0
2026/01/15 00:14:00.000   30.531673521  114.357269543    28.3690   6   8   0.6929   0.7538   1.3237  -0.3088   0.4581  -0.6105   0.00    0.0
2026/01/15 00:14:30.000   30.531673640  114.357269412    28.3137   6   8   0.6700   0.7331   1.2476  -0.2926   0.4275  -0.5895   0.00    0.0
2026/01/15 00:15:30.000   30.531674234  114.357269315    28.2557   6   8   0.6396   0.7034   1.1665  -0.2749   0.3966  -0.5615   0.00    0.0
2026/01/15 00:16:00.000   30.531674270  114.357269282    28.2255   6   8   0.6199   0.6855   1.1068  -0.2608   0.3724  -0.5434   0.00    0.0
2026/01/15 00:16:30.000   30.531674349  114.357269191    28.1679   6   8   0.6021   0.6691   1.0562  -0.2482   0.3519  -0.5272   0.00    0.0
2026/01/15 00:17:00.000   30.531674477  114.357268958    28.1147   6   8   0.5859   0.6541   1.0129  -0.2372   0.3344  -0.5125   0.00    0.0
2026/01/15 00:17:30.000   30.531674528  114.357268899    28.0771   6   8   0.5713   0.6403   0.9755  -0.2274   0.3195  -0.4993   0.00    0.0
2026/01/15 00:18:00.000   30.531674606  114.357269022    28.0555   6   8   0.5568   0.6267   0.9386  -0.2175   0.3046  -0.4861   0.00    0.0
2026/01/15 00:18:30.000   30.531674853  114.357268935    28.0021   6   8   0.5424   0.6132   0.9027  -0.2074   0.2900  -0.4731   0.00    0.0
2026/01/15 00:19:00.000   30.531675019  114.357268989    27.9715   6   8   0.5284   0.6001   0.8684  -0.1975   0.2759  -0.4605   0.00    0.0
2026/01/15 00:19:30.000   30.531675121  114.357269276    27.9426   6   8   0.5149   0.5873   0.8362  -0.1879   0.2627  -0.4483   0.00    0.0
2026/01/15 00:20:00.000   30.531675247  114.357269713    27.9270   6   8   0.5021   0.5751   0.8062  -0.1787   0.2504  -0.4368   0.00    0.0
2026/01/15 00:20:30.000   30.531675382  114.357269708    27.9196   6   8   0.4899   0.5635   0.7787  -0.1701   0.2391  -0.4259   0.00    0.0
2026/01/15 00:21:00.000   30.531675436  114.357269764    27.9072   6   8   0.4786   0.5525   0.7537  -0.1621   0.2289  -0.4158   0.00    0.0
2026/01/15 00:21:30.000   30.531675570  114.357269911    27.8884   6   8   0.4681   0.5422   0.7311  -0.1549   0.2199  -0.4064   0.00    0.0
2026/01/15 00:22:00.000   30.531675732  114.357270182    27.8580   6   8   0.4585   0.5326   0.7108  -0.1484   0.2118  -0.3977   0.00    0.0
2026/01/15 00:23:30.000   30.531675963  114.357270321    27.8057   6   8   0.4419   0.5142   0.6793  -0.1418   0.2060  -0.3841   0.00    0.0
2026/01/15 00:24:00.000   30.531676100  114.357270288    27.7688   6   8   0.4315   0.5040   0.6569  -0.1338   0.1965  -0.3745   0.00    0.0
2026/01/15 00:24:30.000   30.531676192  114.357270142    27.7381   6   8   0.4213   0.4940   0.6356  -0.1260   0.1874  -0.3652   0.00    0.0
2026/01/15 00:25:00.000   30.531676291  114.357270068    27.7225   6   8   0.4116   0.4844   0.6156  -0.1185   0.1789  -0.3564   0.00    0.0
2026/01/15 00:25:30.000   30.531676322  114.357270029    27.7096   6   8   0.4025   0.4752   0.5971  -0.1113   0.1711  -0.3481   0.00    0.0
2026/01/15 00:26:00.000   30.531676417  114.357269781    27.6890   6   9   0.3935   0.4660   0.5796  -0.1028   0.1622  -0.3397   0.00    0.0
2026/01/15 00:26:30.000   30.531676585  114.357269702    27.6727   6   9   0.3853   0.4577   0.5682  -0.0951   0.1576  -0.3322   0.00    0.0
2026/01/15 00:27:00.000   30.531676659  114.357269539    27.6674   6   9   0.3777   0.4499   0.5576  -0.0881   0.1536  -0.3254   0.00    0.0
2026/01/15 00:27:30.000   30.531676860  114.357269400    27.6456   6   9   0.3707   0.4426   0.5479  -0.0817   0.1499  -0.3191   0.00    0.0
2026/01/15 00:28:00.000   30.531676931  114.357269352    27.6422   6   8   0.3637   0.4353   0.5378  -0.0749   0.1463  -0.3127   0.00    0.0
2026/01/15 00:28:30.000   30.531676986  114.357269407    27.6434   6   8   0.3566   0.4278   0.5274  -0.0677   0.1426  -0.3063   0.00    0.0
2026/01/15 00:29:00.000   30.531677004  114.357269424    27.6418   6   8   0.3495   0.4203   0.5170  -0.0601   0.1390  -0.2999   0.00    0.0
2026/01/15 00:29:30.000   30.531677003  114.357269574    27.6490   6   8   0.3426   0.4130   0.5066  -0.0522   0.1355  -0.2937   0.00    0.0
2026/01/15 00:30:00.000   30.531677039  114.357269604    27.6615   6   8   0.3358   0.4058   0.4965  -0.0440   0.1321  -0.2876   0.00    0.0
2026/01/15 00:30:30.000   30.531677137  114.357269460    27.6585   6   8   0.3293   0.3989   0.4868  -0.0353   0.1290  -0.2819   0.00    0.0
2026/01/15 00:31:00.000   30.531677172  114.357269524    27.6626   6   8   0.3232   0.3923   0.4776  -0.0255   0.1261  -0.2764   0.00    0.0
2026/01/15 00:31:30.000   30.531677175  114.357269517    27.6655   6   8   0.3175   0.3861   0.4691  -0.0122   0.1235  -0.2714   0.00    0.0
2026/01/15 00:32:00.000   30.531677251  114.357269709    27.6603   6   8   0.3122   0.3803   0.4611   0.0164   0.1211  -0.2666   0.00    0.0
2026/01/15 00:32:30.000   30.531677267  114.357269798    27.6559   6   8   0.3073   0.3748   0.4538   0.0247   0.1190  -0.2623   0.00    0.0
2026/01/15 00:33:00.000   30.531677363  114.357269816    27.6387   6   8   0.3022   0.3692   0.4461   0.0307   0.1168  -0.2578   0.00    0.0
2026/01/15 00:33:30.000   30.531677406  114.357269809    27.6221   6   8   0.2970   0.3635   0.4382   0.0355   0.1147  -0.2532   0.00    0.0
2026/01/15 00:34:00.000   30.531677464  114.357269797    27.6104   6   8   0.2918   0.3577   0.4302   0.0395   0.1125  -0.2486   0.00    0.0
2026/01/15 00:34:30.000   30.531677537  114.357269869    27.6044   6   8   0.2865   0.3519   0.4222   0.0427   0.1103  -0.2440   0.00    0.0
2026/01/15 00:35:00.000   30.531677608  114.357269871    27.6005   6   8   0.2814   0.3463   0.4144   0.0453   0.1083  -0.2396   0.00    0.0
2026/01/15 00:35:30.000   30.531677640  114.357270008    27.5980   6   8   0.2765   0.3408   0.4069   0.0474   0.1063  -0.2353   0.00    0.0
2026/01/15 00:36:00.000   30.531677657  114.357270020    27.5908   6   8   0.2718   0.3356   0.3997   0.0491   0.1045  -0.2313   0.00    0.0
2026/01/15 00:36:30.000   30.531677796  114.357270046    27.5702   6   8   0.2674   0.3306   0.3931   0.0503   0.1028  -0.2275   0.00    0.0
2026/01/15 00:37:00.000   30.531677769  114.357270044    27.5671   6   8   0.2634   0.3260   0.3869   0.0512   0.1013  -0.2239   0.00    0.0
2026/01/15 00:37:30.000   30.531677758  114.357269978    27.5650   6   8   0.2596   0.3217   0.3812   0.0519   0.1000  -0.2207   0.00    0.0
2026/01/15 00:38:00.000   30.531677773  114.357269924    27.5593   6   8   0.2557   0.3172   0.3752   0.0525   0.0986  -0.2172   0.00    0.0
2026/01/15 00:38:30.000   30.531677787  114.357269947    27.5654   6   7   0.2522   0.3127   0.3733   0.0513   0.0999  -0.2161   0.00    0.0
2026/01/15 00:39:00.000   30.531677835  114.357270031    27.5708   6   7   0.2488   0.3081   0.3713   0.0500   0.1012  -0.2149   0.00    0.0
2026/01/15 00:39:30.000   30.531677875  114.357270072    27.5748   6   7   0.2453   0.3036   0.3691   0.0486   0.1025  -0.2136   0.00    0.0
2026/01/15 00:40:00.000   30.531677890  114.357270093    27.5827   6   8   0.2418   0.2991   0.3670   0.0472   0.1036  -0.2124   0.00    0.0
2026/01/15 00:40:30.000   30.531677917  114.357270137    27.5870   6   7   0.2385   0.2948   0.3648   0.0457   0.1046  -0.2111   0.00    0.0
2026/01/15 00:41:00.000   30.531677933  114.357270164    27.5913   6   8   0.2353   0.2906   0.3626   0.0442   0.1055  -0.2098   0.00    0.0
2026/01/15 00:41:30.000   30.531677978  114.357270157    27.5929   6   7   0.2324   0.2867   0.3606   0.0430   0.1061  -0.2086   0.00    0.0
2026/01/15 00:42:00.000   30.531677999  114.357270218    27.5987   6   7   0.2296   0.2831   0.3587   0.0417   0.1066  -0.2075   0.00    0.0
2026/01/15 00:42:30.000   30.531678023  114.357270274    27.6019   6   7   0.2271   0.2797   0.3568   0.0405   0.1070  -0.2064   0.00    0.0
2026/01/15 00:43:00.000   30.531678043  114.357270275    27.6066   6   7   0.2244   0.2761   0.3548   0.0391   0.1074  -0.2052   0.00    0.0
2026/01/15 00:43:30.000   30.531678035  114.357270262    27.6127   6   7   0.2216   0.2724   0.3526   0.0376   0.1078  -0.2039   0.00    0.0
2026/01/15 00:44:00.000   30.531678056  114.357270341    27.6192   6   7   0.2187   0.2686   0.3503   0.0360   0.1081  -0.2026   0.00    0.0
2026/01/15 00:44:30.000   30.531678083  114.357270372    27.6230   6   7   0.2159   0.2649   0.3479   0.0343   0.1085  -0.2012   0.00    0.0
2026/01/15 00:45:00.000   30.531678128  114.357270390    27.6262   6   7   0.2130   0.2612   0.3455   0.0325   0.1087  -0.1998   0.00    0.0
2026/01/15 00:45:30.000   30.531678131  114.357270456    27.6342   6   7   0.2102   0.2575   0.3431   0.0307   0.1089  -0.1984   0.00    0.0
2026/01/15 00:46:00.000   30.531678113  114.357270475    27.6433   6   7   0.2076   0.2541   0.3407   0.0289   0.1090  -0.1971   0.00    0.0
2026/01/15 00:46:30.000   30.531678122  114.357270534    27.6518   6   7   0.2051   0.2508   0.3385   0.0272   0.1091  -0.1957   0.00    0.0
2026/01/15 00:47:00.000   30.531678127  114.357270597    27.6602   6   7   0.2028   0.2478   0.3362   0.0254   0.1091  -0.1944   0.00    0.0
2026/01/15 00:47:30.000   30.531678140  114.357270602    27.6646   6   7   0.2006   0.2449   0.3342   0.0237   0.1090  -0.1932   0.00    0.0
2026/01/15 00:48:00.000   30.531678154  114.357270608    27.6688   6   7   0.1983   0.2419   0.3319   0.0218   0.1089  -0.1918   0.00    0.0
2026/01/15 00:48:30.000   30.531678173  114.357270632    27.6739   6   7   0.1959   0.2388   0.3295   0.0196   0.1088  -0.1904   0.00    0.0
2026/01/15 00:49:00.000   30.531678172  114.357270707    27.6842   6   7   0.1935   0.2357   0.3270   0.0171   0.1086  -0.1889   0.00    0.0
2026/01/15 00:49:30.000   30.531678198  114.357270784    27.6900   6   7   0.1910   0.2325   0.3244   0.0143   0.1084  -0.1874   0.00    0.0
2026/01/15 00:50:00.000   30.531678240  114.357270813    27.6918   6   7   0.1886   0.2293   0.3218   0.0110   0.1082  -0.1858   0.00    0.0
2026/01/15 00:50:30.000   30.531678258  114.357270805    27.6940   6   7   0.1862   0.2263   0.3191   0.0066   0.1079  -0.1843   0.00    0.0
2026/01/15 00:51:00.000   30.531678293  114.357270752    27.6950   6   7   0.1839   0.2233   0.3166  -0.0054   0.1075  -0.1828   0.00    0.0
2026/01/15 00:51:30.000   30.531678321  114.357270708    27.6961   6   7   0.1818   0.2206   0.3141  -0.0097   0.1072  -0.1814   0.00    0.0
2026/01/15 00:52:00.000   30.531678352  114.357270692    27.6949   6   7   0.1798   0.2180   0.3118  -0.0123   0.1068  -0.1800   0.00    0.0
2026/01/15 00:52:30.000   30.531678364  114.357270702    27.6945   6   7   0.1779   0.2156   0.3096  -0.0143   0.1064  -0.1787   0.00    0.0
2026/01/15 00:53:00.000   30.531678379  114.357270661    27.6930   6   7   0.1759   0.2131   0.3073  -0.0160   0.1060  -0.1773   0.00    0.0
2026/01/15 00:53:30.000   30.531678390  114.357270598    27.6919   6   7   0.1739   0.2105   0.3048  -0.0176   0.1055  -0.1758   0.00    0.0
2026/01/15 00:54:30.000   30.531678430  114.357270662    27.6887   6   7   0.1714   0.2073   0.3017  -0.0192   0.1048  -0.1739   0.00    0.0
2026/01/15 00:55:00.000   30.531678445  114.357270677    27.6915   6   7   0.1692   0.2045   0.2989  -0.0205   0.1042  -0.1722   0.00    0.0
2026/01/15 00:55:30.000   30.531678474  114.357270670    27.6937   6   7   0.1670   0.2018   0.2961  -0.0216   0.1035  -0.1706   0.00    0.0
2026/01/15 00:56:00.000   30.531678521  114.357270660    27.6902   6   7   0.1650   0.1992   0.2934  -0.0225   0.1029  -0.1690   0.00    0.0
2026/01/15 00:56:30.000   30.531678563  114.357270687    27.6857   6   7   0.1630   0.1967   0.2909  -0.0233   0.1022  -0.1675   0.00    0.0
2026/01/15 00:57:00.000   30.531678590  114.357270670    27.6836   6   7   0.1612   0.1944   0.2884  -0.0240   0.1016  -0.1660   0.00    0.0
2026/01/15 00:57:30.000   30.531678593  114.357270665    27.6862   6   7   0.1596   0.1923   0.2862  -0.0245   0.1010  -0.1647   0.00    0.0
2026/01/15 00:58:00.000   30.531678615  114.357270682    27.6879   6   7   0.1578   0.1901   0.2837  -0.0250   0.1003  -0.1633   0.00    0.0
2026/01/15 00:58:30.000   30.531678639  114.357270659    27.6883   6   7   0.1559   0.1878   0.2812  -0.0255   0.0996  -0.1617   0.00    0.0
2026/01/15 00:59:00.000   30.531678644  114.357270652    27.6918   6   7   0.1540   0.1854   0.2785  -0.0260   0.0988  -0.1602   0.00    0.0
2026/01/15 00:59:30.000   30.531678636  114.357270671    27.6976   6   7   0.1521   0.1830   0.2758  -0.0264   0.0980  -0.1586   0.00    0.0
2026/01/15 01:01:00.000   30.531678674  114.357270665    27.6956   6   7   0.1499   0.1802   0.2726  -0.0267   0.0969  -0.1566   0.00    0.0
2026/01/15 01:02:30.000   30.531678660  114.357270756    27.7025   6   7   0.1480   0.1777   0.2698  -0.0271   0.0959  -0.1548   0.00    0.0
2026/01/15 01:03:00.000   30.531678629  114.357270805    27.7130   6   7   0.1461   0.1754   0.2670  -0.0273   0.0950  -0.1532   0.00    0.0
2026/01/15 01:03:30.000   30.531678611  114.357270853    27.7196   6   7   0.1442   0.1731   0.2642  -0.0275   0.0940  -0.1515   0.00    0.0
2026/01/15 01:04:00.000   30.531678587  114.357270881    27.7283   6   7   0.1423   0.1707   0.2612  -0.0277   0.0930  -0.1498   0.00    0.0
2026/01/15 01:04:30.000   30.531678561  114.357270880    27.7372   6   7   0.1403   0.1683   0.2582  -0.0278   0.0920  -0.1480   0.00    0.0
2026/01/15 01:05:00.000   30.531678578  114.357270871    27.7383   6   7   0.1384   0.1659   0.2553  -0.0278   0.0909  -0.1463   0.00    0.0
2026/01/15 01:05:30.000   30.531678594  114.357270880    27.7406   6   7   0.1366   0.1637   0.2524  -0.0279   0.0899  -0.1446   0.00    0.0
2026/01/15 01:06:00.000   30.531678606  114.357270865    27.7419   6   7   0.1348   0.1615   0.2496  -0.0278   0.0888  -0.1430   0.00    0.0
2026/01/15 01:06:30.000   30.531678622  114.357270875    27.7434   6   7   0.1332   0.1595   0.2470  -0.0278   0.0879  -0.1414   0.00    0.0
2026/01/15 01:07:00.000   30.531678614  114.357270895    27.7485   6   7   0.1317   0.1576   0.2446  -0.0277   0.0869  -0.1400   0.00    0.0
2026/01/15 01:07:30.000   30.531678627  114.357270928    27.7479   6   5   0.1308   0.1567   0.2433  -0.0300   0.0870  -0.1396   0.00    0.0
2026/01/15 01:08:00.000   30.531678625  114.357270935    27.7517   6   7   0.1293   0.1549   0.2409  -0.0298   0.0860  -0.1381   0.00    0.0
2026/01/15 01:09:00.000   30.531678637  114.357270925    27.7516   6   7   0.1276   0.1527   0.2381  -0.0295   0.0848  -0.1364   0.00    0.0
2026/01/15 01:09:30.000   30.531678652  114.357270928    27.7513   6   7   0.1259   0.1507   0.2353  -0.0292   0.0837  -0.1348   0.00    0.0
2026/01/15 01:10:00.000   30.531678658  114.357270896    27.7520   6   7   0.1243   0.1486   0.2326  -0.0289   0.0825  -0.1332   0.00    0.0
2026/01/15 01:10:30.000   30.531678659  114.357270893    27.7556   6   7   0.1227   0.1467   0.2299  -0.0285   0.0814  -0.1316   0.00    0.0
2026/01/15 01:11:00.000   30.531678675  114.357270885    27.7533   6   7   0.1211   0.1448   0.2274  -0.0282   0.0803  -0.1301   0.00    0.0
2026/01/15 01:11:30.000   30.531678693  114.357270871    27.7518   6   7   0.1197   0.1431   0.2250  -0.0279   0.0792  -0.1287   0.00    0.0
2026/01/15 01:12:00.000   30.531678704  114.357270877    27.7526   6   7   0.1184   0.1415   0.2228  -0.0276   0.0783  -0.1274   0.00    0.0
2026/01/15 01:12:30.000   30.531678704  114.357270879    27.7542   6   7   0.1172   0.1400   0.2207  -0.0273   0.0774  -0.1262   0.00    0.0
2026/01/15 01:13:00.000   30.531678703  114.357270890    27.7569   6   7   0.1160   0.1384   0.2185  -0.0270   0.0764  -0.1249   0.00    0.0
2026/01/15 01:13:30.000   30.531678704  114.357270886    27.7595   6   7   0.1146   0.1368   0.2163  -0.0266   0.0754  -0.1236   0.00    0.0
2026/01/15 01:14:00.000   30.531678692  114.357270897    27.7636   6   7   0.1133   0.1352   0.2139  -0.0263   0.0743  -0.1222   0.00    0.0
2026/01/15 01:14:30.000   30.531678682  114.357270908    27.7677   6   7   0.1119   0.1335   0.2116  -0.0259   0.0732  -0.1208   0.00    0.0
2026/01/15 01:15:00.000   30.531678675  114.357270904    27.7687   6   5   0.1107   0.1323   0.2097  -0.0253   0.0722  -0.1192   0.00    0.0
2026/01/15 01:15:30.000   30.531678670  114.357270909    27.7685   6   5   0.1095   0.1312   0.2079  -0.0247   0.0712  -0.1175   0.00    0.0
2026/01/15 01:16:00.000   30.531678675  114.357270924    27.7711   6   7   0.1083   0.1296   0.2057  -0.0244   0.0702  -0.1163   0.00    0.0
2026/01/15 01:16:30.000   30.531678673  114.357270927    27.7739   6   7   0.1071   0.1281   0.2036  -0.0240   0.0692  -0.1151   0.00    0.0
2026/01/15 01:18:00.000   30.531678677  114.357270955    27.7739   6   7   0.1059   0.1266   0.2014  -0.0237   0.0682  -0.1139   0.00    0.0
2026/01/15 01:18:30.000   30.531678675  114.357270936    27.7772   6   7   0.1047   0.1251   0.1993  -0.0233   0.0672  -0.1127   0.00    0.0
2026/01/15 01:19:00.000   30.531678674  114.357270932    27.7799   6   7   0.1035   0.1236   0.1971  -0.0229   0.0661  -0.1114   0.00    0.0
2026/01/15 01:19:30.000   30.531678680  114.357270910    27.7800   6   7   0.1022   0.1221   0.1949  -0.0225   0.0651  -0.1102   0.00    0.0
2026/01/15 01:20:00.000   30.531678681  114.357270894    27.7822   6   7   0.1010   0.1206   0.1927  -0.0221   0.0640  -0.1089   0.00    0.0
2026/01/15 01:20:30.000   30.531678686  114.357270895    27.7837   6   7   0.0999   0.1192   0.1906  -0.0217   0.0630  -0.1077   0.00    0.0
2026/01/15 01:21:30.000   30.531678693  114.357270922    27.7853   6   7   0.0987   0.1178   0.1885  -0.0213   0.0620  -0.1066   0.00    0.0
2026/01/15 01:23:00.000   30.531678705  114.357270967    27.7867   6   5   0.0981   0.1170   0.1872  -0.0229   0.0619  -0.1061   0.00    0.0
2026/01/15 01:23:30.000   30.531678690  114.357270964    27.7921   6   7   0.0969   0.1156   0.1852  -0.0224   0.0608  -0.1049   0.00    0.0
2026/01/15 01:25:00.000   30.531678702  114.357270922    27.7903   6   7   0.0956   0.1140   0.1828  -0.0219   0.0595  -0.1035   0.00    0.0
2026/01/15 01:26:00.000   30.531678697  114.357270909    27.7916   6   7   0.0944   0.1124   0.1805  -0.0213   0.0583  -0.1022   0.00    0.0
2026/01/15 01:27:30.000   30.531678709  114.357270869    27.7900   6   7   0.0933   0.1111   0.1785  -0.0208   0.0573  -0.1010   0.00    0.0
2026/01/15 01:30:30.000   30.531678713  114.357270854    27.7931   6   7   0.0918   0.1092   0.1757  -0.0201   0.0557  -0.0993   0.00    0.0
2026/01/15 01:32:30.000   30.531678728  114.357270845    27.7901   6   7   0.0905   0.1077   0.1734  -0.0195   0.0544  -0.0980   0.00    0.0
2026/01/15 01:36:00.000   30.531678746  114.357270809    27.7861   6   8   0.0889   0.1057   0.1704  -0.0187   0.0526  -0.0961   0.00    0.0
2026/01/15 01:37:00.000   30.531678747  114.357270757    27.7880   6   8   0.0875   0.1040   0.1679  -0.0179   0.0510  -0.0947   0.00    0.0
2026/01/15 01:38:30.000   30.531678754  114.357270707    27.7874   6   8   0.0861   0.1023   0.1651  -0.0170   0.0493  -0.0931   0.00    0.0
2026/01/15 01:39:30.000   30.531678760  114.357270670    27.7863   6   8   0.0846   0.1005   0.1623  -0.0160   0.0475  -0.0914   0.00    0.0
2026/01/15 01:41:00.000   30.531678773  114.357270674    27.7856   6   4   0.0835   0.1002   0.1597  -0.0148   0.0461  -0.0900   0.00    0.0
2026/01/15 01:42:00.000   30.531678788  114.357270625    27.7827   6   8   0.0822   0.0986   0.1573  -0.0139   0.0445  -0.0886   0.00    0.0
2026/01/15 01:44:00.000   30.531678800  114.357270594    27.7795   6   6   0.0808   0.0980   0.1547  -0.0146   0.0435  -0.0870   0.00    0.0
2026/01/15 01:44:30.000   30.531678814  114.357270572    27.7796   6   6   0.0797   0.0967   0.1522  -0.0130   0.0411  -0.0857   0.00    0.0
2026/01/15 01:45:00.000   30.531678830  114.357270531    27.7774   6   8   0.0783   0.0949   0.1496  -0.0118   0.0393  -0.0842   0.00    0.0
2026/01/15 01:45:30.000   30.531678849  114.357270481    27.7733   6   8   0.0770   0.0933   0.1472  -0.0106   0.0376  -0.0827   0.00    0.0
2026/01/15 01:47:30.000   30.531678877  114.357270435    27.7652   6   8   0.0759   0.0919   0.1452  -0.0096   0.0361  -0.0815   0.00    0.0
2026/01/15 01:48:00.000   30.531678899  114.357270406    27.7608   6   8   0.0748   0.0905   0.1431  -0.0084   0.0346  -0.0803   0.00    0.0
2026/01/15 01:48:30.000   30.531678888  114.357270417    27.7639   6   7   0.0741   0.0895   0.1417  -0.0108   0.0348  -0.0798   0.00    0.0
2026/01/15 01:49:30.000   30.531678887  114.357270414    27.7658   6   5   0.0738   0.0887   0.1404  -0.0122   0.0343  -0.0795   0.00    0.0
2026/01/15 01:51:00.000   30.531678879  114.357270399    27.7677   6   8   0.0730   0.0877   0.1389  -0.0138   0.0344  -0.0789   0.00    0.0
2026/01/15 01:51:30.000   30.531678877  114.357270386    27.7693   6   8   0.0723   0.0868   0.1375  -0.0152   0.0345  -0.0783   0.00    0.0
2026/01/15 02:57:30.000   30.531678920  114.357270567    27.7140   6   6   0.0712   0.0840   0.1359  -0.0151   0.0332  -0.0770   0.00    0.0
2026/01/15 03:21:00.000   30.531678843  114.357270647    27.7152   6   4   0.0706   0.0830   0.1351  -0.0148   0.0330  -0.0762   0.00    0.0
2026/01/15 03:25:30.000   30.531678835  114.357270648    27.7146   6   5   0.0704   0.0828   0.1349  -0.0148   0.0330  -0.0761   0.00    0.0
2026/01/15 03:29:00.000   30.531678826  114.357270655    27.7144   6   5   0.0703   0.0827   0.1348  -0.0148   0.0329  -0.0759   0.00    0.0
2026/01/15 03:34:00.000   30.531678815  114.357270639    27.7145   6   4   0.0702   0.0825   0.1346  -0.0148   0.0329  -0.0757   0.00    0.0
2026/01/15 03:41:00.000   30.531678785  114.357270623    27.7167   6   6   0.0700   0.0822   0.1343  -0.0149   0.0330  -0.0754   0.00    0.0
2026/01/15 03:41:30.000   30.531678782  114.357270622    27.7172   6   6   0.0699   0.0822   0.1342  -0.0150   0.0330  -0.0754   0.00    0.0
2026/01/15 03:45:30.000   30.531678759  114.357270598    27.7196   6   6   0.0698   0.0820   0.1340  -0.0151   0.0331  -0.0752   0.00    0.0
2026/01/15 12:41:30.000   30.531677216  114.357270557    27.7807   6   7   0.0602   0.0672   0.1194  -0.0132   0.0252  -0.0622   0.00    0.0
2026/01/15 12:53:30.000   30.531677230  114.357270481    27.7717   6   4   0.0601   0.0668   0.1192  -0.0129   0.0249  -0.0620   0.00    0.0
2026/01/15 12:56:00.000   30.531677238  114.357270461    27.7703   6   4   0.0600   0.0668   0.1192  -0.0129   0.0249  -0.0619   0.00    0.0
2026/01/15 12:56:30.000   30.531677239  114.357270457    27.7702   6   6   0.0600   0.0667   0.1192  -0.0129   0.0249  -0.0619   0.00    0.0
2026/01/15 12:57:00.000   30.531677241  114.357270458    27.7700   6   6   0.0600   0.0667   0.1191  -0.0129   0.0248  -0.0619   0.00    0.0
2026/01/15 12:57:30.000   30.531677241  114.357270453    27.7701   6   5   0.0600   0.0667   0.1191  -0.0129   0.0248  -0.0619   0.00    0.0
2026/01/15 12:58:30.000   30.531677240  114.357270446    27.7699   6   5   0.0600   0.0667   0.1191  -0.0129   0.0248  -0.0619   0.00    0.0
2026/01/15 13:00:30.000   30.531677247  114.357270432    27.7688   6   7   0.0600   0.0666   0.1191  -0.0129   0.0248  -0.0619   0.00    0.0
2026/01/15 13:03:00.000   30.531677259  114.357270418    27.7666   6   6   0.0599   0.0665   0.1190  -0.0129   0.0248  -0.0618   0.00    0.0
2026/01/15 13:04:00.000   30.531677264  114.357270417    27.7658   6   7   0.0599   0.0665   0.1190  -0.0129   0.0248  -0.0618   0.00    0.0
2026/01/15 13:05:00.000   30.531677265  114.357270414    27.7663   6   7   0.0599   0.0665   0.1190  -0.0129   0.0247  -0.0618   0.00    0.0
2026/01/15 13:06:30.000   30.531677271  114.357270400    27.7657   6   7   0.0599   0.0664   0.1189  -0.0129   0.0247  -0.0618   0.00    0.0
2026/01/15 13:09:30.000   30.531677283  114.357270380    27.7644   6   7   0.0598   0.0663   0.1188  -0.0129   0.0247  -0.0617   0.00    0.0
2026/01/15 13:10:00.000   30.531677286  114.357270374    27.7649   6   7   0.0598   0.0663   0.1188  -0.0129   0.0247  -0.0617   0.00    0.0
2026/01/15 13:12:00.000   30.531677292  114.357270356    27.7648   6   7   0.0598   0.0662   0.1187  -0.0129   0.0247  -0.0616   0.00    0.0
2026/01/15 13:12:30.000   30.531677293  114.357270349    27.7650   6   7   0.0598   0.0662   0.1187  -0.0129   0.0247  -0.0616   0.00    0.0
2026/01/15 13:13:00.000   30.531677294  114.357270344    27.7654   6   7   0.0597   0.0662   0.1187  -0.0129   0.0247  -0.0616   0.00    0.0
2026/01/15 13:14:00.000   30.531677299  114.357270333    27.7645   6   7   0.0597   0.0661   0.1186  -0.0129   0.0247  -0.0616   0.00    0.0
2026/01/15 13:14:30.000   30.531677302  114.357270327    27.7646   6   7   0.0597   0.0661   0.1186  -0.0129   0.0247  -0.0616   0.00    0.0
2026/01/15 13:15:00.000   30.531677305  114.357270326    27.7647   6   7   0.0597   0.0661   0.1185  -0.0130   0.0247  -0.0616   0.00    0.0
2026/01/15 13:15:30.000   30.531677308  114.357270322    27.7651   6   7   0.0596   0.0660   0.1185  -0.0130   0.0247  -0.0615   0.00    0.0
2026/01/15 13:17:30.000   30.531677318  114.357270305    27.7641   6   7   0.0596   0.0660   0.1184  -0.0130   0.0247  -0.0615   0.00    0.0
2026/01/15 13:18:00.000   30.531677319  114.357270306    27.7650   6   7   0.0596   0.0659   0.1184  -0.0130   0.0246  -0.0615   0.00    0.0
2026/01/15 13:18:30.000   30.531677324  114.357270306    27.7652   6   7   0.0596   0.0659   0.1183  -0.0130   0.0246  -0.0615   0.00    0.0
2026/01/15 13:19:00.000   30.531677327  114.357270305    27.7652   6   7   0.0595   0.0659   0.1183  -0.0130   0.0246  -0.0614   0.00    0.0
2026/01/15 13:19:30.000   30.531677331  114.357270303    27.7656   6   7   0.0595   0.0658   0.1182  -0.0130   0.0246  -0.0614   0.00    0.0
2026/01/15 13:20:00.000   30.531677334  114.357270300    27.7661   6   7   0.0595   0.0658   0.1181  -0.0130   0.0246  -0.0614   0.00    0.0
2026/01/15 13:20:30.000   30.531677336  114.357270299    27.7664   6   7   0.0594   0.0658   0.1181  -0.0130   0.0246  -0.0614   0.00    0.0
2026/01/15 13:21:00.000   30.531677340  114.357270303    27.7670   6   8   0.0594   0.0658   0.1180  -0.0130   0.0245  -0.0613   0.00    0.0
2026/01/15 13:21:30.000   30.531677342  114.357270303    27.7679   6   8   0.0594   0.0657   0.1180  -0.0130   0.0245  -0.0613   0.00    0.0
2026/01/15 13:22:00.000   30.531677343  114.357270303    27.7688   6   8   0.0594   0.0657   0.1179  -0.0131   0.0245  -0.0613   0.00    0.0
2026/01/15 13:22:30.000   30.531677344  114.357270303    27.7698   6   8   0.0593   0.0657   0.1179  -0.0131   0.0245  -0.0613   0.00    0.0
2026/01/15 13:23:00.000   30.531677348  114.357270301    27.7706   6   8   0.0593   0.0656   0.1178  -0.0131   0.0245  -0.0613   0.00    0.0
2026/01/15 13:23:30.000   30.531677353  114.357270298    27.7712   6   8   0.0593   0.0656   0.1178  -0.0131   0.0245  -0.0612   0.00    0.0
2026/01/15 13:24:00.000   30.531677356  114.357270297    27.7717   6   8   0.0593   0.0656   0.1177  -0.0131   0.0244  -0.0612   0.00    0.0
2026/01/15 13:25:00.000   30.531677360  114.357270297    27.7720   6   9   0.0592   0.0655   0.1176  -0.0131   0.0244  -0.0612   0.00    0.0
2026/01/15 13:26:00.000   30.531677370  114.357270296    27.7724   6   9   0.0592   0.0655   0.1175  -0.0131   0.0243  -0.0611   0.00    0.0
2026/01/15 13:26:30.000   30.531677372  114.357270298    27.7735   6   9   0.0591   0.0654   0.1175  -0.0130   0.0243  -0.0611   0.00    0.0
2026/01/15 13:27:00.000   30.531677375  114.357270299    27.7742   6   9   0.0591   0.0654   0.1174  -0.0130   0.0243  -0.0611   0.00    0.0
2026/01/15 13:27:30.000   30.531677379  114.357270304    27.7749   6   9   0.0591   0.0653   0.1173  -0.0130   0.0242  -0.0610   0.00    0.0
2026/01/15 13:28:00.000   30.531677382  114.357270304    27.7761   6   9   0.0590   0.0653   0.1172  -0.0130   0.0242  -0.0610   0.00    0.0
2026/01/15 13:28:30.000   30.531677385  114.357270307    27.7775   6   9   0.0590   0.0653   0.1172  -0.0130   0.0241  -0.0610   0.00    0.0
2026/01/15 13:29:00.000   30.531677389  114.357270306    27.7788   6   9   0.0590   0.0652   0.1171  -0.0130   0.0241  -0.0609   0.00    0.0
2026/01/15 13:29:30.000   30.531677395  114.357270313    27.7798   6   9   0.0589   0.0652   0.1170  -0.0130   0.0240  -0.0609   0.00    0.0
2026/01/15 13:30:00.000   30.531677400  114.357270314    27.7800   6   9   0.0589   0.0651   0.1169  -0.0130   0.0239  -0.0609   0.00    0.0
2026/01/15 13:30:30.000   30.531677402  114.357270310    27.7814   6   9   0.0588   0.0651   0.1168  -0.0129   0.0239  -0.0608   0.00    0.0
2026/01/15 13:31:00.000   30.531677405  114.357270314    27.7825   6   9   0.0588   0.0651   0.1167  -0.0129   0.0238  -0.0608   0.00    0.0
2026/01/15 13:31:30.000   30.531677408  114.357270317    27.7842   6   9   0.0588   0.0650   0.1166  -0.0129   0.0238  -0.0607   0.00    0.0
2026/01/15 13:32:00.000   30.531677410  114.357270320    27.7853   6   9   0.0587   0.0650   0.1165  -0.0129   0.0237  -0.0607   0.00    0.0
2026/01/15 13:32:30.000   30.531677415  114.357270317    27.7851   6   8   0.0587   0.0649   0.1165  -0.0129   0.0237  -0.0607   0.00    0.0
2026/01/15 13:33:00.000   30.531677422  114.357270317    27.7847   6   9   0.0586   0.0649   0.1164  -0.0128   0.0236  -0.0606   0.00    0.0
2026/01/15 13:33:30.000   30.531677425  114.357270316    27.7858   6   9   0.0586   0.0648   0.1163  -0.0128   0.0235  -0.0606   0.00    0.0
2026/01/15 13:34:00.000   30.531677428  114.357270314    27.7869   6   9   0.0585   0.0648   0.1161  -0.0128   0.0234  -0.0605   0.00    0.0
2026/01/15 13:34:30.000   30.531677431  114.357270315    27.7880   6   8   0.0585   0.0647   0.1160  -0.0128   0.0233  -0.0605   0.00    0.0
2026/01/15 13:35:30.000   30.531677436  114.357270310    27.7874   6   8   0.0584   0.0647   0.1159  -0.0127   0.0232  -0.0604   0.00    0.0
2026/01/15 13:36:00.000   30.531677438  114.357270303    27.7875   6   8   0.0584   0.0646   0.1158  -0.0127   0.0231  -0.0604   0.00    0.0
2026/01/15 13:36:30.000   30.531677439  114.357270296    27.7882   6   8   0.0583   0.0646   0.1157  -0.0127   0.0230  -0.0604   0.00    0.0
2026/01/15 13:37:00.000   30.531677441  114.357270294    27.7890   6   8   0.0583   0.0645   0.1155  -0.0126   0.0229  -0.0603   0.00    0.0
2026/01/15 13:37:30.000   30.531677443  114.357270292    27.7898   6   8   0.0582   0.0645   0.1154  -0.0126   0.0228  -0.0603   0.00    0.0
2026/01/15 13:38:00.000   30.531677445  114.357270291    27.7907   6   8   0.0582   0.0644   0.1153  -0.0125   0.0227  -0.0602   0.00    0.0
2026/01/15 13:38:30.000   30.531677446  114.357270288    27.7922   6   8   0.0581   0.0644   0.1152  -0.0125   0.0226  -0.0602   0.00    0.0
2026/01/15 13:39:00.000   30.531677448  114.357270285    27.7943   6   8   0.0581   0.0643   0.1150  -0.0124   0.0225  -0.0601   0.00    0.0
2026/01/15 13:40:00.000   30.531677455  114.357270280    27.7947   6   8   0.0580   0.0642   0.1149  -0.0124   0.0223  -0.0600   0.00    0.0
2026/01/15 13:40:30.000   30.531677460  114.357270277    27.7948   6   8   0.0579   0.0642   0.1147  -0.0123   0.0222  -0.0600   0.00    0.0
2026/01/15 13:41:00.000   30.531677461  114.357270272    27.7957   6   8   0.0579   0.0641   0.1146  -0.0123   0.0220  -0.0599   0.00    0.0
2026/01/15 13:41:30.000   30.531677466  114.357270267    27.7948   6   8   0.0578   0.0640   0.1144  -0.0122   0.0219  -0.0599   0.00    0.0
2026/01/15 13:42:00.000   30.531677469  114.357270265    27.7946   6   8   0.0577   0.0640   0.1143  -0.0122   0.0218  -0.0598   0.00    0.0
2026/01/15 13:42:30.000   30.531677472  114.357270262    27.7953   6   8   0.0577   0.0639   0.1141  -0.0121   0.0216  -0.0598   0.00    0.0
2026/01/15 13:43:00.000   30.531677475  114.357270259    27.7968   6   8   0.0576   0.0639   0.1140  -0.0120   0.0215  -0.0597   0.00    0.0
2026/01/15 13:43:30.000   30.531677481  114.357270255    27.7976   6   8   0.0575   0.0638   0.1138  -0.0120   0.0213  -0.0596   0.00    0.0
2026/01/15 13:44:00.000   30.531677488  114.357270256    27.7979   6   8   0.0575   0.0637   0.1136  -0.0119   0.0211  -0.0596   0.00    0.0
2026/01/15 13:44:30.000   30.531677493  114.357270257    27.7982   6   8   0.0574   0.0637   0.1135  -0.0118   0.0209  -0.0595   0.00    0.0
2026/01/15 13:45:00.000   30.531677501  114.357270254    27.7989   6   9   0.0573   0.0636   0.1133  -0.0117   0.0207  -0.0594   0.00    0.0
2026/01/15 13:45:30.000   30.531677506  114.357270252    27.7990   6   9   0.0572   0.0635   0.1131  -0.0116   0.0205  -0.0594   0.00    0.0
2026/01/15 13:46:00.000   30.531677512  114.357270247    27.7987   6   9   0.0572   0.0635   0.1129  -0.0116   0.0203  -0.0593   0.00    0.0
2026/01/15 13:46:30.000   30.531677517  114.357270245    27.7985   6   9   0.0571   0.0634   0.1127  -0.0115   0.0201  -0.0592   0.00    0.0
2026/01/15 13:47:00.000   30.531677527  114.357270242    27.7982   6   9   0.0570   0.0633   0.1126  -0.0114   0.0199  -0.0592   0.00    0.0
2026/01/15 13:47:30.000   30.531677533  114.357270240    27.7989   6   9   0.0569   0.0633   0.1124  -0.0113   0.0197  -0.0591   0.00    0.0
2026/01/15 13:48:00.000   30.531677540  114.357270237    27.8001   6   9   0.0569   0.0632   0.1122  -0.0112   0.0195  -0.0590   0.00    0.0
2026/01/15 13:48:30.000   30.531677547  114.357270232    27.8019   6   9   0.0568   0.0631   0.1120  -0.0111   0.0193  -0.0589   0.00    0.0
2026/01/15 13:49:00.000   30.531677553  114.357270230    27.8033   6   9   0.0567   0.0631   0.1118  -0.0110   0.0190  -0.0589   0.00    0.0
2026/01/15 13:49:30.000   30.531677559  114.357270229    27.8035   6   9   0.0566   0.0630   0.1116  -0.0109   0.0187  -0.0588   0.00    0.0
2026/01/15 13:50:00.000   30.531677564  114.357270226    27.8050   6   9   0.0565   0.0629   0.1114  -0.0108   0.0185  -0.0587   0.00    0.0
2026/01/15 13:50:30.000   30.531677570  114.357270226    27.8071   6   9   0.0564   0.0628   0.1112  -0.0107   0.0182  -0.0586   0.00    0.0
2026/01/15 13:51:00.000   30.531677580  114.357270224    27.8075   6   9   0.0563   0.0627   0.1110  -0.0105   0.0179  -0.0585   0.00    0.0
2026/01/15 13:51:30.000   30.531677589  114.357270223    27.8079   6   9   0.0563   0.0627   0.1108  -0.0104   0.0176  -0.0585   0.00    0.0
2026/01/15 13:52:00.000   30.531677595  114.357270219    27.8096   6   7   0.0562   0.0626   0.1107  -0.0103   0.0174  -0.0584   0.00    0.0
2026/01/15 13:52:30.000   30.531677603  114.357270219    27.8114   6   8   0.0561   0.0625   0.1105  -0.0102   0.0173  -0.0583   0.00    0.0
2026/01/15 13:53:00.000   30.531677610  114.357270222    27.8129   6   8   0.0560   0.0625   0.1104  -0.0101   0.0171  -0.0582   0.00    0.0
2026/01/15 13:53:30.000   30.531677619  114.357270224    27.8145   6   8   0.0559   0.0624   0.1102  -0.0100   0.0169  -0.0582   0.00    0.0
2026/01/15 13:54:00.000   30.531677626  114.357270223    27.8160   6   8   0.0558   0.0623   0.1101  -0.0098   0.0166  -0.0581   0.00    0.0
2026/01/15 13:54:30.000   30.531677633  114.357270220    27.8165   6   8   0.0557   0.0623   0.1099  -0.0097   0.0164  -0.0580   0.00    0.0
2026/01/15 13:55:00.000   30.531677640  114.357270219    27.8175   6   8   0.0556   0.0622   0.1097  -0.0095   0.0161  -0.0579   0.00    0.0
2026/01/15 13:55:30.000   30.531677647  114.357270220    27.8183   6   8   0.0555   0.0621   0.1096  -0.0094   0.0159  -0.0578   0.00    0.0
2026/01/15 13:56:00.000   30.531677657  114.357270221    27.8188   6   8   0.0554   0.0620   0.1094  -0.0092   0.0156  -0.0577   0.00    0.0
2026/01/15 13:56:30.000   30.531677667  114.357270223    27.8198   6   8   0.0553   0.0620   0.1092  -0.0091   0.0154  -0.0576   0.00    0.0
2026/01/15 13:57:00.000   30.531677674  114.357270224    27.8206   6   8   0.0552   0.0619   0.1091  -0.0089   0.0151  -0.0576   0.00    0.0
2026/01/15 13:57:30.000   30.531677682  114.357270222    27.8208   6   8   0.0552   0.0618   0.1089  -0.0088   0.0149  -0.0575   0.00    0.0
2026/01/15 13:58:00.000   30.531677688  114.357270222    27.8211   6   8   0.0551   0.0617   0.1088  -0.0086   0.0146  -0.0574   0.00    0.0
2026/01/15 13:58:30.000   30.531677692  114.357270219    27.8221   6   8   0.0550   0.0617   0.1086  -0.0085   0.0143  -0.0573   0.00    0.0
2026/01/15 13:59:00.000   30.531677698  114.357270214    27.8222   6   8   0.0549   0.0616   0.1084  -0.0083   0.0140  -0.0572   0.00    0.0
2026/01/15 13:59:30.000   30.531677706  114.357270209    27.8226   6   8   0.0547   0.0615   0.1082  -0.0081   0.0136  -0.0571   0.00    0.0
2026/01/15 14:00:00.000   30.531677716  114.357270202    27.8228   6   8   0.0546   0.0614   0.1080  -0.0079   0.0133  -0.0570   0.00    0.0
2026/01/15 14:00:30.000   30.531677727  114.357270199    27.8224   6   9   0.0545   0.0613   0.1078  -0.0077   0.0129  -0.0569   0.00    0.0
2026/01/15 14:01:00.000   30.531677737  114.357270196    27.8220   6   9   0.0544   0.0613   0.1076  -0.0074   0.0125  -0.0568   0.00    0.0
2026/01/15 14:01:30.000   30.531677748  114.357270191    27.8218   6   9   0.0543   0.0612   0.1074  -0.0072   0.0121  -0.0567   0.00    0.0
2026/01/15 14:02:00.000   30.531677759  114.357270188    27.8216   6   9   0.0542   0.0611   0.1072  -0.0070   0.0117  -0.0566   0.00    0.0
2026/01/15 14:02:30.000   30.531677768  114.357270192    27.8217   6   9   0.0541   0.0610   0.1071  -0.0068   0.0114  -0.0565   0.00    0.0
2026/01/15 14:03:00.000   30.531677780  114.357270194    27.8218   6   9   0.0540   0.0609   0.1069  -0.0066   0.0109  -0.0564   0.00    0.0
2026/01/15 14:03:30.000   30.531677794  114.357270198    27.8220   6   9   0.0539   0.0609   0.1067  -0.0063   0.0105  -0.0563   0.00    0.0
2026/01/15 14:04:00.000   30.531677805  114.357270197    27.8225   6   9   0.0538   0.0608   0.1065  -0.0060   0.0099  -0.0562   0.00    0.0
2026/01/15 14:04:30.000   30.531677813  114.357270195    27.8230   6   9   0.0536   0.0607   0.1062  -0.0057   0.0094  -0.0561   0.00    0.0
2026/01/15 14:05:00.000   30.531677825  114.357270191    27.8230   6   9   0.0535   0.0606   0.1060  -0.0053   0.0087  -0.0560   0.00    0.0
2026/01/15 14:05:30.000   30.531677840  114.357270192    27.8242   6   9   0.0534   0.0605   0.1058  -0.0050   0.0080  -0.0559   0.00    0.0
2026/01/15 14:06:00.000   30.531677852  114.357270196    27.8251   6   9   0.0533   0.0604   0.1056  -0.0046   0.0073  -0.0558   0.00    0.0
2026/01/15 14:06:30.000   30.531677865  114.357270196    27.8255   6   9   0.0532   0.0603   0.1054  -0.0042   0.0065  -0.0557   0.00    0.0
2026/01/15 14:07:00.000   30.531677874  114.357270191    27.8255   6   9   0.0530   0.0603   0.1052  -0.0037   0.0057  -0.0556   0.00    0.0
2026/01/15 14:07:30.000   30.531677880  114.357270189    27.8253   6   9   0.0529   0.0602   0.1050  -0.0033   0.0048  -0.0555   0.00    0.0
2026/01/15 14:08:00.000   30.531677887  114.357270188    27.8250   6   9   0.0528   0.0601   0.1048  -0.0027   0.0035  -0.0554   0.00    0.0
2026/01/15 14:08:30.000   30.531677896  114.357270183    27.8245   6   9   0.0527   0.0600   0.1045  -0.0019   0.0010  -0.0553   0.00    0.0
2026/01/15 14:09:00.000   30.531677903  114.357270184    27.8252   6   9   0.0526   0.0599   0.1044  -0.0020  -0.0016  -0.0552   0.00    0.0
2026/01/15 14:09:30.000   30.531677911  114.357270183    27.8258   6   9   0.0526   0.0599   0.1043  -0.0020  -0.0025  -0.0552   0.00    0.0
2026/01/15 14:10:00.000   30.531677918  114.357270184    27.8270   6   9   0.0525   0.0598   0.1042  -0.0020  -0.0032  -0.0552   0.00    0.0
2026/01/15 14:10:30.000   30.531677922  114.357270183    27.8281   6   8   0.0524   0.0597   0.1040  -0.0020  -0.0038  -0.0552   0.00    0.0
2026/01/15 14:11:00.000   30.531677927  114.357270180    27.8287   6   9   0.0523   0.0597   0.1039  -0.0021  -0.0042  -0.0552   0.00    0.0
2026/01/15 14:11:30.000   30.531677930  114.357270174    27.8287   6   8   0.0522   0.0596   0.1038  -0.0021  -0.0047  -0.0552   0.00    0.0
2026/01/15 14:12:00.000   30.531677935  114.357270166    27.8291   6   8   0.0522   0.0595   0.1037  -0.0021  -0.0050  -0.0551   0.00    0.0
2026/01/15 14:13:00.000   30.531677941  114.357270160    27.8298   6   8   0.0521   0.0595   0.1035  -0.0021  -0.0054  -0.0551   0.00    0.0
2026/01/15 14:13:30.000   30.531677947  114.357270163    27.8306   6   7   0.0520   0.0594   0.1034  -0.0023  -0.0059  -0.0551   0.00    0.0
2026/01/15 14:14:00.000   30.531677955  114.357270163    27.8316   6   8   0.0519   0.0593   0.1033  -0.0022  -0.0062  -0.0551   0.00    0.0
2026/01/15 14:14:30.000   30.531677961  114.357270163    27.8332   6   8   0.0519   0.0593   0.1031  -0.0022  -0.0066  -0.0550   0.00    0.0
2026/01/15 14:15:00.000   30.531677969  114.357270162    27.8344   6   8   0.0518   0.0592   0.1029  -0.0022  -0.0070  -0.0550   0.00    0.0
2026/01/15 14:15:30.000   30.531677979  114.357270164    27.8355   6   8   0.0517   0.0591   0.1028  -0.0022  -0.0073  -0.0550   0.00    0.0
2026/01/15 14:16:00.000   30.531677990  114.357270164    27.8361   6   8   0.0516   0.0591   0.1026  -0.0021  -0.0076  -0.0550   0.00    0.0
2026/01/15 14:16:30.000   30.531677998  114.357270162    27.8361   6   8   0.0515   0.0590   0.1025  -0.0021  -0.0079  -0.0549   0.00    0.0
2026/01/15 14:17:00.000   30.531678007  114.357270164    27.8368   6   8   0.0514   0.0589   0.1023  -0.0021  -0.0082  -0.0549   0.00    0.0
2026/01/15 14:17:30.000   30.531678015  114.357270164    27.8379   6   8   0.0513   0.0589   0.1022  -0.0020  -0.0084  -0.0549   0.00    0.0
2026/01/15 14:18:00.000   30.531678025  114.357270166    27.8400   6   8   0.0513   0.0588   0.1021  -0.0020  -0.0087  -0.0548   0.00    0.0
2026/01/15 14:18:30.000   30.531678036  114.357270171    27.8429   6   8   0.0512   0.0587   0.1019  -0.0019  -0.0090  -0.0548   0.00    0.0
2026/01/15 14:19:00.000   30.531678047  114.357270173    27.8457   6   8   0.0511   0.0586   0.1017  -0.0019  -0.0093  -0.0548   0.00    0.0
2026/01/15 14:19:30.000   30.531678057  114.357270172    27.8476   6   8   0.0510   0.0586   0.1015  -0.0018  -0.0096  -0.0547   0.00    0.0
2026/01/15 14:20:00.000   30.531678063  114.357270175    27.8490   6   8   0.0509   0.0585   0.1014  -0.0017  -0.0098  -0.0547   0.00    0.0
2026/01/15 14:20:30.000   30.531678068  114.357270175    27.8504   6   8   0.0508   0.0584   0.1012  -0.0016  -0.0101  -0.0546   0.00    0.0
2026/01/15 14:21:00.000   30.531678072  114.357270173    27.8521   6   8   0.0507   0.0583   0.1010  -0.0015  -0.0104  -0.0546   0.00    0.0
2026/01/15 14:21:30.000   30.531678076  114.357270174    27.8529   6   8   0.0506   0.0583   0.1008  -0.0014  -0.0106  -0.0545   0.00    0.0
2026/01/15 14:22:00.000   30.531678079  114.357270171    27.8530   6   8   0.0505   0.0582   0.1007  -0.0013  -0.0109  -0.0545   0.00    0.0
2026/01/15 14:22:30.000   30.531678083  114.357270168    27.8530   6   8   0.0504   0.0581   0.1005  -0.0012  -0.0111  -0.0544   0.00    0.0
2026/01/15 14:23:00.000   30.531678089  114.357270167    27.8531   6   8   0.0503   0.0581   0.1003  -0.0011  -0.0113  -0.0544   0.00    0.0
2026/01/15 14:23:30.000   30.531678096  114.357270164    27.8539   6   8   0.0503   0.0580   0.1001  -0.0010  -0.0115  -0.0543   0.00    0.0
2026/01/15 14:24:00.000   30.531678103  114.357270162    27.8537   6   8   0.0501   0.0579   0.0999  -0.0007  -0.0118  -0.0543   0.00    0.0
2026/01/15 14:24:30.000   30.531678109  114.357270161    27.8543   6   8   0.0500   0.0578   0.0997  -0.0004  -0.0120  -0.0542   0.00    0.0
2026/01/15 14:25:00.000   30.531678115  114.357270161    27.8553   6   8   0.0499   0.0578   0.0995   0.0005  -0.0123  -0.0541   0.00    0.0
2026/01/15 14:25:30.000   30.531678122  114.357270163    27.8562   6   8   0.0498   0.0577   0.0993   0.0008  -0.0125  -0.0541   0.00    0.0
2026/01/15 14:26:00.000   30.531678127  114.357270165    27.8554   6   8   0.0497   0.0576   0.0991   0.0011  -0.0127  -0.0540   0.00    0.0
2026/01/15 14:26:30.000   30.531678132  114.357270163    27.8547   6   8   0.0496   0.0575   0.0989   0.0012  -0.0130  -0.0539   0.00    0.0
2026/01/15 14:27:00.000   30.531678137  114.357270163    27.8546   6   8   0.0495   0.0575   0.0987   0.0014  -0.0132  -0.0539   0.00    0.0
2026/01/15 14:27:30.000   30.531678141  114.357270162    27.8544   6   8   0.0494   0.0574   0.0985   0.0015  -0.0133  -0.0538   0.00    0.0
2026/01/15 14:28:00.000   30.531678148  114.357270162    27.8542   6   8   0.0493   0.0573   0.0983   0.0016  -0.0135  -0.0537   0.00    0.0
2026/01/15 14:28:30.000   30.531678155  114.357270162    27.8547   6   8   0.0492   0.0572   0.0981   0.0018  -0.0138  -0.0537   0.00    0.0
2026/01/15 14:29:00.000   30.531678161  114.357270161    27.8553   6   8   0.0491   0.0572   0.0979   0.0019  -0.0140  -0.0536   0.00    0.0
2026/01/15 14:29:30.000   30.531678166  114.357270158    27.8562   6   8   0.0490   0.0571   0.0976   0.0020  -0.0142  -0.0535   0.00    0.0
2026/01/15 14:30:00.000   30.531678173  114.357270158    27.8569   6   8   0.0489   0.0570   0.0974   0.0021  -0.0144  -0.0534   0.00    0.0
2026/01/15 14:30:30.000   30.531678179  114.357270155    27.8575   6   8   0.0488   0.0569   0.0972   0.0023  -0.0146  -0.0533   0.00    0.0
2026/01/15 14:31:30.000   30.531678187  114.357270152    27.8572   6   8   0.0487   0.0568   0.0969   0.0023  -0.0148  -0.0533   0.00    0.0
2026/01/15 14:32:00.000   30.531678195  114.357270154    27.8569   6   8   0.0486   0.0568   0.0967   0.0024  -0.0150  -0.0532   0.00    0.0
2026/01/15 14:32:30.000   30.531678202  114.357270154    27.8568   6   8   0.0485   0.0567   0.0965   0.0025  -0.0152  -0.0531   0.00    0.0
2026/01/15 14:33:00.000   30.531678210  114.357270154    27.8565   6   8   0.0484   0.0566   0.0963   0.0026  -0.0154  -0.0530   0.00    0.0
2026/01/15 14:33:30.000   30.531678217  114.357270152    27.8572   6   8   0.0482   0.0566   0.0960   0.0027  -0.0155  -0.0529   0.00    0.0
2026/01/15 14:34:00.000   30.531678223  114.357270153    27.8582   6   7   0.0481   0.0565   0.0959   0.0026  -0.0155  -0.0529   0.00    0.0
2026/01/15 14:34:30.000   30.531678228  114.357270154    27.8589   6   6   0.0480   0.0564   0.0957   0.0026  -0.0155  -0.0528   0.00    0.0
2026/01/15 14:35:00.000   30.531678233  114.357270152    27.8597   6   7   0.0479   0.0564   0.0956   0.0026  -0.0156  -0.0527   0.00    0.0
2026/01/15 14:35:30.000   30.531678237  114.357270151    27.8601   6   7   0.0478   0.0563   0.0955   0.0027  -0.0156  -0.0526   0.00    0.0
2026/01/15 14:36:00.000   30.531678238  114.357270147    27.8604   6   7   0.0477   0.0563   0.0953   0.0027  -0.0156  -0.0526   0.00    0.0
2026/01/15 14:36:30.000   30.531678241  114.357270144    27.8606   6   7   0.0476   0.0562   0.0952   0.0027  -0.0156  -0.0525   0.00    0.0
2026/01/15 14:37:00.000   30.531678246  114.357270142    27.8610   6   7   0.0475   0.0561   0.0950   0.0027  -0.0156  -0.0525   0.00    0.0
2026/01/15 14:38:30.000   30.531678251  114.357270137    27.8610   6   7   0.0474   0.0561   0.0949   0.0027  -0.0155  -0.0524   0.00    0.0
2026/01/15 14:39:30.000   30.531678255  114.357270137    27.8614   6   7   0.0472   0.0560   0.0947   0.0026  -0.0155  -0.0523   0.00    0.0
2026/01/15 14:40:00.000   30.531678260  114.357270133    27.8619   6   7   0.0471   0.0560   0.0945   0.0026  -0.0155  -0.0522   0.00    0.0
2026/01/15 14:41:00.000   30.531678264  114.357270131    27.8623   6   7   0.0470   0.0559   0.0944   0.0026  -0.0155  -0.0521   0.00    0.0
2026/01/15 14:41:30.000   30.531678270  114.357270128    27.8630   6   7   0.0469   0.0558   0.0942   0.0026  -0.0155  -0.0520   0.00    0.0
2026/01/15 14:42:00.000   30.531678271  114.357270123    27.8634   6   4   0.0468   0.0558   0.0941   0.0026  -0.0156  -0.0520   0.00    0.0
2026/01/15 14:42:30.000   30.531678275  114.357270117    27.8640   6   7   0.0467   0.0557   0.0939   0.0026  -0.0156  -0.0519   0.00    0.0
2026/01/15 14:43:00.000   30.531678278  114.357270111    27.8647   6   7   0.0465   0.0557   0.0938   0.0026  -0.0156  -0.0518   0.00    0.0
2026/01/15 14:44:00.000   30.531678282  114.357270109    27.8650   6   7   0.0464   0.0556   0.0936   0.0025  -0.0156  -0.0517   0.00    0.0
2026/01/15 14:44:30.000   30.531678287  114.357270107    27.8653   6   7   0.0463   0.0555   0.0933   0.0025  -0.0155  -0.0516   0.00    0.0
2026/01/15 14:45:00.000   30.531678291  114.357270104    27.8659   6   7   0.0461   0.0555   0.0931   0.0025  -0.0155  -0.0515   0.00    0.0
2026/01/15 14:46:00.000   30.531678294  114.357270098    27.8660   6   7   0.0460   0.0554   0.0929   0.0024  -0.0155  -0.0514   0.00    0.0
2026/01/15 14:46:30.000   30.531678300  114.357270093    27.8671   6   8   0.0459   0.0554   0.0927   0.0024  -0.0155  -0.0513   0.00    0.0
2026/01/15 14:47:00.000   30.531678305  114.357270087    27.8676   6   8   0.0458   0.0553   0.0925   0.0024  -0.0155  -0.0512   0.00    0.0
2026/01/15 14:47:30.000   30.531678311  114.357270082    27.8679   6   8   0.0457   0.0553   0.0923   0.0023  -0.0155  -0.0511   0.00    0.0
2026/01/15 14:48:00.000   30.531678315  114.357270074    27.8685   6   8   0.0455   0.0552   0.0921   0.0023  -0.0155  -0.0510   0.00    0.0
2026/01/15 14:48:30.000   30.531678320  114.357270070    27.8687   6   8   0.0454   0.0551   0.0919   0.0022  -0.0155  -0.0509   0.00    0.0
2026/01/15 14:49:00.000   30.531678323  114.357270066    27.8689   6   8   0.0453   0.0551   0.0917   0.0022  -0.0154  -0.0508   0.00    0.0
2026/01/15 14:49:30.000   30.531678324  114.357270064    27.8694   6   8   0.0451   0.0550   0.0915   0.0021  -0.0154  -0.0507   0.00    0.0
2026/01/15 14:50:00.000   30.531678325  114.357270059    27.8701   6   8   0.0450   0.0549   0.0912   0.0020  -0.0154  -0.0505   0.00    0.0
2026/01/15 14:50:30.000   30.531678326  114.357270056    27.8700   6   8   0.0449   0.0549   0.0910   0.0019  -0.0154  -0.0504   0.00    0.0
2026/01/15 14:51:00.000   30.531678329  114.357270056    27.8699   6   8   0.0447   0.0548   0.0908   0.0018  -0.0153  -0.0503   0.00    0.0
2026/01/15 14:51:30.000   30.531678330  114.357270055    27.8697   6   8   0.0446   0.0548   0.0905   0.0017  -0.0153  -0.0502   0.00    0.0
2026/01/15 14:52:00.000   30.531678331  114.357270053    27.8700   6   8   0.0445   0.0547   0.0903   0.0016  -0.0153  -0.0501   0.00    0.0
2026/01/15 14:52:30.000   30.531678332  114.357270052    27.8702   6   8   0.0444   0.0547   0.0901   0.0015  -0.0153  -0.0500   0.00    0.0
2026/01/15 14:53:00.000   30.531678333  114.357270053    27.8711   6   8   0.0442   0.0546   0.0899   0.0014  -0.0152  -0.0499   0.00    0.0
2026/01/15 14:53:30.000   30.531678334  114.357270053    27.8724   6   8   0.0441   0.0545   0.0897   0.0012  -0.0152  -0.0498   0.00    0.0
2026/01/15 14:54:00.000   30.531678335  114.357270055    27.8731   6   8   0.0440   0.0545   0.0894   0.0009  -0.0152  -0.0496   0.00    0.0
2026/01/15 14:54:30.000   30.531678336  114.357270055    27.8733   6   8   0.0438   0.0544   0.0892   0.0006  -0.0151  -0.0495   0.00    0.0
2026/01/15 14:55:00.000   30.531678339  114.357270051    27.8740   6   8   0.0437   0.0544   0.0889  -0.0005  -0.0151  -0.0494   0.00    0.0
2026/01/15 14:55:30.000   30.531678341  114.357270049    27.8751   6   8   0.0436   0.0543   0.0887  -0.0009  -0.0150  -0.0492   0.00    0.0
2026/01/15 14:57:00.000   30.531678342  114.357270049    27.8757   6   8   0.0434   0.0542   0.0884  -0.0012  -0.0150  -0.0491   0.00    0.0
2026/01/15 14:57:30.000   30.531678342  114.357270047    27.8767   6   7   0.0433   0.0542   0.0882  -0.0012  -0.0149  -0.0490   0.00    0.0
2026/01/15 14:58:00.000   30.531678344  114.357270047    27.8771   6   7   0.0432   0.0541   0.0880  -0.0012  -0.0147  -0.0489   0.00    0.0
2026/01/15 14:58:30.000   30.531678346  114.357270046    27.8778   6   7   0.0431   0.0541   0.0878  -0.0012  -0.0146  -0.0487   0.00    0.0
2026/01/15 14:59:00.000   30.531678345  114.357270046    27.8789   6   7   0.0429   0.0540   0.0875  -0.0013  -0.0144  -0.0485   0.00    0.0
2026/01/15 14:59:30.000   30.531678345  114.357270044    27.8803   6   7   0.0428   0.0540   0.0873  -0.0013  -0.0142  -0.0484   0.00    0.0
2026/01/15 15:00:00.000   30.531678348  114.357270046    27.8816   6   7   0.0426   0.0539   0.0870  -0.0014  -0.0141  -0.0482   0.00    0.0
2026/01/15 15:00:30.000   30.531678352  114.357270047    27.8825   6   7   0.0425   0.0539   0.0868  -0.0015  -0.0139  -0.0481   0.00    0.0
2026/01/15 15:01:00.000   30.531678357  114.357270047    27.8828   6   7   0.0424   0.0538   0.0865  -0.0016  -0.0137  -0.0479   0.00    0.0
2026/01/15 15:01:30.000   30.531678360  114.357270045    27.8832   6   7   0.0422   0.0538   0.0863  -0.0017  -0.0135  -0.0477   0.00    0.0
2026/01/15 15:02:00.000   30.531678360  114.357270046    27.8840   6   7   0.0421   0.0537   0.0861  -0.0017  -0.0134  -0.0476   0.00    0.0
2026/01/15 15:02:30.000   30.531678360  114.357270046    27.8847   6   7   0.0420   0.0537   0.0859  -0.0018  -0.0132  -0.0475   0.00    0.0
2026/01/15 15:03:00.000   30.531678359  114.357270049    27.8855   6   7   0.0419   0.0536   0.0856  -0.0019  -0.0130  -0.0473   0.00    0.0
2026/01/15 15:03:30.000   30.531678359  114.357270050    27.8867   6   7   0.0418   0.0536   0.0854  -0.0021  -0.0129  -0.0472   0.00    0.0
2026/01/15 15:04:00.000   30.531678359  114.357270050    27.8879   6   7   0.0416   0.0535   0.0851  -0.0022  -0.0127  -0.0470   0.00    0.0
2026/01/15 15:04:30.000   30.531678359  114.357270049    27.8889   6   7   0.0415   0.0535   0.0849  -0.0023  -0.0124  -0.0468   0.00    0.0
2026/01/15 15:05:00.000   30.531678361  114.357270046    27.8899   6   7   0.0413   0.0534   0.0846  -0.0024  -0.0122  -0.0467   0.00    0.0
2026/01/15 15:05:30.000   30.531678362  114.357270044    27.8912   6   7   0.0412   0.0534   0.0843  -0.0026  -0.0120  -0.0465   0.00    0.0
2026/01/15 15:06:00.000   30.531678363  114.357270041    27.8928   6   7   0.0411   0.0533   0.0841  -0.0027  -0.0118  -0.0463   0.00    0.0
2026/01/15 15:06:30.000   30.531678361  114.357270039    27.8944   6   7   0.0409   0.0533   0.0838  -0.0028  -0.0116  -0.0462   0.00    0.0
2026/01/15 15:07:00.000   30.531678361  114.357270036    27.8960   6   7   0.0408   0.0532   0.0836  -0.0029  -0.0114  -0.0460   0.00    0.0
2026/01/15 15:07:30.000   30.531678360  114.357270035    27.8971   6   7   0.0407   0.0532   0.0834  -0.0030  -0.0112  -0.0459   0.00    0.0
2026/01/15 15:08:00.000   30.531678360  114.357270035    27.8982   6   7   0.0406   0.0531   0.0832  -0.0032  -0.0110  -0.0457   0.00    0.0
2026/01/15 15:08:30.000   30.531678360  114.357270035    27.8993   6   7   0.0405   0.0531   0.0829  -0.0033  -0.0107  -0.0456   0.00    0.0
2026/01/15 15:09:00.000   30.531678356  114.357270034    27.9008   6   7   0.0403   0.0530   0.0826  -0.0034  -0.0105  -0.0454   0.00    0.0
2026/01/15 15:09:30.000   30.531678355  114.357270033    27.9021   6   7   0.0402   0.0530   0.0824  -0.0036  -0.0102  -0.0452   0.00    0.0
2026/01/15 15:10:00.000   30.531678357  114.357270030    27.9032   6   7   0.0400   0.0529   0.0821  -0.0037  -0.0099  -0.0451   0.00    0.0
2026/01/15 15:10:30.000   30.531678360  114.357270026    27.9042   6   7   0.0399   0.0528   0.0818  -0.0038  -0.0096  -0.0449   0.00    0.0
2026/01/15 15:11:00.000   30.531678360  114.357270025    27.9056   6   7   0.0398   0.0528   0.0816  -0.0040  -0.0093  -0.0447   0.00    0.0
2026/01/15 15:11:30.000   30.531678357  114.357270022    27.9070   6   7   0.0396   0.0527   0.0813  -0.0041  -0.0090  -0.0446   0.00    0.0
2026/01/15 15:12:00.000   30.531678354  114.357270021    27.9084   6   7   0.0395   0.0527   0.0811  -0.0042  -0.0088  -0.0444   0.00    0.0
2026/01/15 15:13:00.000   30.531678353  114.357270020    27.9098   6   7   0.0394   0.0526   0.0808  -0.0043  -0.0085  -0.0443   0.00    0.0
2026/01/15 15:14:00.000   30.531678350  114.357270016    27.9118   6   7   0.0393   0.0526   0.0805  -0.0045  -0.0081  -0.0441   0.00    0.0
