% program   : RTKPOST ver.demo5 b34d
% inp file  : C:\Users\tevin\Desktop\GNSS - MASTA\SPRING SEM\4.SAT NAV DATA PROCESSING\TEAM PROJECT\SNDP-PROJECT\DATA(Tevin USE)\obs\RNXDATA\KIRU00SWE_R_20260150000_01D_30S_MO.obs
% inp file  : C:\Users\tevin\Desktop\GNSS - MASTA\SPRING SEM\4.SAT NAV DATA PROCESSING\TEAM PROJECT\SNDP-PROJECT\DATA(Tevin USE)\nav\BRDC00IGS_R_20260150000_01D_MN.nav
% inp file  : C:\Users\tevin\Desktop\GNSS - MASTA\SPRING SEM\4.SAT NAV DATA PROCESSING\TEAM PROJECT\SNDP-PROJECT\DATA(Tevin USE)\DATA_FINAL_ANT_EXTRA\COD0MGXFIN_20260150000_01D_30S_CLK.CLK
% inp file  : C:\Users\tevin\Desktop\GNSS - MASTA\SPRING SEM\4.SAT NAV DATA PROCESSING\TEAM PROJECT\SNDP-PROJECT\DATA(Tevin USE)\DATA_FINAL_ANT_EXTRA\COD0MGXFIN_20260150000_01D_05M_ORB.SP3
% obs start : 2026/01/15 00:00:00.0 GPST (week2401 345600.0s)
% obs end   : 2026/01/15 23:59:30.0 GPST (week2401 431970.0s)
% pos mode  : PPP Static
% solution  : Forward
% elev mask : 15.0 deg
% dynamics  : on
% tidecorr  : off
% tropo opt : Saastamoinen
% ephemeris : Precise
% navi sys  : BDS
% antenna1  :                       ( 0.0000  0.0000  0.0000)
%
% (lat/lon/height=WGS84/ellipsoidal,Q=1:fix,2:float,3:sbas,4:dgps,5:single,6:ppp,ns=# of satellites)
%  GPST                  latitude(deg) longitude(deg)  height(m)   Q  ns   sdn(m)   sde(m)   sdu(m)  sdne(m)  sdeu(m)  sdun(m) age(s)  ratio
2026/01/15 00:08:00.000   67.857593646   20.969763578   328.0450   6   4  13.2290  20.2282  18.2476  15.3126  17.9368  14.7614   0.00    0.0
2026/01/15 00:08:30.000   67.857604962   20.969794171   328.6746   6   4  11.7924  18.3582  16.5051  14.1130  16.5553  13.4578   0.00    0.0
2026/01/15 00:09:00.000   67.857607525   20.969818485   328.6081   6   4  10.8480  16.9600  15.2226  13.1247  15.3999  12.4686   0.00    0.0
2026/01/15 00:09:30.000   67.857609482   20.969830718   328.6631   6   4  10.1184  15.8345  14.1978  12.3029  14.4298  11.6651   0.00    0.0
2026/01/15 00:10:00.000   67.857614124   20.969838660   328.6957   6   4   9.5214  14.8954  13.3461  11.6066  13.6028  10.9911   0.00    0.0
2026/01/15 00:10:30.000   67.857617772   20.969852589   328.8129   6   4   9.0165  14.0920  12.6194  11.0057  12.8860  10.4127   0.00    0.0
2026/01/15 00:11:00.000   67.857619903   20.969858132   328.6067   6   4   8.5796  13.3915  11.9872  10.4787  12.2556   9.9072   0.00    0.0
2026/01/15 00:11:30.000   67.857621899   20.969859838   328.3637   6   4   8.1949  12.7714  11.4285  10.0103  11.6940   9.4590   0.00    0.0
2026/01/15 00:12:00.000   67.857624813   20.969862712   328.1249   6   4   7.8514  12.2158  10.9286   9.5893  11.1882   9.0567   0.00    0.0
2026/01/15 00:12:30.000   67.857627681   20.969867116   328.2071   6   4   7.5414  11.7127  10.4764   9.2072  10.7286   8.6921   0.00    0.0
2026/01/15 00:13:00.000   67.857630057   20.969870449   328.1357   6   4   7.2587  11.2532  10.0639   8.8574  10.3073   8.3586   0.00    0.0
2026/01/15 00:13:30.000   67.857631584   20.969874298   327.8938   6   4   6.9989  10.8303   9.6846   8.5349   9.9186   8.0513   0.00    0.0
2026/01/15 00:14:00.000   67.857633883   20.969879612   327.8698   6   4   6.7587  10.4388   9.3336   8.2357   9.5578   7.7665   0.00    0.0
2026/01/15 00:14:30.000   67.857637676   20.969888025   328.0413   6   4   6.5351  10.0743   9.0072   7.9567   9.2212   7.5010   0.00    0.0
2026/01/15 00:15:00.000   67.857657846   20.969966484   330.7280   6   4   1.3973   1.5706   1.9967  -0.2150  -1.4314   0.5824   0.00    0.0
2026/01/15 00:15:30.000   67.857660364   20.969966150   330.6614   6   4   1.3580   1.5359   1.9498  -0.1231  -1.3846   0.5701   0.00    0.0
2026/01/15 00:16:00.000   67.857662146   20.969965946   330.6497   6   4   1.3223   1.5045   1.9073   0.1111  -1.3418   0.5591   0.00    0.0
2026/01/15 00:16:30.000   67.857663859   20.969967155   330.5453   6   4   1.2898   1.4759   1.8685   0.1920  -1.3024   0.5491   0.00    0.0
2026/01/15 00:17:00.000   67.857665840   20.969967837   330.4654   6   4   1.2601   1.4498   1.8328   0.2426  -1.2661   0.5401   0.00    0.0
2026/01/15 00:17:30.000   67.857668007   20.969969027   330.3343   6   4   1.2328   1.4258   1.8000   0.2806  -1.2324   0.5318   0.00    0.0
2026/01/15 00:18:00.000   67.857669745   20.969968711   330.3151   6   4   1.2076   1.4037   1.7697   0.3111  -1.2010   0.5241   0.00    0.0
2026/01/15 00:18:30.000   67.857671781   20.969969110   330.2540   6   4   1.1843   1.3832   1.7415   0.3365  -1.1716   0.5171   0.00    0.0
2026/01/15 00:19:00.000   67.857674078   20.969969125   330.1904   6   4   1.1626   1.3641   1.7152   0.3583  -1.1441   0.5105   0.00    0.0
2026/01/15 00:19:30.000   67.857676098   20.969968813   330.1657   6   4   1.1423   1.3464   1.6907   0.3772  -1.1182   0.5044   0.00    0.0
2026/01/15 00:20:00.000   67.857678155   20.969969340   330.0943   6   4   1.1234   1.3298   1.6677   0.3939  -1.0939   0.4986   0.00    0.0
2026/01/15 00:20:30.000   67.857680313   20.969969386   330.0442   6   4   1.1058   1.3143   1.6462   0.4087  -1.0708   0.4931   0.00    0.0
2026/01/15 00:21:00.000   67.857682253   20.969969032   330.0376   6   4   1.0892   1.2998   1.6259   0.4221  -1.0490   0.4880   0.00    0.0
2026/01/15 02:14:30.000   67.857653530   20.969820137   345.2372   6   4   0.3535   0.7569   0.9910   0.3131  -0.7205  -0.3761   0.00    0.0
2026/01/15 02:15:00.000   67.857654021   20.969818327   345.2961   6   4   0.3522   0.7552   0.9895   0.3137  -0.7194  -0.3756   0.00    0.0
2026/01/15 02:15:30.000   67.857654515   20.969816370   345.3603   6   4   0.3510   0.7536   0.9880   0.3144  -0.7184  -0.3752   0.00    0.0
2026/01/15 02:16:00.000   67.857655014   20.969814486   345.4255   6   4   0.3498   0.7519   0.9865   0.3151  -0.7173  -0.3747   0.00    0.0
2026/01/15 02:16:30.000   67.857655514   20.969812105   345.4985   6   4   0.3486   0.7501   0.9850   0.3157  -0.7162  -0.3744   0.00    0.0
2026/01/15 02:17:00.000   67.857656000   20.969809903   345.5760   6   4   0.3474   0.7484   0.9834   0.3164  -0.7150  -0.3740   0.00    0.0
2026/01/15 02:17:30.000   67.857656457   20.969807499   345.6592   6   4   0.3463   0.7467   0.9819   0.3170  -0.7139  -0.3737   0.00    0.0
2026/01/15 02:18:00.000   67.857656917   20.969805237   345.7489   6   4   0.3452   0.7449   0.9803   0.3176  -0.7127  -0.3734   0.00    0.0
2026/01/15 02:19:00.000   67.857657519   20.969803843   345.9779   6   4   0.3430   0.7404   0.9774   0.3156  -0.7126  -0.3740   0.00    0.0
2026/01/15 02:19:30.000   67.857657936   20.969801024   346.0887   6   4   0.3420   0.7385   0.9757   0.3163  -0.7112  -0.3738   0.00    0.0
2026/01/15 02:20:00.000   67.857658396   20.969798055   346.2043   6   4   0.3410   0.7366   0.9739   0.3169  -0.7098  -0.3736   0.00    0.0
2026/01/15 02:20:30.000   67.857658811   20.969794992   346.3248   6   4   0.3401   0.7346   0.9722   0.3176  -0.7084  -0.3734   0.00    0.0
2026/01/15 02:21:00.000   67.857659224   20.969791933   346.4506   6   4   0.3391   0.7326   0.9704   0.3182  -0.7069  -0.3733   0.00    0.0
2026/01/15 02:21:30.000   67.857659657   20.969788596   346.5807   6   4   0.3382   0.7306   0.9686   0.3188  -0.7054  -0.3731   0.00    0.0
2026/01/15 02:22:00.000   67.857660059   20.969785308   346.7165   6   4   0.3373   0.7285   0.9668   0.3194  -0.7039  -0.3729   0.00    0.0
2026/01/15 02:22:30.000   67.857660419   20.969782105   346.8583   6   4   0.3365   0.7265   0.9649   0.3200  -0.7023  -0.3728   0.00    0.0
2026/01/15 02:23:00.000   67.857660765   20.969778742   347.0040   6   4   0.3356   0.7244   0.9630   0.3205  -0.7007  -0.3727   0.00    0.0
2026/01/15 02:23:30.000   67.857661183   20.969775024   347.1547   6   4   0.3348   0.7223   0.9611   0.3211  -0.6991  -0.3725   0.00    0.0
2026/01/15 02:24:00.000   67.857661840   20.969771750   347.3120   6   5   0.3339   0.7201   0.9591   0.3215  -0.6974  -0.3724   0.00    0.0
2026/01/15 02:25:00.000   67.857662170   20.969767932   347.5914   6   4   0.3320   0.7154   0.9560   0.3196  -0.6963  -0.3728   0.00    0.0
2026/01/15 02:25:30.000   67.857662800   20.969764281   347.7659   6   5   0.3312   0.7131   0.9539   0.3200  -0.6944  -0.3726   0.00    0.0
2026/01/15 02:26:00.000   67.857663433   20.969760354   347.9445   6   5   0.3303   0.7107   0.9517   0.3205  -0.6925  -0.3725   0.00    0.0
2026/01/15 02:26:30.000   67.857664064   20.969756304   348.1261   6   5   0.3295   0.7084   0.9495   0.3209  -0.6906  -0.3724   0.00    0.0
2026/01/15 02:27:00.000   67.857664662   20.969752259   348.3111   6   5   0.3287   0.7060   0.9473   0.3213  -0.6886  -0.3723   0.00    0.0
2026/01/15 02:27:30.000   67.857665280   20.969748223   348.4986   6   5   0.3279   0.7036   0.9450   0.3217  -0.6866  -0.3722   0.00    0.0
2026/01/15 02:28:30.000   67.857665775   20.969743497   348.8012   6   5   0.3261   0.6988   0.9417   0.3197  -0.6849  -0.3723   0.00    0.0
2026/01/15 02:29:30.000   67.857666207   20.969739012   349.1091   6   5   0.3244   0.6939   0.9383   0.3178  -0.6830  -0.3723   0.00    0.0
2026/01/15 02:30:00.000   67.857666720   20.969734341   349.3227   6   5   0.3237   0.6913   0.9357   0.3181  -0.6807  -0.3722   0.00    0.0
2026/01/15 02:31:00.000   67.857667110   20.969729268   349.6383   6   5   0.3220   0.6864   0.9322   0.3162  -0.6785  -0.3721   0.00    0.0
2026/01/15 02:31:30.000   67.857667570   20.969724275   349.8663   6   5   0.3213   0.6836   0.9295   0.3165  -0.6760  -0.3719   0.00    0.0
2026/01/15 02:32:00.000   67.857668012   20.969719227   350.0965   6   5   0.3207   0.6809   0.9268   0.3167  -0.6734  -0.3717   0.00    0.0
2026/01/15 02:33:00.000   67.857668289   20.969713706   350.4185   6   5   0.3191   0.6759   0.9232   0.3149  -0.6710  -0.3715   0.00    0.0
2026/01/15 02:33:30.000   67.857668695   20.969708379   350.6589   6   5   0.3185   0.6730   0.9203   0.3151  -0.6683  -0.3713   0.00    0.0
2026/01/15 02:34:00.000   67.857669078   20.969703054   350.9009   6   5   0.3179   0.6701   0.9175   0.3152  -0.6656  -0.3711   0.00    0.0
2026/01/15 02:34:30.000   67.857669476   20.969697696   351.1415   6   5   0.3173   0.6672   0.9146   0.3153  -0.6629  -0.3708   0.00    0.0
2026/01/15 02:35:00.000   67.857669829   20.969692472   351.3812   6   5   0.3167   0.6643   0.9117   0.3154  -0.6601  -0.3706   0.00    0.0
2026/01/15 02:35:30.000   67.857670165   20.969687080   351.6280   6   5   0.3162   0.6614   0.9088   0.3155  -0.6573  -0.3703   0.00    0.0
2026/01/15 02:36:00.000   67.857670482   20.969681843   351.8684   6   5   0.3156   0.6585   0.9059   0.3155  -0.6546  -0.3700   0.00    0.0
2026/01/15 02:36:30.000   67.857670797   20.969676507   352.1118   6   5   0.3151   0.6555   0.9029   0.3156  -0.6518  -0.3697   0.00    0.0
2026/01/15 02:37:00.000   67.857671100   20.969671416   352.3474   6   5   0.3146   0.6526   0.9000   0.3156  -0.6490  -0.3694   0.00    0.0
2026/01/15 02:37:30.000   67.857671378   20.969666256   352.5834   6   5   0.3140   0.6497   0.8971   0.3155  -0.6462  -0.3691   0.00    0.0
2026/01/15 02:38:00.000   67.857671610   20.969660895   352.8253   6   5   0.3135   0.6467   0.8941   0.3155  -0.6434  -0.3687   0.00    0.0
2026/01/15 02:38:30.000   67.857671885   20.969655766   353.0587   6   5   0.3130   0.6438   0.8912   0.3154  -0.6406  -0.3684   0.00    0.0
2026/01/15 02:39:00.000   67.857672112   20.969650500   353.2931   6   5   0.3125   0.6408   0.8882   0.3153  -0.6377  -0.3680   0.00    0.0
2026/01/15 02:40:00.000   67.857672120   20.969644116   353.6335   6   5   0.3111   0.6358   0.8844   0.3133  -0.6347  -0.3674   0.00    0.0
2026/01/15 02:40:30.000   67.857672303   20.969638464   353.8798   6   5   0.3106   0.6328   0.8813   0.3132  -0.6317  -0.3670   0.00    0.0
2026/01/15 02:41:00.000   67.857672468   20.969633198   354.1227   6   5   0.3102   0.6297   0.8783   0.3130  -0.6288  -0.3666   0.00    0.0
2026/01/15 02:41:30.000   67.857672638   20.969627968   354.3597   6   5   0.3097   0.6267   0.8752   0.3128  -0.6259  -0.3662   0.00    0.0
2026/01/15 02:42:00.000   67.857672829   20.969622696   354.5928   6   5   0.3093   0.6237   0.8722   0.3126  -0.6229  -0.3658   0.00    0.0
2026/01/15 02:43:00.000   67.857672937   20.969617203   354.8695   6   5   0.3084   0.6193   0.8687   0.3113  -0.6202  -0.3656   0.00    0.0
2026/01/15 02:43:30.000   67.857673062   20.969611917   355.1038   6   5   0.3079   0.6163   0.8656   0.3110  -0.6172  -0.3651   0.00    0.0
2026/01/15 02:44:00.000   67.857673196   20.969606413   355.3445   6   5   0.3075   0.6132   0.8625   0.3108  -0.6142  -0.3646   0.00    0.0
2026/01/15 02:44:30.000   67.857673300   20.969601074   355.5805   6   5   0.3070   0.6101   0.8594   0.3105  -0.6111  -0.3641   0.00    0.0
2026/01/15 02:45:00.000   67.857673384   20.969595481   355.8270   6   5   0.3066   0.6070   0.8563   0.3101  -0.6081  -0.3637   0.00    0.0
2026/01/15 02:46:00.000   67.857673357   20.969594991   356.2833   6   5   0.3056   0.6009   0.8520   0.3087  -0.6066  -0.3632   0.00    0.0
2026/01/15 02:47:00.000   67.857673355   20.969593992   356.7109   6   5   0.3046   0.5949   0.8477   0.3072  -0.6048  -0.3627   0.00    0.0
2026/01/15 02:47:30.000   67.857673391   20.969588315   356.9575   6   5   0.3042   0.5919   0.8445   0.3068  -0.6017  -0.3621   0.00    0.0
2026/01/15 02:48:00.000   67.857673402   20.969582812   357.2004   6   5   0.3038   0.5888   0.8413   0.3064  -0.5986  -0.3616   0.00    0.0
2026/01/15 02:48:30.000   67.857673405   20.969577292   357.4421   6   5   0.3034   0.5857   0.8382   0.3060  -0.5955  -0.3610   0.00    0.0
2026/01/15 02:49:00.000   67.857673405   20.969571674   357.6853   6   5   0.3030   0.5827   0.8350   0.3055  -0.5924  -0.3604   0.00    0.0
2026/01/15 02:49:30.000   67.857673388   20.969566196   357.9196   6   5   0.3026   0.5797   0.8319   0.3051  -0.5893  -0.3598   0.00    0.0
2026/01/15 02:50:00.000   67.857673361   20.969560638   358.1562   6   5   0.3022   0.5766   0.8287   0.3046  -0.5862  -0.3593   0.00    0.0
2026/01/15 02:50:30.000   67.857673319   20.969555195   358.3896   6   5   0.3018   0.5736   0.8256   0.3041  -0.5832  -0.3587   0.00    0.0
2026/01/15 02:51:00.000   67.857673251   20.969549910   358.6202   6   5   0.3014   0.5706   0.8226   0.3036  -0.5801  -0.3581   0.00    0.0
2026/01/15 02:52:00.000   67.857673117   20.969547728   358.9807   6   5   0.3005   0.5651   0.8188   0.3020  -0.5779  -0.3575   0.00    0.0
2026/01/15 02:52:30.000   67.857673046   20.969542198   359.2134   6   5   0.3001   0.5621   0.8157   0.3015  -0.5748  -0.3568   0.00    0.0
2026/01/15 02:53:00.000   67.857672942   20.969536758   359.4433   6   5   0.2997   0.5591   0.8127   0.3009  -0.5718  -0.3562   0.00    0.0
2026/01/15 02:53:30.000   67.857672828   20.969531166   359.6728   6   5   0.2993   0.5562   0.8096   0.3004  -0.5688  -0.3556   0.00    0.0
2026/01/15 02:54:00.000   67.857672701   20.969525680   359.9012   6   5   0.2990   0.5532   0.8066   0.2998  -0.5657  -0.3549   0.00    0.0
2026/01/15 02:54:30.000   67.857672555   20.969520160   360.1340   6   5   0.2986   0.5503   0.8036   0.2992  -0.5628  -0.3543   0.00    0.0
2026/01/15 02:55:00.000   67.857672432   20.969514909   360.3534   6   5   0.2982   0.5474   0.8006   0.2986  -0.5598  -0.3536   0.00    0.0
2026/01/15 02:56:00.000   67.857672190   20.969511785   360.6830   6   5   0.2973   0.5421   0.7971   0.2969  -0.5572  -0.3529   0.00    0.0
2026/01/15 02:56:30.000   67.857672045   20.969506446   360.9006   6   5   0.2969   0.5393   0.7942   0.2963  -0.5543  -0.3523   0.00    0.0
2026/01/15 02:57:00.000   67.857671876   20.969500950   361.1249   6   5   0.2966   0.5364   0.7912   0.2957  -0.5513  -0.3516   0.00    0.0
2026/01/15 02:57:30.000   67.857671689   20.969495491   361.3475   6   5   0.2962   0.5335   0.7883   0.2950  -0.5484  -0.3509   0.00    0.0
2026/01/15 02:58:00.000   67.857671512   20.969490137   361.5623   6   5   0.2958   0.5307   0.7854   0.2944  -0.5455  -0.3502   0.00    0.0
2026/01/15 02:59:00.000   67.857671206   20.969486773   361.8668   6   5   0.2949   0.5257   0.7821   0.2927  -0.5428  -0.3495   0.00    0.0
2026/01/15 02:59:30.000   67.857670973   20.969481275   362.0900   6   5   0.2946   0.5229   0.7792   0.2920  -0.5399  -0.3488   0.00    0.0
2026/01/15 03:00:00.000   67.857670729   20.969475843   362.3090   6   5   0.2942   0.5201   0.7764   0.2913  -0.5370  -0.3481   0.00    0.0
2026/01/15 03:00:30.000   67.857670470   20.969470409   362.5283   6   5   0.2938   0.5173   0.7735   0.2906  -0.5342  -0.3474   0.00    0.0
2026/01/15 03:01:00.000   67.857670582   20.969470160   362.5643   6   4   0.2936   0.5165   0.7715   0.2904  -0.5327  -0.3471   0.00    0.0
2026/01/15 03:01:30.000   67.857670292   20.969464616   362.7843   6   5   0.2932   0.5137   0.7687   0.2897  -0.5298  -0.3464   0.00    0.0
2026/01/15 03:02:00.000   67.857670011   20.969459172   363.0008   6   5   0.2928   0.5109   0.7660   0.2890  -0.5270  -0.3457   0.00    0.0
2026/01/15 03:02:30.000   67.857670126   20.969459011   363.0302   6   4   0.2926   0.5102   0.7641   0.2888  -0.5256  -0.3454   0.00    0.0
2026/01/15 03:03:00.000   67.857670241   20.969458918   363.0532   6   4   0.2924   0.5095   0.7622   0.2886  -0.5243  -0.3452   0.00    0.0
2026/01/15 03:03:30.000   67.857670364   20.969458870   363.0738   6   4   0.2922   0.5087   0.7604   0.2885  -0.5229  -0.3449   0.00    0.0
2026/01/15 03:04:00.000   67.857670483   20.969458809   363.0956   6   4   0.2920   0.5080   0.7586   0.2883  -0.5216  -0.3447   0.00    0.0
2026/01/15 03:04:30.000   67.857670598   20.969458789   363.1143   6   4   0.2918   0.5073   0.7568   0.2881  -0.5203  -0.3445   0.00    0.0
2026/01/15 03:05:00.000   67.857670706   20.969458736   363.1336   6   4   0.2916   0.5067   0.7550   0.2880  -0.5190  -0.3443   0.00    0.0
2026/01/15 03:05:30.000   67.857670804   20.969458681   363.1536   6   4   0.2914   0.5060   0.7533   0.2878  -0.5177  -0.3440   0.00    0.0
2026/01/15 03:06:00.000   67.857670884   20.969458652   363.1709   6   4   0.2912   0.5053   0.7516   0.2877  -0.5165  -0.3438   0.00    0.0
2026/01/15 03:06:30.000   67.857670976   20.969458629   363.1884   6   4   0.2911   0.5047   0.7499   0.2875  -0.5152  -0.3436   0.00    0.0
2026/01/15 03:07:00.000   67.857671054   20.969458691   363.1974   6   4   0.2909   0.5040   0.7482   0.2874  -0.5140  -0.3434   0.00    0.0
2026/01/15 03:07:30.000   67.857671120   20.969458687   363.2126   6   4   0.2907   0.5034   0.7466   0.2872  -0.5128  -0.3432   0.00    0.0
2026/01/15 03:08:00.000   67.857671201   20.969458714   363.2251   6   4   0.2905   0.5028   0.7450   0.2871  -0.5117  -0.3430   0.00    0.0
2026/01/15 03:08:30.000   67.857671294   20.969458789   363.2337   6   4   0.2903   0.5022   0.7434   0.2869  -0.5105  -0.3428   0.00    0.0
2026/01/15 03:09:00.000   67.857671376   20.969458889   363.2416   6   4   0.2902   0.5016   0.7418   0.2868  -0.5094  -0.3426   0.00    0.0
2026/01/15 03:09:30.000   67.857671465   20.969458962   363.2518   6   4   0.2900   0.5010   0.7402   0.2867  -0.5082  -0.3424   0.00    0.0
2026/01/15 03:10:00.000   67.857671545   20.969459145   363.2517   6   4   0.2898   0.5004   0.7387   0.2865  -0.5071  -0.3422   0.00    0.0
2026/01/15 03:10:30.000   67.857670637   20.969454405   363.5734   6   5   0.2891   0.4988   0.7355   0.2854  -0.5045  -0.3407   0.00    0.0
2026/01/15 03:11:00.000   67.857669751   20.969449835   363.8816   6   5   0.2885   0.4973   0.7324   0.2844  -0.5018  -0.3393   0.00    0.0
2026/01/15 03:11:30.000   67.857668854   20.969445211   364.1944   6   5   0.2878   0.4957   0.7293   0.2833  -0.4993  -0.3380   0.00    0.0
2026/01/15 03:12:00.000   67.857667996   20.969440779   364.4916   6   5   0.2872   0.4942   0.7263   0.2823  -0.4967  -0.3366   0.00    0.0
2026/01/15 03:12:30.000   67.857667704   20.969439445   364.6067   6   5   0.2868   0.4934   0.7242   0.2818  -0.4951  -0.3359   0.00    0.0
2026/01/15 03:13:00.000   67.857667418   20.969438148   364.7173   6   5   0.2865   0.4925   0.7221   0.2813  -0.4935  -0.3352   0.00    0.0
2026/01/15 03:13:30.000   67.857667107   20.969436790   364.8322   6   5   0.2861   0.4917   0.7200   0.2809  -0.4920  -0.3345   0.00    0.0
2026/01/15 03:14:00.000   67.857666807   20.969435483   364.9446   6   5   0.2858   0.4909   0.7180   0.2804  -0.4904  -0.3339   0.00    0.0
2026/01/15 03:14:30.000   67.857666515   20.969434230   365.0533   6   5   0.2854   0.4901   0.7160   0.2800  -0.4889  -0.3332   0.00    0.0
2026/01/15 03:15:00.000   67.857666234   20.969433059   365.1552   6   5   0.2851   0.4893   0.7140   0.2796  -0.4874  -0.3326   0.00    0.0
2026/01/15 03:15:30.000   67.857665939   20.969431850   365.2601   6   5   0.2847   0.4885   0.7120   0.2791  -0.4860  -0.3319   0.00    0.0
2026/01/15 03:16:00.000   67.857665664   20.969430702   365.3606   6   5   0.2844   0.4877   0.7101   0.2787  -0.4845  -0.3313   0.00    0.0
2026/01/15 03:16:30.000   67.857665403   20.969429699   365.4493   6   5   0.2841   0.4870   0.7083   0.2783  -0.4831  -0.3307   0.00    0.0
2026/01/15 03:17:00.000   67.857665128   20.969428633   365.5423   6   5   0.2838   0.4862   0.7064   0.2779  -0.4817  -0.3301   0.00    0.0
2026/01/15 03:17:30.000   67.857664851   20.969427520   365.6394   6   5   0.2834   0.4855   0.7046   0.2775  -0.4803  -0.3295   0.00    0.0
2026/01/15 03:18:00.000   67.857664580   20.969426465   365.7326   6   5   0.2831   0.4848   0.7028   0.2771  -0.4790  -0.3289   0.00    0.0
2026/01/15 03:18:30.000   67.857664350   20.969425955   365.7800   6   4   0.2829   0.4844   0.7019   0.2767  -0.4782  -0.3284   0.00    0.0
2026/01/15 03:19:30.000   67.857664753   20.969429962   366.3909   6   4   0.2819   0.4819   0.6948   0.2748  -0.4803  -0.3294   0.00    0.0
2026/01/15 03:20:00.000   67.857664535   20.969429548   366.4334   6   4   0.2816   0.4815   0.6939   0.2745  -0.4796  -0.3289   0.00    0.0
2026/01/15 03:20:30.000   67.857664323   20.969429156   366.4748   6   4   0.2814   0.4811   0.6931   0.2741  -0.4789  -0.3284   0.00    0.0
2026/01/15 03:21:00.000   67.857664090   20.969428674   366.5213   6   4   0.2811   0.4807   0.6922   0.2737  -0.4782  -0.3278   0.00    0.0
2026/01/15 03:21:30.000   67.857663875   20.969428282   366.5612   6   4   0.2808   0.4803   0.6913   0.2734  -0.4775  -0.3273   0.00    0.0
2026/01/15 03:22:00.000   67.857663666   20.969427924   366.5989   6   4   0.2806   0.4798   0.6905   0.2730  -0.4768  -0.3268   0.00    0.0
2026/01/15 03:22:30.000   67.857663467   20.969427624   366.6336   6   4   0.2803   0.4794   0.6896   0.2727  -0.4761  -0.3263   0.00    0.0
2026/01/15 03:23:00.000   67.857663253   20.969427255   366.6726   6   4   0.2801   0.4791   0.6888   0.2724  -0.4754  -0.3258   0.00    0.0
2026/01/15 03:23:30.000   67.857663031   20.969426867   366.7133   6   4   0.2798   0.4787   0.6880   0.2720  -0.4748  -0.3253   0.00    0.0
2026/01/15 03:24:00.000   67.857662807   20.969426465   366.7546   6   4   0.2796   0.4783   0.6872   0.2717  -0.4741  -0.3248   0.00    0.0
2026/01/15 03:24:30.000   67.857662595   20.969426130   366.7908   6   4   0.2793   0.4779   0.6864   0.2714  -0.4735  -0.3244   0.00    0.0
2026/01/15 03:25:00.000   67.857662391   20.969425834   366.8245   6   4   0.2791   0.4775   0.6856   0.2711  -0.4728  -0.3239   0.00    0.0
2026/01/15 03:25:30.000   67.857662169   20.969425466   366.8642   6   4   0.2789   0.4771   0.6848   0.2707  -0.4722  -0.3234   0.00    0.0
2026/01/15 03:26:30.000   67.857662395   20.969428108   367.2191   6   4   0.2778   0.4746   0.6803   0.2687  -0.4739  -0.3244   0.00    0.0
2026/01/15 03:27:00.000   67.857662172   20.969427763   367.2586   6   4   0.2776   0.4743   0.6795   0.2684  -0.4733  -0.3240   0.00    0.0
2026/01/15 03:27:30.000   67.857661950   20.969427422   367.2990   6   4   0.2774   0.4739   0.6788   0.2681  -0.4727  -0.3235   0.00    0.0
2026/01/15 03:28:00.000   67.857661736   20.969427126   367.3354   6   4   0.2772   0.4735   0.6781   0.2678  -0.4721  -0.3231   0.00    0.0
2026/01/15 03:28:30.000   67.857661507   20.969426758   367.3767   6   4   0.2769   0.4732   0.6774   0.2675  -0.4715  -0.3227   0.00    0.0
2026/01/15 03:29:00.000   67.857661281   20.969426417   367.4169   6   4   0.2767   0.4729   0.6767   0.2673  -0.4709  -0.3223   0.00    0.0
2026/01/15 03:29:30.000   67.857661066   20.969426133   367.4528   6   4   0.2765   0.4725   0.6760   0.2670  -0.4704  -0.3218   0.00    0.0
2026/01/15 03:30:00.000   67.857660847   20.969425840   367.4895   6   4   0.2763   0.4722   0.6754   0.2667  -0.4698  -0.3214   0.00    0.0
2026/01/15 03:30:30.000   67.857660619   20.969425513   367.5293   6   4   0.2761   0.4718   0.6747   0.2664  -0.4693  -0.3210   0.00    0.0
2026/01/15 03:31:00.000   67.857660394   20.969425210   367.5676   6   4   0.2759   0.4715   0.6740   0.2662  -0.4687  -0.3206   0.00    0.0
2026/01/15 03:31:30.000   67.857660178   20.969424952   367.6027   6   4   0.2756   0.4712   0.6734   0.2659  -0.4682  -0.3202   0.00    0.0
2026/01/15 03:32:00.000   67.857659958   20.969424679   367.6387   6   4   0.2754   0.4709   0.6728   0.2656  -0.4677  -0.3199   0.00    0.0
2026/01/15 03:32:30.000   67.857659741   20.969424419   367.6731   6   4   0.2752   0.4706   0.6721   0.2654  -0.4671  -0.3195   0.00    0.0
2026/01/15 03:33:00.000   67.857659525   20.969424173   367.7072   6   4   0.2750   0.4702   0.6715   0.2651  -0.4666  -0.3191   0.00    0.0
2026/01/15 03:33:30.000   67.857659303   20.969423909   367.7422   6   4   0.2748   0.4699   0.6709   0.2649  -0.4661  -0.3187   0.00    0.0
2026/01/15 03:35:00.000   67.857658736   20.969421846   367.9325   6   4   0.2743   0.4692   0.6694   0.2641  -0.4649  -0.3177   0.00    0.0
2026/01/15 03:43:30.000   67.857658107   20.969421915   369.4113   6   4   0.2695   0.4577   0.6583   0.2546  -0.4649  -0.3160   0.00    0.0
2026/01/15 03:44:00.000   67.857657965   20.969421311   369.4752   6   4   0.2694   0.4574   0.6579   0.2544  -0.4646  -0.3157   0.00    0.0
2026/01/15 03:44:30.000   67.857657824   20.969420696   369.5399   6   4   0.2692   0.4572   0.6575   0.2542  -0.4644  -0.3154   0.00    0.0
2026/01/15 03:45:00.000   67.857657679   20.969420073   369.6051   6   4   0.2690   0.4569   0.6571   0.2541  -0.4641  -0.3150   0.00    0.0
2026/01/15 03:45:30.000   67.857657547   20.969419486   369.6665   6   4   0.2689   0.4567   0.6567   0.2539  -0.4638  -0.3147   0.00    0.0
2026/01/15 03:46:00.000   67.857657415   20.969418899   369.7269   6   4   0.2687   0.4564   0.6562   0.2538  -0.4635  -0.3144   0.00    0.0
2026/01/15 03:46:30.000   67.857657282   20.969418290   369.7883   6   4   0.2685   0.4562   0.6558   0.2537  -0.4632  -0.3141   0.00    0.0
2026/01/15 03:47:00.000   67.857657153   20.969417666   369.8499   6   4   0.2684   0.4559   0.6554   0.2535  -0.4629  -0.3138   0.00    0.0
2026/01/15 03:47:30.000   67.857657028   20.969417084   369.9089   6   4   0.2682   0.4557   0.6550   0.2534  -0.4627  -0.3135   0.00    0.0
2026/01/15 03:48:00.000   67.857656915   20.969416552   369.9639   6   4   0.2681   0.4554   0.6547   0.2533  -0.4624  -0.3132   0.00    0.0
2026/01/15 03:48:30.000   67.857656810   20.969416036   370.0175   6   4   0.2679   0.4551   0.6543   0.2531  -0.4621  -0.3129   0.00    0.0
2026/01/15 03:49:00.000   67.857656707   20.969415502   370.0714   6   4   0.2678   0.4549   0.6539   0.2530  -0.4618  -0.3127   0.00    0.0
2026/01/15 03:49:30.000   67.857656591   20.969414961   370.1280   6   4   0.2676   0.4546   0.6535   0.2529  -0.4615  -0.3124   0.00    0.0
2026/01/15 03:50:00.000   67.857656495   20.969414380   370.1798   6   4   0.2675   0.4543   0.6531   0.2527  -0.4613  -0.3121   0.00    0.0
2026/01/15 03:50:30.000   67.857655056   20.969407585   370.7054   6   5   0.2669   0.4531   0.6507   0.2517  -0.4593  -0.3105   0.00    0.0
2026/01/15 03:51:00.000   67.857654945   20.969407082   370.7491   6   5   0.2667   0.4528   0.6502   0.2516  -0.4590  -0.3102   0.00    0.0
2026/01/15 03:51:30.000   67.857654839   20.969406669   370.7883   6   5   0.2666   0.4525   0.6499   0.2515  -0.4587  -0.3100   0.00    0.0
2026/01/15 03:52:00.000   67.857654745   20.969406227   370.8268   6   5   0.2665   0.4522   0.6495   0.2513  -0.4584  -0.3097   0.00    0.0
2026/01/15 03:52:30.000   67.857654644   20.969405773   370.8667   6   5   0.2663   0.4519   0.6491   0.2512  -0.4581  -0.3095   0.00    0.0
2026/01/15 03:53:00.000   67.857654551   20.969405280   370.9064   6   5   0.2662   0.4516   0.6487   0.2511  -0.4578  -0.3092   0.00    0.0
2026/01/15 03:53:30.000   67.857654459   20.969404858   370.9438   6   5   0.2661   0.4513   0.6484   0.2510  -0.4575  -0.3090   0.00    0.0
2026/01/15 03:54:00.000   67.857654356   20.969404369   370.9855   6   5   0.2659   0.4510   0.6480   0.2509  -0.4572  -0.3087   0.00    0.0
2026/01/15 03:54:30.000   67.857654250   20.969403785   371.0314   6   5   0.2658   0.4507   0.6476   0.2508  -0.4569  -0.3085   0.00    0.0
2026/01/15 03:55:00.000   67.857654137   20.969403275   371.0761   6   5   0.2657   0.4503   0.6473   0.2507  -0.4566  -0.3083   0.00    0.0
2026/01/15 03:55:30.000   67.857655463   20.969412036   371.2511   6   5   0.2640   0.4442   0.6465   0.2464  -0.4581  -0.3092   0.00    0.0
2026/01/15 03:56:00.000   67.857655357   20.969411552   371.2939   6   5   0.2639   0.4439   0.6461   0.2463  -0.4578  -0.3089   0.00    0.0
2026/01/15 03:56:30.000   67.857655270   20.969411013   371.3341   6   5   0.2637   0.4435   0.6458   0.2461  -0.4575  -0.3087   0.00    0.0
2026/01/15 03:57:00.000   67.857655176   20.969410475   371.3751   6   5   0.2636   0.4432   0.6454   0.2460  -0.4572  -0.3085   0.00    0.0
2026/01/15 03:57:30.000   67.857655080   20.969409850   371.4194   6   5   0.2635   0.4428   0.6451   0.2459  -0.4569  -0.3083   0.00    0.0
2026/01/15 03:58:00.000   67.857654973   20.969409154   371.4674   6   5   0.2634   0.4425   0.6447   0.2458  -0.4565  -0.3081   0.00    0.0
2026/01/15 03:58:30.000   67.857654875   20.969408617   371.5096   6   5   0.2633   0.4421   0.6443   0.2457  -0.4562  -0.3078   0.00    0.0
2026/01/15 03:59:00.000   67.857654783   20.969407990   371.5530   6   5   0.2632   0.4417   0.6440   0.2456  -0.4558  -0.3076   0.00    0.0
2026/01/15 03:59:30.000   67.857654687   20.969407375   371.5978   6   5   0.2630   0.4413   0.6436   0.2455  -0.4555  -0.3074   0.00    0.0
2026/01/15 04:00:00.000   67.857654587   20.969406733   371.6437   6   5   0.2629   0.4410   0.6432   0.2453  -0.4551  -0.3072   0.00    0.0
2026/01/15 04:00:30.000   67.857654478   20.969406035   371.6929   6   5   0.2628   0.4406   0.6429   0.2452  -0.4548  -0.3070   0.00    0.0
2026/01/15 04:01:00.000   67.857654371   20.969405316   371.7423   6   5   0.2627   0.4402   0.6425   0.2451  -0.4544  -0.3068   0.00    0.0
2026/01/15 04:01:30.000   67.857654267   20.969404602   371.7899   6   5   0.2626   0.4397   0.6421   0.2450  -0.4540  -0.3066   0.00    0.0
2026/01/15 04:02:00.000   67.857654160   20.969403846   371.8409   6   5   0.2625   0.4393   0.6418   0.2449  -0.4537  -0.3064   0.00    0.0
2026/01/15 04:02:30.000   67.857655152   20.969409960   371.9450   6   5   0.2609   0.4338   0.6413   0.2409  -0.4541  -0.3067   0.00    0.0
2026/01/15 04:03:00.000   67.857655048   20.969409125   371.9987   6   5   0.2608   0.4334   0.6409   0.2408  -0.4537  -0.3065   0.00    0.0
2026/01/15 04:03:30.000   67.857654931   20.969408267   372.0558   6   5   0.2606   0.4329   0.6405   0.2406  -0.4533  -0.3063   0.00    0.0
2026/01/15 04:04:00.000   67.857654810   20.969407421   372.1131   6   5   0.2605   0.4325   0.6401   0.2405  -0.4529  -0.3061   0.00    0.0
2026/01/15 04:04:30.000   67.857654693   20.969406521   372.1710   6   5   0.2604   0.4320   0.6397   0.2404  -0.4525  -0.3059   0.00    0.0
2026/01/15 04:05:00.000   67.857655501   20.969411293   372.2602   6   5   0.2589   0.4271   0.6393   0.2368  -0.4527  -0.3060   0.00    0.0
2026/01/15 04:05:30.000   67.857655398   20.969410401   372.3179   6   5   0.2588   0.4267   0.6389   0.2367  -0.4522  -0.3058   0.00    0.0
2026/01/15 04:06:00.000   67.857655288   20.969409543   372.3751   6   5   0.2587   0.4262   0.6384   0.2365  -0.4518  -0.3056   0.00    0.0
2026/01/15 04:06:30.000   67.857655172   20.969408558   372.4376   6   5   0.2586   0.4257   0.6380   0.2364  -0.4513  -0.3054   0.00    0.0
2026/01/15 04:07:00.000   67.857655054   20.969407539   372.5004   6   5   0.2585   0.4252   0.6376   0.2363  -0.4509  -0.3052   0.00    0.0
2026/01/15 04:07:30.000   67.857654935   20.969406513   372.5648   6   5   0.2584   0.4247   0.6372   0.2361  -0.4504  -0.3050   0.00    0.0
2026/01/15 04:08:00.000   67.857654804   20.969405391   372.6349   6   5   0.2583   0.4242   0.6367   0.2360  -0.4499  -0.3048   0.00    0.0
2026/01/15 04:08:30.000   67.857654677   20.969404302   372.7035   6   5   0.2582   0.4237   0.6363   0.2358  -0.4494  -0.3046   0.00    0.0
2026/01/15 04:09:00.000   67.857654553   20.969403254   372.7700   6   5   0.2581   0.4232   0.6358   0.2357  -0.4489  -0.3044   0.00    0.0
2026/01/15 04:09:30.000   67.857654424   20.969402080   372.8411   6   5   0.2580   0.4226   0.6354   0.2355  -0.4484  -0.3041   0.00    0.0
2026/01/15 04:10:00.000   67.857654298   20.969400972   372.9099   6   5   0.2579   0.4221   0.6349   0.2354  -0.4479  -0.3039   0.00    0.0
2026/01/15 04:10:30.000   67.857654165   20.969399703   372.9848   6   5   0.2578   0.4215   0.6344   0.2352  -0.4474  -0.3037   0.00    0.0
2026/01/15 04:11:00.000   67.857654035   20.969398541   373.0557   6   5   0.2576   0.4210   0.6340   0.2351  -0.4469  -0.3035   0.00    0.0
2026/01/15 04:11:30.000   67.857653897   20.969397287   373.1301   6   5   0.2575   0.4204   0.6335   0.2349  -0.4463  -0.3032   0.00    0.0
2026/01/15 04:12:00.000   67.857653767   20.969396057   373.2028   6   5   0.2574   0.4198   0.6330   0.2347  -0.4458  -0.3030   0.00    0.0
2026/01/15 04:12:30.000   67.857653620   20.969394695   373.2827   6   5   0.2573   0.4192   0.6325   0.2346  -0.4452  -0.3028   0.00    0.0
2026/01/15 04:13:00.000   67.857653480   20.969393425   373.3600   6   5   0.2572   0.4186   0.6320   0.2344  -0.4446  -0.3025   0.00    0.0
2026/01/15 04:13:30.000   67.857653336   20.969392075   373.4409   6   5   0.2571   0.4180   0.6314   0.2342  -0.4440  -0.3023   0.00    0.0
2026/01/15 04:14:00.000   67.857653195   20.969390690   373.5229   6   5   0.2570   0.4174   0.6309   0.2340  -0.4434  -0.3020   0.00    0.0
2026/01/15 04:14:30.000   67.857653047   20.969389279   373.6069   6   5   0.2569   0.4167   0.6304   0.2338  -0.4428  -0.3018   0.00    0.0
2026/01/15 04:15:00.000   67.857652896   20.969387789   373.6935   6   5   0.2568   0.4161   0.6298   0.2336  -0.4422  -0.3015   0.00    0.0
2026/01/15 04:15:30.000   67.857652739   20.969386284   373.7827   6   5   0.2567   0.4154   0.6293   0.2334  -0.4415  -0.3013   0.00    0.0
2026/01/15 04:16:00.000   67.857652576   20.969384776   373.8725   6   5   0.2566   0.4148   0.6287   0.2332  -0.4409  -0.3010   0.00    0.0
2026/01/15 04:16:30.000   67.857653120   20.969387261   373.9548   6   5   0.2551   0.4101   0.6281   0.2298  -0.4400  -0.3006   0.00    0.0
2026/01/15 04:17:00.000   67.857652966   20.969385728   374.0453   6   5   0.2550   0.4094   0.6275   0.2295  -0.4394  -0.3004   0.00    0.0
2026/01/15 04:17:30.000   67.857652809   20.969384204   374.1361   6   5   0.2549   0.4088   0.6269   0.2293  -0.4387  -0.3001   0.00    0.0
2026/01/15 04:18:00.000   67.857652641   20.969382587   374.2319   6   5   0.2547   0.4081   0.6263   0.2291  -0.4380  -0.2999   0.00    0.0
2026/01/15 04:18:30.000   67.857652474   20.969380898   374.3299   6   5   0.2546   0.4074   0.6257   0.2289  -0.4373  -0.2996   0.00    0.0
2026/01/15 04:19:00.000   67.857652361   20.969379613   374.4022   6   4   0.2546   0.4068   0.6253   0.2288  -0.4368  -0.2994   0.00    0.0
2026/01/15 04:19:30.000   67.857652245   20.969378151   374.4814   6   4   0.2545   0.4062   0.6249   0.2287  -0.4363  -0.2993   0.00    0.0
2026/01/15 04:20:00.000   67.857652130   20.969376825   374.5563   6   4   0.2544   0.4056   0.6245   0.2285  -0.4358  -0.2991   0.00    0.0
2026/01/15 04:20:30.000   67.857652009   20.969375413   374.6354   6   4   0.2543   0.4050   0.6241   0.2284  -0.4352  -0.2990   0.00    0.0
2026/01/15 04:21:00.000   67.857651877   20.969373922   374.7182   6   4   0.2543   0.4044   0.6237   0.2283  -0.4346  -0.2988   0.00    0.0
2026/01/15 04:21:30.000   67.857651742   20.969372439   374.8014   6   4   0.2542   0.4037   0.6232   0.2281  -0.4341  -0.2986   0.00    0.0
2026/01/15 04:22:00.000   67.857652220   20.969374271   374.8805   6   4   0.2530   0.4001   0.6228   0.2254  -0.4333  -0.2984   0.00    0.0
2026/01/15 04:22:30.000   67.857652639   20.969375787   374.9604   6   4   0.2519   0.3966   0.6223   0.2228  -0.4326  -0.2981   0.00    0.0
2026/01/15 04:23:00.000   67.857653019   20.969377007   375.0430   6   4   0.2509   0.3934   0.6218   0.2205  -0.4318  -0.2978   0.00    0.0
2026/01/15 04:23:30.000   67.857652878   20.969375416   375.1345   6   4   0.2508   0.3928   0.6213   0.2203  -0.4312  -0.2976   0.00    0.0
2026/01/15 04:24:00.000   67.857652733   20.969373731   375.2308   6   4   0.2507   0.3921   0.6208   0.2202  -0.4306  -0.2974   0.00    0.0
2026/01/15 04:24:30.000   67.857652587   20.969371970   375.3295   6   4   0.2507   0.3914   0.6203   0.2200  -0.4300  -0.2973   0.00    0.0
2026/01/15 04:25:00.000   67.857652437   20.969370312   375.4255   6   4   0.2506   0.3908   0.6198   0.2198  -0.4293  -0.2971   0.00    0.0
2026/01/15 04:25:30.000   67.857652289   20.969368642   375.5225   6   4   0.2505   0.3901   0.6192   0.2196  -0.4287  -0.2969   0.00    0.0
2026/01/15 04:26:00.000   67.857652132   20.969366878   375.6239   6   4   0.2504   0.3894   0.6187   0.2195  -0.4280  -0.2967   0.00    0.0
2026/01/15 04:26:30.000   67.857651972   20.969365101   375.7257   6   4   0.2503   0.3887   0.6181   0.2193  -0.4273  -0.2964   0.00    0.0
2026/01/15 04:27:00.000   67.857652435   20.969365942   375.8080   6   5   0.2491   0.3856   0.6175   0.2168  -0.4263  -0.2959   0.00    0.0
2026/01/15 04:27:30.000   67.857652861   20.969366605   375.8915   6   5   0.2480   0.3826   0.6168   0.2146  -0.4253  -0.2955   0.00    0.0
2026/01/15 04:28:00.000   67.857652807   20.969364876   375.9867   6   5   0.2478   0.3818   0.6162   0.2143  -0.4246  -0.2952   0.00    0.0
2026/01/15 04:28:30.000   67.857652723   20.969362987   376.0887   6   5   0.2477   0.3810   0.6156   0.2141  -0.4239  -0.2949   0.00    0.0
2026/01/15 04:29:00.000   67.857652648   20.969361048   376.1901   6   5   0.2475   0.3802   0.6150   0.2139  -0.4232  -0.2947   0.00    0.0
2026/01/15 04:29:30.000   67.857652552   20.969359082   376.2949   6   5   0.2474   0.3795   0.6143   0.2136  -0.4225  -0.2944   0.00    0.0
2026/01/15 04:30:00.000   67.857652459   20.969356995   376.4031   6   5   0.2472   0.3787   0.6137   0.2134  -0.4217  -0.2941   0.00    0.0
2026/01/15 04:30:30.000   67.857652351   20.969354889   376.5143   6   5   0.2471   0.3779   0.6131   0.2132  -0.4210  -0.2938   0.00    0.0
2026/01/15 04:31:00.000   67.857652246   20.969352747   376.6264   6   5   0.2469   0.3772   0.6124   0.2130  -0.4202  -0.2936   0.00    0.0
2026/01/15 04:31:30.000   67.857652150   20.969350621   376.7371   6   5   0.2468   0.3764   0.6117   0.2128  -0.4195  -0.2933   0.00    0.0
2026/01/15 04:32:00.000   67.857652041   20.969348437   376.8523   6   5   0.2466   0.3756   0.6110   0.2126  -0.4187  -0.2930   0.00    0.0
2026/01/15 04:32:30.000   67.857651928   20.969346272   376.9673   6   5   0.2465   0.3748   0.6104   0.2124  -0.4179  -0.2927   0.00    0.0
2026/01/15 04:33:00.000   67.857651817   20.969344114   377.0820   6   5   0.2464   0.3740   0.6097   0.2122  -0.4171  -0.2924   0.00    0.0
2026/01/15 04:33:30.000   67.857651709   20.969341867   377.2002   6   5   0.2462   0.3732   0.6090   0.2120  -0.4163  -0.2921   0.00    0.0
2026/01/15 04:34:00.000   67.857652151   20.969342240   377.3007   6   5   0.2451   0.3703   0.6082   0.2098  -0.4151  -0.2916   0.00    0.0
2026/01/15 04:34:30.000   67.857652040   20.969340012   377.4203   6   5   0.2450   0.3695   0.6075   0.2095  -0.4143  -0.2913   0.00    0.0
2026/01/15 04:35:00.000   67.857651912   20.969337682   377.5461   6   5   0.2448   0.3687   0.6068   0.2093  -0.4135  -0.2910   0.00    0.0
2026/01/15 04:35:30.000   67.857651795   20.969335408   377.6685   6   5   0.2447   0.3678   0.6060   0.2091  -0.4126  -0.2907   0.00    0.0
2026/01/15 04:36:00.000   67.857651666   20.969333039   377.7969   6   5   0.2445   0.3670   0.6053   0.2089  -0.4118  -0.2904   0.00    0.0
2026/01/15 04:36:30.000   67.857651537   20.969330600   377.9279   6   5   0.2444   0.3661   0.6045   0.2086  -0.4109  -0.2901   0.00    0.0
2026/01/15 04:37:00.000   67.857651403   20.969328186   378.0581   6   5   0.2443   0.3653   0.6038   0.2084  -0.4100  -0.2898   0.00    0.0
2026/01/15 04:37:30.000   67.857651265   20.969325623   378.1953   6   5   0.2441   0.3644   0.6030   0.2082  -0.4091  -0.2895   0.00    0.0
2026/01/15 04:38:00.000   67.857651120   20.969323159   378.3298   6   5   0.2440   0.3636   0.6022   0.2079  -0.4083  -0.2892   0.00    0.0
2026/01/15 04:38:30.000   67.857650975   20.969320656   378.4664   6   5   0.2438   0.3627   0.6015   0.2077  -0.4074  -0.2889   0.00    0.0
2026/01/15 04:39:00.000   67.857650829   20.969318197   378.6015   6   5   0.2437   0.3618   0.6007   0.2074  -0.4065  -0.2886   0.00    0.0
2026/01/15 04:39:30.000   67.857650678   20.969315626   378.7415   6   5   0.2435   0.3609   0.5999   0.2072  -0.4055  -0.2882   0.00    0.0
2026/01/15 04:40:00.000   67.857650531   20.969313069   378.8811   6   5   0.2434   0.3600   0.5991   0.2069  -0.4046  -0.2879   0.00    0.0
2026/01/15 04:40:30.000   67.857650387   20.969310500   379.0206   6   5   0.2433   0.3591   0.5983   0.2067  -0.4037  -0.2876   0.00    0.0
2026/01/15 04:41:00.000   67.857650237   20.969307890   379.1631   6   5   0.2431   0.3582   0.5974   0.2064  -0.4028  -0.2873   0.00    0.0
2026/01/15 04:41:30.000   67.857650081   20.969305345   379.3040   6   5   0.2430   0.3573   0.5966   0.2062  -0.4018  -0.2870   0.00    0.0
2026/01/15 04:42:00.000   67.857649930   20.969302690   379.4488   6   5   0.2428   0.3564   0.5958   0.2059  -0.4009  -0.2866   0.00    0.0
2026/01/15 04:42:30.000   67.857650397   20.969302761   379.5740   6   5   0.2418   0.3538   0.5949   0.2039  -0.3996  -0.2861   0.00    0.0
2026/01/15 04:43:00.000   67.857650246   20.969300143   379.7189   6   5   0.2417   0.3529   0.5941   0.2036  -0.3987  -0.2857   0.00    0.0
2026/01/15 04:43:30.000   67.857650087   20.969297495   379.8662   6   5   0.2415   0.3520   0.5932   0.2034  -0.3977  -0.2854   0.00    0.0
2026/01/15 04:44:00.000   67.857649922   20.969294818   380.0156   6   5   0.2414   0.3511   0.5924   0.2031  -0.3967  -0.2851   0.00    0.0
2026/01/15 04:44:30.000   67.857649754   20.969292081   380.1679   6   5   0.2412   0.3501   0.5915   0.2028  -0.3957  -0.2848   0.00    0.0
2026/01/15 04:45:00.000   67.857649588   20.969289415   380.3180   6   5   0.2411   0.3492   0.5907   0.2025  -0.3947  -0.2844   0.00    0.0
2026/01/15 04:47:30.000   67.857649306   20.969288334   380.7434   6   4   0.2396   0.3464   0.5882   0.2011  -0.3930  -0.2829   0.00    0.0
2026/01/15 04:51:00.000   67.857647460   20.969284652   381.3452   6   4   0.2378   0.3445   0.5841   0.2004  -0.3909  -0.2798   0.00    0.0
2026/01/15 04:51:30.000   67.857646684   20.969282724   381.5818   6   4   0.2370   0.3438   0.5820   0.1997  -0.3898  -0.2782   0.00    0.0
2026/01/15 04:52:00.000   67.857645981   20.969280953   381.7986   6   4   0.2363   0.3432   0.5801   0.1990  -0.3887  -0.2767   0.00    0.0
2026/01/15 04:52:30.000   67.857645305   20.969279295   382.0042   6   4   0.2357   0.3426   0.5783   0.1984  -0.3877  -0.2754   0.00    0.0
2026/01/15 04:53:00.000   67.857644693   20.969277735   382.1938   6   4   0.2351   0.3420   0.5766   0.1979  -0.3868  -0.2740   0.00    0.0
2026/01/15 04:53:30.000   67.857644104   20.969276318   382.3729   6   4   0.2344   0.3415   0.5750   0.1973  -0.3859  -0.2728   0.00    0.0
2026/01/15 04:54:00.000   67.857643554   20.969274975   382.5414   6   4   0.2339   0.3409   0.5735   0.1968  -0.3850  -0.2716   0.00    0.0
2026/01/15 04:54:30.000   67.857643062   20.969273738   382.6945   6   4   0.2333   0.3404   0.5720   0.1964  -0.3842  -0.2704   0.00    0.0
2026/01/15 04:55:00.000   67.857642573   20.969272636   382.8412   6   4   0.2328   0.3399   0.5706   0.1959  -0.3834  -0.2693   0.00    0.0
2026/01/15 04:55:30.000   67.857642143   20.969271559   382.9740   6   4   0.2323   0.3394   0.5692   0.1955  -0.3826  -0.2682   0.00    0.0
2026/01/15 04:56:00.000   67.857641705   20.969270436   383.1101   6   4   0.2318   0.3390   0.5679   0.1951  -0.3819  -0.2672   0.00    0.0
2026/01/15 04:56:30.000   67.857641304   20.969269519   383.2312   6   4   0.2313   0.3385   0.5667   0.1947  -0.3812  -0.2662   0.00    0.0
2026/01/15 04:57:00.000   67.857640938   20.969268651   383.3432   6   4   0.2308   0.3380   0.5655   0.1943  -0.3805  -0.2653   0.00    0.0
2026/01/15 04:57:30.000   67.857640592   20.969267848   383.4487   6   4   0.2304   0.3376   0.5643   0.1940  -0.3799  -0.2644   0.00    0.0
2026/01/15 04:58:00.000   67.857639877   20.969264748   383.7151   6   6   0.2297   0.3362   0.5616   0.1929  -0.3779  -0.2626   0.00    0.0
2026/01/15 04:58:30.000   67.857639213   20.969261819   383.9646   6   6   0.2290   0.3349   0.5590   0.1919  -0.3759  -0.2609   0.00    0.0
2026/01/15 04:59:00.000   67.857638571   20.969258984   384.2063   6   6   0.2283   0.3336   0.5564   0.1910  -0.3740  -0.2592   0.00    0.0
2026/01/15 04:59:30.000   67.857637967   20.969256276   384.4356   6   6   0.2277   0.3323   0.5539   0.1900  -0.3721  -0.2576   0.00    0.0
2026/01/15 05:00:00.000   67.857637381   20.969253690   384.6563   6   6   0.2271   0.3311   0.5515   0.1891  -0.3703  -0.2560   0.00    0.0
2026/01/15 05:00:30.000   67.857636826   20.969251146   384.8691   6   6   0.2265   0.3298   0.5491   0.1882  -0.3685  -0.2545   0.00    0.0
2026/01/15 05:01:00.000   67.857636309   20.969248836   385.0654   6   6   0.2259   0.3286   0.5468   0.1874  -0.3668  -0.2530   0.00    0.0
2026/01/15 05:01:30.000   67.857635801   20.969246602   385.2565   6   6   0.2253   0.3274   0.5446   0.1866  -0.3651  -0.2516   0.00    0.0
2026/01/15 05:02:00.000   67.857635343   20.969244369   385.4384   6   6   0.2248   0.3263   0.5424   0.1858  -0.3634  -0.2502   0.00    0.0
2026/01/15 05:02:30.000   67.857634911   20.969242296   385.6081   6   6   0.2243   0.3251   0.5403   0.1850  -0.3618  -0.2488   0.00    0.0
2026/01/15 05:03:00.000   67.857634473   20.969240140   385.7825   6   6   0.2238   0.3240   0.5382   0.1843  -0.3602  -0.2475   0.00    0.0
2026/01/15 05:03:30.000   67.857634044   20.969238049   385.9523   6   6   0.2233   0.3229   0.5362   0.1835  -0.3586  -0.2462   0.00    0.0
2026/01/15 05:04:00.000   67.857633650   20.969236062   386.1109   6   6   0.2228   0.3218   0.5342   0.1828  -0.3571  -0.2449   0.00    0.0
2026/01/15 05:04:30.000   67.857633253   20.969234032   386.2714   6   6   0.2223   0.3207   0.5323   0.1821  -0.3556  -0.2437   0.00    0.0
2026/01/15 05:05:00.000   67.857632876   20.969232114   386.4236   6   6   0.2218   0.3197   0.5304   0.1815  -0.3541  -0.2425   0.00    0.0
2026/01/15 05:05:30.000   67.857632539   20.969230311   386.5629   6   6   0.2214   0.3186   0.5285   0.1808  -0.3527  -0.2413   0.00    0.0
2026/01/15 05:06:00.000   67.857632195   20.969228538   386.7021   6   6   0.2210   0.3176   0.5267   0.1802  -0.3513  -0.2402   0.00    0.0
2026/01/15 05:06:30.000   67.857631870   20.969226760   386.8371   6   6   0.2205   0.3166   0.5249   0.1796  -0.3499  -0.2391   0.00    0.0
2026/01/15 05:07:00.000   67.857631552   20.969224956   386.9722   6   6   0.2201   0.3155   0.5232   0.1790  -0.3485  -0.2380   0.00    0.0
2026/01/15 05:07:30.000   67.857631023   20.969222576   387.1652   6   7   0.2196   0.3145   0.5213   0.1783  -0.3470  -0.2368   0.00    0.0
2026/01/15 05:08:00.000   67.857630531   20.969220301   387.3463   6   7   0.2192   0.3134   0.5194   0.1776  -0.3456  -0.2356   0.00    0.0
2026/01/15 05:08:30.000   67.857630252   20.969218658   387.4663   6   6   0.2188   0.3125   0.5178   0.1771  -0.3443  -0.2345   0.00    0.0
2026/01/15 05:09:00.000   67.857629791   20.969216543   387.6336   6   7   0.2183   0.3115   0.5160   0.1764  -0.3429  -0.2334   0.00    0.0
2026/01/15 05:09:30.000   67.857629545   20.969214949   387.7451   6   6   0.2180   0.3105   0.5144   0.1759  -0.3416  -0.2324   0.00    0.0
2026/01/15 05:10:00.000   67.857629291   20.969213389   387.8565   6   6   0.2176   0.3096   0.5129   0.1754  -0.3404  -0.2315   0.00    0.0
2026/01/15 05:10:30.000   67.857628836   20.969211287   388.0214   6   7   0.2172   0.3086   0.5112   0.1748  -0.3391  -0.2304   0.00    0.0
2026/01/15 05:11:00.000   67.857628422   20.969209323   388.1727   6   7   0.2168   0.3076   0.5096   0.1742  -0.3378  -0.2293   0.00    0.0
2026/01/15 05:11:30.000   67.857628196   20.969207812   388.2749   6   6   0.2165   0.3067   0.5081   0.1738  -0.3366  -0.2285   0.00    0.0
2026/01/15 05:12:00.000   67.857627975   20.969206260   388.3784   6   6   0.2162   0.3058   0.5067   0.1733  -0.3354  -0.2276   0.00    0.0
2026/01/15 05:12:30.000   67.857627584   20.969204307   388.5227   6   7   0.2158   0.3049   0.5052   0.1728  -0.3342  -0.2266   0.00    0.0
2026/01/15 05:13:00.000   67.857627188   20.969202295   388.6704   6   7   0.2154   0.3040   0.5036   0.1723  -0.3330  -0.2256   0.00    0.0
2026/01/15 05:13:30.000   67.857626804   20.969200421   388.8100   6   7   0.2150   0.3031   0.5022   0.1717  -0.3318  -0.2247   0.00    0.0
2026/01/15 05:14:00.000   67.857626618   20.969198975   388.9009   6   6   0.2147   0.3022   0.5008   0.1713  -0.3307  -0.2239   0.00    0.0
2026/01/15 05:14:30.000   67.857626395   20.969197105   389.0235   6   7   0.2145   0.3012   0.4993   0.1709  -0.3294  -0.2231   0.00    0.0
2026/01/15 05:15:00.000   67.857625997   20.969194838   389.1880   6   8   0.2141   0.3002   0.4977   0.1704  -0.3280  -0.2221   0.00    0.0
2026/01/15 05:15:30.000   67.857625606   20.969192571   389.3493   6   8   0.2138   0.2992   0.4961   0.1698  -0.3267  -0.2212   0.00    0.0
2026/01/15 05:16:00.000   67.857625411   20.969190769   389.4624   6   7   0.2135   0.2982   0.4946   0.1694  -0.3255  -0.2204   0.00    0.0
2026/01/15 05:16:30.000   67.857625223   20.969189021   389.5717   6   7   0.2132   0.2973   0.4932   0.1690  -0.3242  -0.2197   0.00    0.0
2026/01/15 05:17:00.000   67.857625041   20.969187375   389.6750   6   7   0.2130   0.2963   0.4918   0.1686  -0.3230  -0.2189   0.00    0.0
2026/01/15 05:17:30.000   67.857624866   20.969185612   389.7823   6   7   0.2127   0.2954   0.4904   0.1682  -0.3219  -0.2182   0.00    0.0
2026/01/15 05:18:00.000   67.857624527   20.969183896   389.8997   6   8   0.2124   0.2943   0.4888   0.1678  -0.3205  -0.2174   0.00    0.0
2026/01/15 05:18:30.000   67.857624378   20.969182238   389.9961   6   7   0.2122   0.2934   0.4875   0.1674  -0.3193  -0.2167   0.00    0.0
2026/01/15 05:19:00.000   67.857624056   20.969180644   390.1039   6   8   0.2119   0.2924   0.4859   0.1669  -0.3180  -0.2158   0.00    0.0
2026/01/15 05:19:30.000   67.857623902   20.969178959   390.2018   6   7   0.2116   0.2915   0.4846   0.1666  -0.3168  -0.2152   0.00    0.0
2026/01/15 05:20:00.000   67.857623751   20.969177365   390.2953   6   7   0.2114   0.2906   0.4834   0.1662  -0.3157  -0.2145   0.00    0.0
2026/01/15 05:20:30.000   67.857623591   20.969175609   390.3966   6   7   0.2112   0.2897   0.4821   0.1659  -0.3146  -0.2139   0.00    0.0
2026/01/15 05:21:00.000   67.857623453   20.969173853   390.4930   6   7   0.2110   0.2888   0.4809   0.1655  -0.3136  -0.2133   0.00    0.0
2026/01/15 05:21:30.000   67.857623307   20.969172178   390.5882   6   7   0.2108   0.2880   0.4797   0.1652  -0.3125  -0.2127   0.00    0.0
2026/01/15 05:22:00.000   67.857623165   20.969170512   390.6819   6   7   0.2106   0.2871   0.4786   0.1649  -0.3115  -0.2121   0.00    0.0
2026/01/15 05:22:30.000   67.857623690   20.969172776   390.8103   6   4   0.2102   0.2863   0.4779   0.1641  -0.3112  -0.2120   0.00    0.0
2026/01/15 05:23:00.000   67.857623557   20.969171115   390.9014   6   7   0.2100   0.2855   0.4768   0.1638  -0.3102  -0.2114   0.00    0.0
2026/01/15 05:23:30.000   67.857623433   20.969169493   390.9879   6   7   0.2098   0.2847   0.4756   0.1635  -0.3092  -0.2109   0.00    0.0
2026/01/15 05:24:00.000   67.857623318   20.969167934   391.0696   6   7   0.2096   0.2838   0.4745   0.1632  -0.3082  -0.2103   0.00    0.0
2026/01/15 05:24:30.000   67.857623208   20.969166791   391.1417   6   6   0.2094   0.2832   0.4735   0.1629  -0.3073  -0.2098   0.00    0.0
2026/01/15 05:25:00.000   67.857623096   20.969165628   391.2156   6   6   0.2092   0.2825   0.4724   0.1626  -0.3064  -0.2092   0.00    0.0
2026/01/15 05:25:30.000   67.857622978   20.969164381   391.2942   6   6   0.2091   0.2819   0.4714   0.1624  -0.3055  -0.2087   0.00    0.0
2026/01/15 05:26:00.000   67.857622847   20.969163192   391.3724   6   6   0.2089   0.2813   0.4704   0.1621  -0.3046  -0.2082   0.00    0.0
2026/01/15 05:26:30.000   67.857623345   20.969165354   391.4806   6   4   0.2085   0.2805   0.4698   0.1614  -0.3044  -0.2082   0.00    0.0
2026/01/15 05:27:00.000   67.857623221   20.969164175   391.5571   6   6   0.2084   0.2799   0.4688   0.1611  -0.3035  -0.2077   0.00    0.0
2026/01/15 05:27:30.000   67.857623114   20.969162960   391.6316   6   6   0.2082   0.2793   0.4679   0.1609  -0.3027  -0.2072   0.00    0.0
2026/01/15 05:28:00.000   67.857623009   20.969161774   391.7041   6   6   0.2080   0.2786   0.4669   0.1606  -0.3018  -0.2067   0.00    0.0
2026/01/15 05:28:30.000   67.857622908   20.969160629   391.7736   6   6   0.2079   0.2780   0.4660   0.1604  -0.3010  -0.2063   0.00    0.0
2026/01/15 05:29:00.000   67.857622808   20.969159495   391.8421   6   6   0.2077   0.2774   0.4650   0.1601  -0.3002  -0.2058   0.00    0.0
2026/01/15 05:29:30.000   67.857622721   20.969158346   391.9087   6   6   0.2076   0.2768   0.4641   0.1599  -0.2994  -0.2053   0.00    0.0
2026/01/15 05:30:00.000   67.857622619   20.969157113   391.9817   6   6   0.2074   0.2762   0.4632   0.1597  -0.2985  -0.2049   0.00    0.0
2026/01/15 05:30:30.000   67.857622528   20.969155934   392.0495   6   6   0.2073   0.2756   0.4623   0.1594  -0.2977  -0.2045   0.00    0.0
2026/01/15 05:31:00.000   67.857622433   20.969154706   392.1201   6   6   0.2071   0.2750   0.4614   0.1592  -0.2969  -0.2040   0.00    0.0
2026/01/15 05:31:30.000   67.857622332   20.969153471   392.1920   6   6   0.2070   0.2744   0.4606   0.1590  -0.2962  -0.2036   0.00    0.0
2026/01/15 05:32:00.000   67.857622811   20.969155570   392.2853   6   4   0.2066   0.2737   0.4600   0.1583  -0.2959  -0.2036   0.00    0.0
2026/01/15 05:32:30.000   67.857622703   20.969154339   392.3583   6   6   0.2065   0.2731   0.4592   0.1581  -0.2952  -0.2032   0.00    0.0
2026/01/15 05:33:00.000   67.857622610   20.969153135   392.4268   6   6   0.2063   0.2725   0.4583   0.1579  -0.2944  -0.2028   0.00    0.0
2026/01/15 05:33:30.000   67.857622517   20.969151889   392.4973   6   6   0.2062   0.2719   0.4575   0.1577  -0.2936  -0.2024   0.00    0.0
2026/01/15 05:34:00.000   67.857622419   20.969150669   392.5673   6   6   0.2061   0.2713   0.4567   0.1575  -0.2929  -0.2020   0.00    0.0
2026/01/15 05:34:30.000   67.857622905   20.969152817   392.6464   6   4   0.2057   0.2706   0.4562   0.1568  -0.2926  -0.2019   0.00    0.0
2026/01/15 05:35:00.000   67.857622683   20.969151630   392.7280   6   7   0.2055   0.2700   0.4553   0.1566  -0.2919  -0.2015   0.00    0.0
2026/01/15 05:35:30.000   67.857622609   20.969150580   392.7844   6   5   0.2054   0.2695   0.4547   0.1564  -0.2913  -0.2012   0.00    0.0
2026/01/15 05:36:00.000   67.857622540   20.969149468   392.8425   6   5   0.2053   0.2690   0.4541   0.1563  -0.2907  -0.2009   0.00    0.0
2026/01/15 05:36:30.000   67.857622458   20.969148308   392.9053   6   5   0.2052   0.2686   0.4535   0.1562  -0.2901  -0.2007   0.00    0.0
2026/01/15 05:37:00.000   67.857622376   20.969147108   392.9697   6   5   0.2051   0.2681   0.4529   0.1561  -0.2896  -0.2004   0.00    0.0
2026/01/15 05:37:30.000   67.857622295   20.969145939   393.0326   6   5   0.2050   0.2676   0.4524   0.1559  -0.2890  -0.2001   0.00    0.0
2026/01/15 05:38:00.000   67.857622210   20.969144696   393.0992   6   5   0.2049   0.2671   0.4518   0.1558  -0.2885  -0.1999   0.00    0.0
2026/01/15 05:38:30.000   67.857622125   20.969143459   393.1652   6   5   0.2048   0.2667   0.4512   0.1557  -0.2879  -0.1996   0.00    0.0
2026/01/15 05:39:00.000   67.857622039   20.969142215   393.2315   6   5   0.2047   0.2662   0.4507   0.1555  -0.2873  -0.1993   0.00    0.0
2026/01/15 05:39:30.000   67.857620774   20.969136747   393.6270   6   6   0.2024   0.2626   0.4438   0.1515  -0.2815  -0.1934   0.00    0.0
2026/01/15 05:40:00.000   67.857619581   20.969131612   393.9991   6   6   0.2003   0.2593   0.4374   0.1476  -0.2759  -0.1878   0.00    0.0
2026/01/15 05:40:30.000   67.857618512   20.969126856   394.3383   6   6   0.1983   0.2561   0.4314   0.1440  -0.2707  -0.1824   0.00    0.0
2026/01/15 05:41:00.000   67.857617600   20.969122660   394.6352   6   6   0.1964   0.2531   0.4257   0.1406  -0.2657  -0.1772   0.00    0.0
2026/01/15 05:41:30.000   67.857616744   20.969118678   394.9153   6   6   0.1947   0.2503   0.4204   0.1373  -0.2610  -0.1723   0.00    0.0
2026/01/15 05:42:00.000   67.857615987   20.969114972   395.1705   6   6   0.1930   0.2477   0.4153   0.1342  -0.2565  -0.1677   0.00    0.0
2026/01/15 05:42:30.000   67.857615090   20.969111803   395.4093   6   7   0.1914   0.2451   0.4103   0.1312  -0.2521  -0.1630   0.00    0.0
2026/01/15 05:43:00.000   67.857614269   20.969108854   395.6297   6   7   0.1898   0.2426   0.4055   0.1284  -0.2478  -0.1585   0.00    0.0
2026/01/15 05:43:30.000   67.857613685   20.969105834   395.8345   6   5   0.1885   0.2405   0.4015   0.1258  -0.2442  -0.1545   0.00    0.0
2026/01/15 05:44:00.000   67.857612996   20.969103380   396.0161   6   6   0.1871   0.2383   0.3974   0.1233  -0.2406  -0.1505   0.00    0.0
2026/01/15 05:44:30.000   67.857612272   20.969100910   396.2038   6   7   0.1858   0.2362   0.3933   0.1208  -0.2370  -0.1464   0.00    0.0
2026/01/15 05:45:00.000   67.857611588   20.969098472   396.3849   6   7   0.1845   0.2342   0.3893   0.1184  -0.2334  -0.1425   0.00    0.0
2026/01/15 05:45:30.000   67.857610974   20.969096293   396.5452   6   7   0.1833   0.2323   0.3856   0.1161  -0.2301  -0.1386   0.00    0.0
2026/01/15 05:46:00.000   67.857610394   20.969094303   396.6921   6   7   0.1821   0.2304   0.3820   0.1139  -0.2268  -0.1349   0.00    0.0
2026/01/15 05:46:30.000   67.857609877   20.969092483   396.8241   6   7   0.1810   0.2287   0.3786   0.1118  -0.2237  -0.1312   0.00    0.0
2026/01/15 05:47:00.000   67.857609376   20.969090729   396.9510   6   7   0.1799   0.2270   0.3753   0.1098  -0.2207  -0.1277   0.00    0.0
2026/01/15 05:47:30.000   67.857608919   20.969089073   397.0688   6   7   0.1789   0.2253   0.3721   0.1078  -0.2179  -0.1243   0.00    0.0
2026/01/15 05:48:30.000   67.857609016   20.969089221   397.3351   6   7   0.1775   0.2234   0.3684   0.1053  -0.2154  -0.1216   0.00    0.0
2026/01/15 05:49:00.000   67.857608620   20.969087805   397.4348   6   7   0.1766   0.2219   0.3654   0.1035  -0.2127  -0.1183   0.00    0.0
2026/01/15 05:49:30.000   67.857608244   20.969086541   397.5248   6   7   0.1757   0.2204   0.3626   0.1018  -0.2101  -0.1151   0.00    0.0
2026/01/15 05:50:00.000   67.857607908   20.969085370   397.6059   6   7   0.1748   0.2190   0.3598   0.1001  -0.2076  -0.1120   0.00    0.0
