% program   : RTKPOST-EX 2.5.0
% inp file  : C:\PPP_PROJECT\New_Data\obs\RNXDATA\KIRU00SWE_R_20260150000_01D_30S_MO.rnx
% inp file  : C:\PPP_PROJECT\New_Data\nav\BRDC00IGS_R_20260150000_01D_MN.rnx
% inp file  : C:\PPP_PROJECT\New_Data\DATA_FINAL_ANT_EXTRA\COD0MGXFIN_20260150000_01D_05M_ORB.SP3
% inp file  : C:\PPP_PROJECT\New_Data\DATA_FINAL_ANT_EXTRA\COD0MGXFIN_20260150000_01D_30S_CLK.CLK
% inp file  : C:\PPP_PROJECT\New_Data\DATA_FINAL_ANT_EXTRA\COD0MGXFIN_20260150000_01D_01D_OSB.BIA
% obs start : 2026/01/15 00:00:00.0 GPST (week2401 345600.0s)
% obs end   : 2026/01/15 23:59:30.0 GPST (week2401 431970.0s)
% pos mode  : PPP Static
% freqs     : L1+L2/E5b
% solution  : Forward
% elev mask : 15.0 deg
% dynamics  : on
% tidecorr  :
% ionos opt : Iono-Free LC
% tropo opt : Saastamoinen
% ephemeris : Precise
% navi sys  : GPS Galileo BDS
% antenna1  :                       ( 0.0000  0.0000  0.0000)
%
% (lat/lon/height=WGS84/ellipsoidal,Q=1:fix,2:float,3:sbas,4:dgps,5:single,6:ppp,ns=# of satellites)
%  GPST                  latitude(deg) longitude(deg)  height(m)   Q  ns   sdn(m)   sde(m)   sdu(m)  sdne(m)  sdeu(m)  sdun(m) age(s)  ratio
2026/01/15 00:00:00.000   67.857349657   20.968465712   392.0997   6   9   2.9458   2.7869   7.0697  -0.7086  -1.2424   2.5553   0.00    0.0
2026/01/15 00:46:30.000   67.857349898   20.968457598   391.6784   6   4   0.3120   0.2698   0.7581  -0.0932  -0.2329   0.3041   0.00    0.0
2026/01/15 00:47:00.000   67.857349915   20.968457676   391.6878   6  13   0.3110   0.2685   0.7555  -0.0936  -0.2321   0.3041   0.00    0.0
2026/01/15 00:47:30.000   67.857349880   20.968457652   391.6829   6   8   0.3099   0.2672   0.7533  -0.0939  -0.2311   0.3042   0.00    0.0
2026/01/15 00:51:00.000   67.857349803   20.968457994   391.6421   6  12   0.3020   0.2585   0.7328  -0.0955  -0.2239   0.2996   0.00    0.0
2026/01/15 00:51:30.000   67.857349832   20.968458064   391.6388   6  15   0.3007   0.2573   0.7284  -0.0955  -0.2223   0.2981   0.00    0.0
2026/01/15 00:52:00.000   67.857349802   20.968458089   391.6360   6   7   0.2995   0.2561   0.7243  -0.0954  -0.2209   0.2967   0.00    0.0
2026/01/15 00:52:30.000   67.857349749   20.968458089   391.6282   6  13   0.2983   0.2549   0.7201  -0.0954  -0.2194   0.2953   0.00    0.0
2026/01/15 00:53:00.000   67.857349709   20.968458163   391.6123   6  12   0.2970   0.2537   0.7158  -0.0953  -0.2178   0.2938   0.00    0.0
2026/01/15 00:53:30.000   67.857349660   20.968458276   391.5996   6  13   0.2957   0.2525   0.7113  -0.0951  -0.2163   0.2922   0.00    0.0
2026/01/15 00:54:00.000   67.857349663   20.968458362   391.5958   6  14   0.2944   0.2513   0.7071  -0.0949  -0.2146   0.2905   0.00    0.0
2026/01/15 00:54:30.000   67.857349654   20.968458315   391.5899   6  13   0.2931   0.2501   0.7026  -0.0947  -0.2128   0.2887   0.00    0.0
2026/01/15 00:55:00.000   67.857349620   20.968458362   391.5839   6  14   0.2918   0.2489   0.6979  -0.0944  -0.2109   0.2868   0.00    0.0
2026/01/15 00:55:30.000   67.857349627   20.968458340   391.5811   6  15   0.2904   0.2478   0.6928  -0.0940  -0.2090   0.2846   0.00    0.0
2026/01/15 00:56:00.000   67.857349623   20.968458307   391.5759   6  15   0.2889   0.2466   0.6874  -0.0936  -0.2069   0.2822   0.00    0.0
2026/01/15 00:56:30.000   67.857349598   20.968458158   391.5683   6  16   0.2874   0.2454   0.6816  -0.0930  -0.2046   0.2796   0.00    0.0
2026/01/15 00:57:00.000   67.857349584   20.968458190   391.5520   6  14   0.2859   0.2442   0.6755  -0.0925  -0.2023   0.2766   0.00    0.0
2026/01/15 00:57:30.000   67.857349578   20.968458225   391.5382   6  14   0.2843   0.2431   0.6693  -0.0917  -0.1997   0.2736   0.00    0.0
2026/01/15 00:58:00.000   67.857349581   20.968458406   391.5213   6  14   0.2827   0.2419   0.6627  -0.0910  -0.1970   0.2703   0.00    0.0
2026/01/15 00:58:30.000   67.857349549   20.968458401   391.5243   6  14   0.2811   0.2408   0.6563  -0.0902  -0.1946   0.2668   0.00    0.0
2026/01/15 00:59:00.000   67.857349562   20.968458442   391.5189   6  14   0.2794   0.2397   0.6498  -0.0893  -0.1920   0.2631   0.00    0.0
2026/01/15 00:59:30.000   67.857349520   20.968458472   391.5160   6  14   0.2777   0.2386   0.6430  -0.0884  -0.1893   0.2592   0.00    0.0
2026/01/15 01:00:00.000   67.857349499   20.968458439   391.5017   6  14   0.2760   0.2375   0.6361  -0.0874  -0.1865   0.2554   0.00    0.0
2026/01/15 01:00:30.000   67.857349480   20.968458471   391.4889   6  14   0.2744   0.2365   0.6290  -0.0863  -0.1837   0.2514   0.00    0.0
2026/01/15 01:01:00.000   67.857349457   20.968458568   391.4788   6  14   0.2727   0.2354   0.6216  -0.0853  -0.1807   0.2472   0.00    0.0
2026/01/15 01:01:30.000   67.857349450   20.968458576   391.4663   6  14   0.2709   0.2343   0.6139  -0.0841  -0.1777   0.2428   0.00    0.0
2026/01/15 01:02:00.000   67.857349442   20.968458596   391.4598   6  14   0.2692   0.2333   0.6060  -0.0830  -0.1746   0.2382   0.00    0.0
2026/01/15 01:02:30.000   67.857349448   20.968458594   391.4551   6  14   0.2674   0.2322   0.5979  -0.0818  -0.1714   0.2334   0.00    0.0
2026/01/15 01:03:00.000   67.857349456   20.968458576   391.4543   6  15   0.2656   0.2311   0.5893  -0.0805  -0.1679   0.2284   0.00    0.0
2026/01/15 01:03:30.000   67.857349483   20.968458498   391.4540   6  15   0.2637   0.2300   0.5807  -0.0791  -0.1644   0.2233   0.00    0.0
2026/01/15 01:04:00.000   67.857349469   20.968458549   391.4496   6  15   0.2619   0.2289   0.5719  -0.0778  -0.1608   0.2180   0.00    0.0
2026/01/15 01:04:30.000   67.857349426   20.968458517   391.4533   6  15   0.2601   0.2279   0.5630  -0.0764  -0.1573   0.2125   0.00    0.0
2026/01/15 01:05:00.000   67.857349430   20.968458532   391.4476   6  15   0.2583   0.2268   0.5541  -0.0750  -0.1537   0.2070   0.00    0.0
2026/01/15 01:05:30.000   67.857349427   20.968458544   391.4434   6  15   0.2564   0.2257   0.5450  -0.0737  -0.1501   0.2013   0.00    0.0
2026/01/15 01:06:00.000   67.857349431   20.968458662   391.4380   6  15   0.2546   0.2247   0.5359  -0.0723  -0.1465   0.1956   0.00    0.0
2026/01/15 01:06:30.000   67.857349414   20.968458673   391.4329   6  15   0.2528   0.2237   0.5268  -0.0710  -0.1429   0.1897   0.00    0.0
2026/01/15 01:07:00.000   67.857349428   20.968458599   391.4316   6  15   0.2509   0.2227   0.5178  -0.0696  -0.1393   0.1837   0.00    0.0
2026/01/15 01:07:30.000   67.857349394   20.968458612   391.4318   6  15   0.2491   0.2217   0.5087  -0.0683  -0.1357   0.1777   0.00    0.0
2026/01/15 01:08:00.000   67.857349368   20.968458582   391.4328   6  15   0.2473   0.2207   0.4996  -0.0670  -0.1321   0.1716   0.00    0.0
2026/01/15 01:08:30.000   67.857349376   20.968458601   391.4304   6  15   0.2455   0.2197   0.4906  -0.0658  -0.1285   0.1653   0.00    0.0
2026/01/15 01:09:00.000   67.857349346   20.968458643   391.4296   6  15   0.2437   0.2188   0.4817  -0.0646  -0.1250   0.1591   0.00    0.0
2026/01/15 01:09:30.000   67.857349311   20.968458698   391.4263   6  15   0.2419   0.2178   0.4729  -0.0634  -0.1215   0.1527   0.00    0.0
2026/01/15 01:10:00.000   67.857349300   20.968458704   391.4280   6  15   0.2401   0.2169   0.4642  -0.0622  -0.1181   0.1463   0.00    0.0
2026/01/15 01:10:30.000   67.857349279   20.968458648   391.4320   6  15   0.2384   0.2160   0.4556  -0.0611  -0.1147   0.1398   0.00    0.0
2026/01/15 01:11:00.000   67.857349254   20.968458691   391.4293   6  15   0.2366   0.2151   0.4472  -0.0600  -0.1114   0.1332   0.00    0.0
2026/01/15 01:11:30.000   67.857349247   20.968458687   391.4266   6  15   0.2349   0.2141   0.4389  -0.0590  -0.1081   0.1265   0.00    0.0
2026/01/15 01:12:00.000   67.857349262   20.968458742   391.4174   6  15   0.2332   0.2132   0.4307  -0.0580  -0.1048   0.1198   0.00    0.0
2026/01/15 01:12:30.000   67.857349216   20.968458751   391.4158   6  15   0.2315   0.2124   0.4228  -0.0572  -0.1018   0.1131   0.00    0.0
2026/01/15 01:13:00.000   67.857349224   20.968458820   391.4083   6  15   0.2299   0.2115   0.4151  -0.0565  -0.0989   0.1064   0.00    0.0
2026/01/15 01:13:30.000   67.857349207   20.968458791   391.4090   6  15   0.2283   0.2107   0.4075  -0.0559  -0.0961   0.0996   0.00    0.0
2026/01/15 01:14:00.000   67.857349222   20.968458862   391.4069   6  15   0.2266   0.2099   0.4001  -0.0553  -0.0934   0.0926   0.00    0.0
2026/01/15 01:14:30.000   67.857349241   20.968458840   391.4051   6  15   0.2250   0.2091   0.3929  -0.0547  -0.0907   0.0853   0.00    0.0
2026/01/15 01:15:00.000   67.857349256   20.968458876   391.4030   6  15   0.2234   0.2083   0.3858  -0.0543  -0.0881   0.0778   0.00    0.0
2026/01/15 01:15:30.000   67.857349263   20.968458889   391.3986   6  15   0.2219   0.2075   0.3789  -0.0538  -0.0856   0.0699   0.00    0.0
2026/01/15 01:16:00.000   67.857349269   20.968458941   391.3984   6  15   0.2203   0.2067   0.3721  -0.0534  -0.0831   0.0615   0.00    0.0
2026/01/15 01:16:30.000   67.857349268   20.968459013   391.3974   6  15   0.2187   0.2059   0.3654  -0.0531  -0.0806   0.0524   0.00    0.0
2026/01/15 01:17:00.000   67.857349288   20.968459015   391.3941   6  15   0.2172   0.2051   0.3589  -0.0528  -0.0783   0.0419   0.00    0.0
2026/01/15 01:17:30.000   67.857349283   20.968459059   391.3907   6  15   0.2156   0.2043   0.3526  -0.0526  -0.0760   0.0287   0.00    0.0
2026/01/15 01:18:00.000   67.857349304   20.968459084   391.3914   6  15   0.2141   0.2035   0.3463  -0.0524  -0.0737  -0.0070   0.00    0.0
2026/01/15 01:18:30.000   67.857349309   20.968459170   391.3898   6  15   0.2125   0.2027   0.3403  -0.0522  -0.0715  -0.0295   0.00    0.0
2026/01/15 01:19:00.000   67.857349310   20.968459114   391.3895   6  15   0.2110   0.2019   0.3343  -0.0521  -0.0693  -0.0405   0.00    0.0
2026/01/15 01:19:30.000   67.857349338   20.968459202   391.3870   6  15   0.2094   0.2012   0.3285  -0.0520  -0.0672  -0.0485   0.00    0.0
2026/01/15 01:20:00.000   67.857349364   20.968459226   391.3836   6  15   0.2079   0.2004   0.3228  -0.0519  -0.0652  -0.0550   0.00    0.0
2026/01/15 01:20:30.000   67.857349380   20.968459199   391.3800   6  17   0.2063   0.1995   0.3172  -0.0519  -0.0632  -0.0600   0.00    0.0
2026/01/15 01:21:00.000   67.857349394   20.968459265   391.3764   6  17   0.2048   0.1987   0.3117  -0.0520  -0.0614  -0.0643   0.00    0.0
2026/01/15 01:21:30.000   67.857349428   20.968459275   391.3750   6  17   0.2032   0.1979   0.3065  -0.0520  -0.0597  -0.0681   0.00    0.0
2026/01/15 01:22:00.000   67.857349466   20.968459222   391.3718   6  17   0.2016   0.1971   0.3014  -0.0521  -0.0581  -0.0715   0.00    0.0
2026/01/15 01:22:30.000   67.857349513   20.968459181   391.3675   6  17   0.2000   0.1963   0.2964  -0.0522  -0.0565  -0.0744   0.00    0.0
2026/01/15 01:23:00.000   67.857349542   20.968459157   391.3641   6  17   0.1985   0.1955   0.2916  -0.0523  -0.0550  -0.0770   0.00    0.0
2026/01/15 01:23:30.000   67.857349576   20.968459190   391.3609   6  17   0.1969   0.1946   0.2868  -0.0524  -0.0535  -0.0793   0.00    0.0
2026/01/15 01:24:00.000   67.857349623   20.968459138   391.3585   6  17   0.1953   0.1938   0.2822  -0.0525  -0.0521  -0.0813   0.00    0.0
2026/01/15 01:24:30.000   67.857349668   20.968459105   391.3533   6  17   0.1937   0.1930   0.2776  -0.0526  -0.0507  -0.0830   0.00    0.0
2026/01/15 01:25:00.000   67.857349698   20.968459046   391.3540   6  14   0.1924   0.1922   0.2743  -0.0529  -0.0500  -0.0844   0.00    0.0
2026/01/15 01:26:00.000   67.857349694   20.968458943   391.3552   6  15   0.1904   0.1908   0.2694  -0.0532  -0.0482  -0.0855   0.00    0.0
2026/01/15 01:26:30.000   67.857349708   20.968458953   391.3557   6  13   0.1890   0.1900   0.2661  -0.0536  -0.0477  -0.0866   0.00    0.0
2026/01/15 01:27:00.000   67.857349745   20.968458960   391.3530   6  15   0.1873   0.1892   0.2617  -0.0539  -0.0463  -0.0878   0.00    0.0
2026/01/15 01:27:30.000   67.857349781   20.968459019   391.3500   6  14   0.1857   0.1884   0.2574  -0.0542  -0.0450  -0.0889   0.00    0.0
2026/01/15 01:28:00.000   67.857349830   20.968458988   391.3467   6  14   0.1840   0.1876   0.2532  -0.0545  -0.0437  -0.0898   0.00    0.0
2026/01/15 01:28:30.000   67.857349878   20.968458997   391.3423   6  15   0.1824   0.1868   0.2491  -0.0548  -0.0425  -0.0906   0.00    0.0
2026/01/15 01:29:00.000   67.857349901   20.968458968   391.3413   6  16   0.1807   0.1860   0.2451  -0.0551  -0.0412  -0.0913   0.00    0.0
2026/01/15 01:29:30.000   67.857349928   20.968458963   391.3395   6  15   0.1791   0.1852   0.2413  -0.0554  -0.0401  -0.0918   0.00    0.0
2026/01/15 01:30:00.000   67.857349967   20.968458973   391.3360   6  14   0.1775   0.1844   0.2375  -0.0558  -0.0389  -0.0922   0.00    0.0
2026/01/15 01:30:30.000   67.857350031   20.968458962   391.3302   6  15   0.1758   0.1836   0.2338  -0.0561  -0.0378  -0.0925   0.00    0.0
2026/01/15 01:31:00.000   67.857350080   20.968459029   391.3235   6  15   0.1742   0.1828   0.2302  -0.0564  -0.0367  -0.0927   0.00    0.0
2026/01/15 01:31:30.000   67.857350125   20.968459007   391.3204   6  16   0.1726   0.1820   0.2267  -0.0567  -0.0356  -0.0929   0.00    0.0
2026/01/15 01:32:00.000   67.857350158   20.968459003   391.3176   6  15   0.1710   0.1812   0.2233  -0.0571  -0.0347  -0.0929   0.00    0.0
2026/01/15 01:32:30.000   67.857350199   20.968459047   391.3126   6  15   0.1694   0.1804   0.2200  -0.0574  -0.0337  -0.0929   0.00    0.0
2026/01/15 01:33:00.000   67.857350250   20.968459060   391.3068   6  15   0.1678   0.1796   0.2167  -0.0577  -0.0328  -0.0928   0.00    0.0
2026/01/15 01:33:30.000   67.857350305   20.968459059   391.3026   6  15   0.1662   0.1787   0.2135  -0.0581  -0.0319  -0.0926   0.00    0.0
2026/01/15 01:34:00.000   67.857350344   20.968459040   391.2989   6  15   0.1647   0.1779   0.2104  -0.0584  -0.0311  -0.0924   0.00    0.0
2026/01/15 01:34:30.000   67.857350387   20.968459136   391.2947   6  15   0.1631   0.1771   0.2074  -0.0587  -0.0302  -0.0921   0.00    0.0
2026/01/15 01:35:00.000   67.857350416   20.968459124   391.2920   6  15   0.1615   0.1763   0.2044  -0.0590  -0.0294  -0.0918   0.00    0.0
2026/01/15 01:35:30.000   67.857350453   20.968459234   391.2882   6  16   0.1600   0.1755   0.2015  -0.0593  -0.0287  -0.0914   0.00    0.0
2026/01/15 01:36:00.000   67.857350497   20.968459198   391.2846   6  16   0.1585   0.1747   0.1986  -0.0596  -0.0279  -0.0910   0.00    0.0
2026/01/15 01:36:30.000   67.857350515   20.968459219   391.2828   6  16   0.1573   0.1740   0.1960  -0.0605  -0.0261  -0.0911   0.00    0.0
2026/01/15 01:37:00.000   67.857350548   20.968459271   391.2788   6  16   0.1562   0.1733   0.1935  -0.0614  -0.0242  -0.0912   0.00    0.0
2026/01/15 01:37:30.000   67.857350561   20.968459286   391.2778   6  16   0.1550   0.1726   0.1910  -0.0622  -0.0221  -0.0912   0.00    0.0
2026/01/15 01:38:00.000   67.857350576   20.968459379   391.2767   6  16   0.1539   0.1719   0.1886  -0.0630  -0.0200  -0.0912   0.00    0.0
2026/01/15 01:38:30.000   67.857350596   20.968459419   391.2738   6  16   0.1528   0.1713   0.1862  -0.0638  -0.0176  -0.0911   0.00    0.0
2026/01/15 01:39:00.000   67.857350615   20.968459421   391.2714   6  16   0.1516   0.1706   0.1839  -0.0646  -0.0149  -0.0910   0.00    0.0
2026/01/15 01:39:30.000   67.857350642   20.968459403   391.2683   6  16   0.1505   0.1699   0.1816  -0.0653  -0.0118  -0.0908   0.00    0.0
2026/01/15 01:40:00.000   67.857350671   20.968459485   391.2647   6  16   0.1494   0.1692   0.1793  -0.0660  -0.0076  -0.0906   0.00    0.0
2026/01/15 01:40:30.000   67.857350698   20.968459475   391.2623   6  16   0.1483   0.1685   0.1771  -0.0667   0.0045  -0.0904   0.00    0.0
2026/01/15 01:41:00.000   67.857350707   20.968459523   391.2601   6  16   0.1472   0.1679   0.1749  -0.0674   0.0098  -0.0902   0.00    0.0
2026/01/15 01:41:30.000   67.857350718   20.968459549   391.2586   6  16   0.1462   0.1672   0.1728  -0.0680   0.0130  -0.0899   0.00    0.0
2026/01/15 01:42:00.000   67.857350751   20.968459601   391.2547   6  16   0.1451   0.1665   0.1707  -0.0687   0.0155  -0.0896   0.00    0.0
2026/01/15 01:42:30.000   67.857350778   20.968459664   391.2517   6  16   0.1440   0.1658   0.1687  -0.0693   0.0175  -0.0893   0.00    0.0
2026/01/15 01:43:00.000   67.857350803   20.968459714   391.2496   6  16   0.1429   0.1651   0.1666  -0.0699   0.0193  -0.0889   0.00    0.0
2026/01/15 01:43:30.000   67.857350823   20.968459802   391.2466   6  16   0.1419   0.1645   0.1646  -0.0704   0.0208  -0.0886   0.00    0.0
2026/01/15 01:44:00.000   67.857350840   20.968459871   391.2442   6  16   0.1408   0.1638   0.1627  -0.0710   0.0222  -0.0882   0.00    0.0
2026/01/15 01:44:30.000   67.857350876   20.968459915   391.2407   6  16   0.1398   0.1631   0.1608  -0.0715   0.0234  -0.0878   0.00    0.0
2026/01/15 01:45:00.000   67.857350908   20.968459939   391.2365   6  16   0.1388   0.1624   0.1589  -0.0720   0.0246  -0.0873   0.00    0.0
2026/01/15 01:45:30.000   67.857350932   20.968459958   391.2334   6  16   0.1378   0.1618   0.1570  -0.0725   0.0256  -0.0869   0.00    0.0
2026/01/15 01:46:00.000   67.857350960   20.968459958   391.2309   6  16   0.1367   0.1611   0.1552  -0.0729   0.0266  -0.0864   0.00    0.0
2026/01/15 01:46:30.000   67.857350984   20.968459963   391.2278   6  16   0.1358   0.1605   0.1534  -0.0734   0.0276  -0.0860   0.00    0.0
2026/01/15 01:47:00.000   67.857351003   20.968460030   391.2246   6  16   0.1348   0.1598   0.1516  -0.0739   0.0285  -0.0856   0.00    0.0
2026/01/15 01:47:30.000   67.857351025   20.968460076   391.2214   6  16   0.1338   0.1592   0.1499  -0.0744   0.0293  -0.0851   0.00    0.0
2026/01/15 01:48:00.000   67.857351044   20.968460116   391.2190   6  16   0.1329   0.1586   0.1482  -0.0749   0.0301  -0.0846   0.00    0.0
2026/01/15 01:48:30.000   67.857351074   20.968460111   391.2153   6  16   0.1320   0.1580   0.1465  -0.0753   0.0308  -0.0842   0.00    0.0
2026/01/15 01:49:00.000   67.857351094   20.968460138   391.2121   6  16   0.1311   0.1574   0.1449  -0.0758   0.0315  -0.0837   0.00    0.0
2026/01/15 01:49:30.000   67.857351110   20.968460190   391.2091   6  17   0.1302   0.1568   0.1433  -0.0762   0.0321  -0.0832   0.00    0.0
2026/01/15 01:50:00.000   67.857351134   20.968460218   391.2062   6  17   0.1293   0.1562   0.1417  -0.0766   0.0327  -0.0826   0.00    0.0
2026/01/15 01:50:30.000   67.857351155   20.968460267   391.2029   6  17   0.1284   0.1556   0.1401  -0.0770   0.0332  -0.0821   0.00    0.0
2026/01/15 01:51:00.000   67.857351182   20.968460289   391.2002   6  17   0.1275   0.1550   0.1385  -0.0774   0.0337  -0.0816   0.00    0.0
2026/01/15 01:51:30.000   67.857351207   20.968460309   391.1974   6  17   0.1267   0.1544   0.1370  -0.0778   0.0342  -0.0811   0.00    0.0
2026/01/15 01:52:00.000   67.857351234   20.968460297   391.1941   6  17   0.1258   0.1538   0.1355  -0.0781   0.0347  -0.0805   0.00    0.0
2026/01/15 01:52:30.000   67.857351247   20.968460313   391.1920   6  17   0.1250   0.1533   0.1340  -0.0784   0.0351  -0.0800   0.00    0.0
2026/01/15 01:53:00.000   67.857351269   20.968460347   391.1888   6  17   0.1241   0.1527   0.1325  -0.0787   0.0355  -0.0795   0.00    0.0
2026/01/15 01:53:30.000   67.857351290   20.968460355   391.1853   6  17   0.1233   0.1521   0.1311  -0.0790   0.0359  -0.0789   0.00    0.0
2026/01/15 01:54:00.000   67.857351315   20.968460389   391.1816   6  17   0.1225   0.1515   0.1297  -0.0793   0.0362  -0.0784   0.00    0.0
2026/01/15 01:54:30.000   67.857351341   20.968460362   391.1776   6  17   0.1216   0.1509   0.1283  -0.0796   0.0365  -0.0778   0.00    0.0
2026/01/15 01:55:00.000   67.857351363   20.968460417   391.1744   6  17   0.1208   0.1503   0.1269  -0.0798   0.0368  -0.0773   0.00    0.0
2026/01/15 01:55:30.000   67.857351384   20.968460430   391.1716   6  17   0.1200   0.1497   0.1256  -0.0800   0.0371  -0.0767   0.00    0.0
2026/01/15 01:56:00.000   67.857351405   20.968460441   391.1687   6  17   0.1192   0.1491   0.1242  -0.0802   0.0374  -0.0762   0.00    0.0
2026/01/15 01:56:30.000   67.857351421   20.968460480   391.1665   6  17   0.1185   0.1485   0.1229  -0.0804   0.0376  -0.0756   0.00    0.0
2026/01/15 01:57:00.000   67.857351447   20.968460494   391.1633   6  17   0.1177   0.1479   0.1216  -0.0806   0.0378  -0.0751   0.00    0.0
2026/01/15 01:57:30.000   67.857351463   20.968460514   391.1600   6  18   0.1169   0.1473   0.1203  -0.0807   0.0379  -0.0745   0.00    0.0
2026/01/15 01:58:00.000   67.857351482   20.968460523   391.1571   6  18   0.1161   0.1466   0.1191  -0.0808   0.0381  -0.0740   0.00    0.0
2026/01/15 01:58:30.000   67.857351500   20.968460534   391.1543   6  18   0.1154   0.1460   0.1178  -0.0809   0.0382  -0.0734   0.00    0.0
2026/01/15 01:59:00.000   67.857351512   20.968460552   391.1515   6  18   0.1146   0.1454   0.1166  -0.0810   0.0383  -0.0729   0.00    0.0
2026/01/15 01:59:30.000   67.857351528   20.968460582   391.1481   6  18   0.1139   0.1448   0.1154  -0.0811   0.0384  -0.0723   0.00    0.0
2026/01/15 02:00:00.000   67.857351541   20.968460603   391.1457   6  18   0.1131   0.1441   0.1142  -0.0812   0.0384  -0.0718   0.00    0.0
2026/01/15 02:00:30.000   67.857351574   20.968460565   391.1421   6  18   0.1124   0.1435   0.1130  -0.0812   0.0385  -0.0712   0.00    0.0
2026/01/15 02:01:00.000   67.857351603   20.968460541   391.1385   6  18   0.1116   0.1428   0.1119  -0.0812   0.0385  -0.0707   0.00    0.0
2026/01/15 02:01:30.000   67.857351626   20.968460548   391.1352   6  18   0.1109   0.1422   0.1107  -0.0812   0.0386  -0.0701   0.00    0.0
2026/01/15 02:02:00.000   67.857351647   20.968460540   391.1320   6  18   0.1102   0.1415   0.1096  -0.0812   0.0386  -0.0696   0.00    0.0
2026/01/15 02:02:30.000   67.857351667   20.968460552   391.1285   6  19   0.1095   0.1409   0.1085  -0.0812   0.0385  -0.0691   0.00    0.0
2026/01/15 02:03:00.000   67.857351686   20.968460555   391.1254   6  19   0.1088   0.1402   0.1075  -0.0812   0.0385  -0.0686   0.00    0.0
2026/01/15 02:03:30.000   67.857351703   20.968460557   391.1223   6  19   0.1081   0.1395   0.1065  -0.0811   0.0385  -0.0681   0.00    0.0
2026/01/15 02:04:00.000   67.857351719   20.968460570   391.1192   6  19   0.1075   0.1389   0.1055  -0.0810   0.0384  -0.0677   0.00    0.0
2026/01/15 02:04:30.000   67.857351747   20.968460543   391.1158   6  19   0.1068   0.1382   0.1045  -0.0810   0.0383  -0.0672   0.00    0.0
2026/01/15 02:05:00.000   67.857351754   20.968460565   391.1134   6  19   0.1061   0.1375   0.1035  -0.0809   0.0382  -0.0667   0.00    0.0
2026/01/15 02:05:30.000   67.857351768   20.968460578   391.1109   6  19   0.1055   0.1368   0.1026  -0.0807   0.0382  -0.0662   0.00    0.0
2026/01/15 02:06:00.000   67.857351780   20.968460592   391.1085   6  19   0.1048   0.1361   0.1016  -0.0806   0.0381  -0.0658   0.00    0.0
2026/01/15 02:06:30.000   67.857351794   20.968460595   391.1057   6  19   0.1042   0.1354   0.1007  -0.0805   0.0379  -0.0653   0.00    0.0
2026/01/15 02:07:00.000   67.857351808   20.968460579   391.1030   6  19   0.1035   0.1348   0.0998  -0.0803   0.0378  -0.0648   0.00    0.0
2026/01/15 02:07:30.000   67.857351828   20.968460541   391.1000   6  19   0.1029   0.1340   0.0989  -0.0802   0.0377  -0.0643   0.00    0.0
2026/01/15 02:08:00.000   67.857351849   20.968460504   391.0966   6  19   0.1022   0.1333   0.0979  -0.0800   0.0375  -0.0639   0.00    0.0
2026/01/15 02:08:30.000   67.857351868   20.968460477   391.0932   6  20   0.1016   0.1326   0.0971  -0.0799   0.0375  -0.0635   0.00    0.0
2026/01/15 02:09:00.000   67.857351881   20.968460470   391.0903   6  20   0.1010   0.1320   0.0962  -0.0797   0.0374  -0.0630   0.00    0.0
2026/01/15 02:19:30.000   67.857351763   20.968460739   391.0988   6   4   0.0992   0.1277   0.0956  -0.0769   0.0357  -0.0617   0.00    0.0
2026/01/15 02:31:00.000   67.857351617   20.968461126   391.1075   6   6   0.0975   0.1234   0.0950  -0.0740   0.0339  -0.0603   0.00    0.0
2026/01/15 02:31:30.000   67.857351616   20.968461136   391.1076   6   6   0.0974   0.1232   0.0950  -0.0738   0.0338  -0.0603   0.00    0.0
2026/01/15 02:32:00.000   67.857351612   20.968461137   391.1079   6   6   0.0973   0.1231   0.0950  -0.0737   0.0337  -0.0602   0.00    0.0
2026/01/15 02:33:00.000   67.857351598   20.968461173   391.1087   6   8   0.0972   0.1227   0.0950  -0.0735   0.0336  -0.0601   0.00    0.0
2026/01/15 02:33:30.000   67.857351594   20.968461170   391.1091   6   7   0.0971   0.1225   0.0949  -0.0734   0.0335  -0.0601   0.00    0.0
2026/01/15 02:34:00.000   67.857351586   20.968461201   391.1097   6  14   0.0971   0.1223   0.0949  -0.0732   0.0334  -0.0600   0.00    0.0
2026/01/15 02:34:30.000   67.857351587   20.968461197   391.1096   6   9   0.0970   0.1221   0.0949  -0.0731   0.0334  -0.0600   0.00    0.0
2026/01/15 02:35:00.000   67.857351585   20.968461184   391.1099   6  16   0.0969   0.1220   0.0949  -0.0730   0.0333  -0.0599   0.00    0.0
2026/01/15 02:35:30.000   67.857351583   20.968461196   391.1101   6  16   0.0968   0.1218   0.0948  -0.0729   0.0332  -0.0599   0.00    0.0
2026/01/15 02:36:00.000   67.857351578   20.968461220   391.1103   6  16   0.0968   0.1216   0.0948  -0.0727   0.0331  -0.0598   0.00    0.0
2026/01/15 02:36:30.000   67.857351572   20.968461226   391.1108   6  16   0.0967   0.1214   0.0948  -0.0726   0.0331  -0.0597   0.00    0.0
2026/01/15 02:37:00.000   67.857351569   20.968461251   391.1109   6   9   0.0966   0.1212   0.0948  -0.0725   0.0330  -0.0597   0.00    0.0
2026/01/15 02:37:30.000   67.857351569   20.968461248   391.1111   6  16   0.0965   0.1210   0.0947  -0.0723   0.0329  -0.0596   0.00    0.0
2026/01/15 02:38:00.000   67.857351572   20.968461243   391.1112   6  16   0.0965   0.1208   0.0947  -0.0722   0.0329  -0.0596   0.00    0.0
2026/01/15 02:38:30.000   67.857351569   20.968461245   391.1115   6  16   0.0964   0.1206   0.0947  -0.0721   0.0328  -0.0595   0.00    0.0
2026/01/15 02:39:00.000   67.857351565   20.968461259   391.1118   6  16   0.0963   0.1204   0.0946  -0.0719   0.0327  -0.0595   0.00    0.0
2026/01/15 02:39:30.000   67.857351565   20.968461255   391.1119   6  16   0.0962   0.1202   0.0946  -0.0718   0.0327  -0.0594   0.00    0.0
2026/01/15 02:40:00.000   67.857351563   20.968461240   391.1122   6  16   0.0961   0.1200   0.0946  -0.0716   0.0326  -0.0594   0.00    0.0
2026/01/15 02:40:30.000   67.857351563   20.968461239   391.1124   6  16   0.0960   0.1198   0.0945  -0.0715   0.0325  -0.0593   0.00    0.0
2026/01/15 02:41:00.000   67.857351559   20.968461263   391.1126   6  16   0.0959   0.1196   0.0945  -0.0713   0.0325  -0.0592   0.00    0.0
2026/01/15 02:41:30.000   67.857351555   20.968461269   391.1127   6  16   0.0959   0.1194   0.0945  -0.0712   0.0324  -0.0592   0.00    0.0
2026/01/15 02:42:00.000   67.857351550   20.968461289   391.1129   6  16   0.0958   0.1192   0.0944  -0.0710   0.0323  -0.0591   0.00    0.0
2026/01/15 02:42:30.000   67.857351553   20.968461278   391.1126   6  16   0.0957   0.1189   0.0944  -0.0709   0.0323  -0.0591   0.00    0.0
2026/01/15 02:43:00.000   67.857351550   20.968461272   391.1128   6  16   0.0956   0.1187   0.0943  -0.0707   0.0322  -0.0590   0.00    0.0
2026/01/15 02:43:30.000   67.857351547   20.968461272   391.1130   6  16   0.0955   0.1185   0.0943  -0.0705   0.0321  -0.0589   0.00    0.0
2026/01/15 02:44:00.000   67.857351547   20.968461285   391.1129   6  16   0.0953   0.1182   0.0942  -0.0703   0.0320  -0.0589   0.00    0.0
2026/01/15 02:44:30.000   67.857351542   20.968461296   391.1131   6  16   0.0952   0.1180   0.0942  -0.0702   0.0320  -0.0588   0.00    0.0
2026/01/15 02:45:00.000   67.857351534   20.968461322   391.1134   6  16   0.0951   0.1178   0.0941  -0.0700   0.0319  -0.0587   0.00    0.0
2026/01/15 02:45:30.000   67.857351534   20.968461319   391.1135   6  16   0.0950   0.1175   0.0940  -0.0698   0.0318  -0.0586   0.00    0.0
2026/01/15 02:46:00.000   67.857351537   20.968461327   391.1134   6  16   0.0949   0.1172   0.0940  -0.0696   0.0318  -0.0586   0.00    0.0
2026/01/15 02:46:30.000   67.857351544   20.968461281   391.1134   6  16   0.0947   0.1170   0.0939  -0.0694   0.0317  -0.0585   0.00    0.0
2026/01/15 02:47:00.000   67.857351547   20.968461287   391.1133   6  16   0.0946   0.1167   0.0938  -0.0692   0.0316  -0.0584   0.00    0.0
2026/01/15 02:47:30.000   67.857351552   20.968461271   391.1130   6  16   0.0945   0.1164   0.0938  -0.0690   0.0315  -0.0583   0.00    0.0
2026/01/15 02:48:00.000   67.857351553   20.968461256   391.1129   6  16   0.0943   0.1162   0.0937  -0.0688   0.0315  -0.0582   0.00    0.0
2026/01/15 02:48:30.000   67.857351555   20.968461223   391.1129   6  16   0.0942   0.1159   0.0936  -0.0685   0.0314  -0.0582   0.00    0.0
2026/01/15 02:49:00.000   67.857351558   20.968461212   391.1126   6  16   0.0940   0.1156   0.0935  -0.0683   0.0313  -0.0581   0.00    0.0
2026/01/15 02:49:30.000   67.857351566   20.968461180   391.1124   6  16   0.0939   0.1153   0.0934  -0.0681   0.0312  -0.0580   0.00    0.0
2026/01/15 02:50:00.000   67.857351567   20.968461167   391.1123   6  16   0.0937   0.1150   0.0933  -0.0678   0.0312  -0.0579   0.00    0.0
2026/01/15 02:50:30.000   67.857351563   20.968461172   391.1122   6  16   0.0936   0.1147   0.0932  -0.0676   0.0311  -0.0578   0.00    0.0
2026/01/15 02:51:00.000   67.857351564   20.968461159   391.1122   6  15   0.0934   0.1143   0.0931  -0.0673   0.0310  -0.0577   0.00    0.0
2026/01/15 02:51:30.000   67.857351566   20.968461147   391.1122   6  15   0.0932   0.1140   0.0930  -0.0671   0.0309  -0.0576   0.00    0.0
2026/01/15 02:52:00.000   67.857351570   20.968461118   391.1120   6  15   0.0930   0.1137   0.0929  -0.0668   0.0308  -0.0575   0.00    0.0
2026/01/15 02:52:30.000   67.857351578   20.968461074   391.1115   6  15   0.0929   0.1134   0.0928  -0.0665   0.0308  -0.0574   0.00    0.0
2026/01/15 02:53:00.000   67.857351578   20.968461063   391.1116   6  15   0.0927   0.1131   0.0927  -0.0663   0.0307  -0.0573   0.00    0.0
2026/01/15 02:53:30.000   67.857351587   20.968461042   391.1111   6  15   0.0925   0.1128   0.0926  -0.0661   0.0307  -0.0572   0.00    0.0
2026/01/15 02:54:00.000   67.857351594   20.968461021   391.1108   6  16   0.0924   0.1125   0.0924  -0.0658   0.0307  -0.0571   0.00    0.0
2026/01/15 02:54:30.000   67.857351600   20.968461024   391.1102   6  16   0.0922   0.1121   0.0923  -0.0656   0.0307  -0.0570   0.00    0.0
2026/01/15 02:55:00.000   67.857351600   20.968461034   391.1098   6  16   0.0920   0.1118   0.0922  -0.0654   0.0307  -0.0570   0.00    0.0
2026/01/15 02:55:30.000   67.857351606   20.968461019   391.1094   6  16   0.0919   0.1115   0.0921  -0.0651   0.0307  -0.0569   0.00    0.0
2026/01/15 02:56:00.000   67.857351611   20.968461002   391.1090   6  16   0.0917   0.1112   0.0919  -0.0649   0.0307  -0.0568   0.00    0.0
2026/01/15 02:56:30.000   67.857351617   20.968460978   391.1085   6  16   0.0915   0.1108   0.0918  -0.0646   0.0307  -0.0567   0.00    0.0
2026/01/15 02:57:00.000   67.857351624   20.968460955   391.1079   6  16   0.0913   0.1105   0.0916  -0.0643   0.0307  -0.0566   0.00    0.0
2026/01/15 02:57:30.000   67.857351626   20.968460965   391.1075   6  17   0.0911   0.1101   0.0915  -0.0641   0.0306  -0.0565   0.00    0.0
2026/01/15 02:58:00.000   67.857351632   20.968460937   391.1070   6  17   0.0909   0.1098   0.0913  -0.0638   0.0306  -0.0564   0.00    0.0
2026/01/15 02:58:30.000   67.857351637   20.968460949   391.1066   6  18   0.0907   0.1094   0.0912  -0.0635   0.0306  -0.0563   0.00    0.0
2026/01/15 02:59:00.000   67.857351639   20.968460958   391.1065   6  18   0.0905   0.1090   0.0910  -0.0632   0.0306  -0.0562   0.00    0.0
2026/01/15 02:59:30.000   67.857351649   20.968460922   391.1059   6  18   0.0903   0.1087   0.0908  -0.0629   0.0306  -0.0561   0.00    0.0
2026/01/15 03:00:00.000   67.857351651   20.968460910   391.1057   6  18   0.0901   0.1083   0.0906  -0.0626   0.0305  -0.0559   0.00    0.0
2026/01/15 03:00:30.000   67.857351658   20.968460877   391.1052   6  18   0.0899   0.1079   0.0905  -0.0623   0.0305  -0.0558   0.00    0.0
2026/01/15 03:01:00.000   67.857351664   20.968460839   391.1047   6  18   0.0896   0.1075   0.0903  -0.0620   0.0305  -0.0557   0.00    0.0
2026/01/15 03:01:30.000   67.857351666   20.968460834   391.1039   6  18   0.0894   0.1071   0.0901  -0.0617   0.0305  -0.0556   0.00    0.0
2026/01/15 03:02:00.000   67.857351678   20.968460797   391.1031   6  18   0.0892   0.1067   0.0899  -0.0613   0.0304  -0.0555   0.00    0.0
2026/01/15 03:02:30.000   67.857351688   20.968460780   391.1024   6  18   0.0889   0.1063   0.0897  -0.0610   0.0304  -0.0553   0.00    0.0
2026/01/15 03:03:00.000   67.857351695   20.968460779   391.1016   6  18   0.0887   0.1059   0.0895  -0.0607   0.0304  -0.0552   0.00    0.0
2026/01/15 03:03:30.000   67.857351703   20.968460744   391.1008   6  18   0.0884   0.1055   0.0893  -0.0603   0.0304  -0.0551   0.00    0.0
2026/01/15 03:04:00.000   67.857351705   20.968460725   391.1002   6  18   0.0882   0.1051   0.0891  -0.0600   0.0303  -0.0550   0.00    0.0
2026/01/15 03:04:30.000   67.857351714   20.968460706   391.0992   6  18   0.0879   0.1046   0.0888  -0.0596   0.0303  -0.0548   0.00    0.0
2026/01/15 03:05:00.000   67.857351721   20.968460689   391.0984   6  18   0.0876   0.1042   0.0886  -0.0593   0.0303  -0.0547   0.00    0.0
2026/01/15 03:05:30.000   67.857351734   20.968460643   391.0972   6  18   0.0874   0.1038   0.0884  -0.0589   0.0302  -0.0545   0.00    0.0
2026/01/15 03:06:00.000   67.857351742   20.968460628   391.0962   6  18   0.0871   0.1033   0.0881  -0.0586   0.0302  -0.0544   0.00    0.0
2026/01/15 03:06:30.000   67.857351749   20.968460618   391.0952   6  19   0.0868   0.1029   0.0879  -0.0582   0.0301  -0.0542   0.00    0.0
2026/01/15 03:07:00.000   67.857351762   20.968460579   391.0940   6  19   0.0865   0.1025   0.0877  -0.0578   0.0301  -0.0541   0.00    0.0
2026/01/15 03:07:30.000   67.857351774   20.968460546   391.0930   6  19   0.0863   0.1020   0.0874  -0.0575   0.0301  -0.0539   0.00    0.0
2026/01/15 03:08:00.000   67.857351780   20.968460522   391.0923   6  19   0.0860   0.1016   0.0872  -0.0572   0.0301  -0.0538   0.00    0.0
2026/01/15 03:08:30.000   67.857351782   20.968460518   391.0915   6  19   0.0858   0.1013   0.0869  -0.0569   0.0301  -0.0537   0.00    0.0
2026/01/15 03:09:00.000   67.857351792   20.968460493   391.0902   6  19   0.0855   0.1009   0.0866  -0.0566   0.0301  -0.0536   0.00    0.0
2026/01/15 03:09:30.000   67.857351804   20.968460459   391.0890   6  19   0.0852   0.1005   0.0864  -0.0563   0.0301  -0.0534   0.00    0.0
2026/01/15 03:10:00.000   67.857351814   20.968460432   391.0876   6  19   0.0850   0.1001   0.0861  -0.0560   0.0301  -0.0533   0.00    0.0
2026/01/15 03:10:30.000   67.857351825   20.968460408   391.0870   6  18   0.0847   0.0997   0.0859  -0.0557   0.0301  -0.0531   0.00    0.0
2026/01/15 03:11:00.000   67.857351836   20.968460378   391.0865   6  18   0.0845   0.0993   0.0857  -0.0554   0.0302  -0.0530   0.00    0.0
2026/01/15 03:11:30.000   67.857351842   20.968460359   391.0863   6  18   0.0842   0.0989   0.0854  -0.0550   0.0302  -0.0528   0.00    0.0
2026/01/15 03:12:00.000   67.857351851   20.968460337   391.0860   6  18   0.0839   0.0985   0.0852  -0.0547   0.0302  -0.0527   0.00    0.0
2026/01/15 03:12:30.000   67.857351864   20.968460306   391.0854   6  18   0.0836   0.0981   0.0849  -0.0544   0.0302  -0.0525   0.00    0.0
2026/01/15 03:13:00.000   67.857351874   20.968460286   391.0850   6  18   0.0833   0.0977   0.0847  -0.0541   0.0302  -0.0524   0.00    0.0
2026/01/15 03:13:30.000   67.857351883   20.968460261   391.0846   6  18   0.0831   0.0973   0.0844  -0.0538   0.0302  -0.0522   0.00    0.0
2026/01/15 03:14:00.000   67.857351894   20.968460218   391.0840   6  18   0.0828   0.0968   0.0842  -0.0534   0.0303  -0.0521   0.00    0.0
2026/01/15 03:14:30.000   67.857351909   20.968460187   391.0832   6  18   0.0825   0.0964   0.0839  -0.0531   0.0303  -0.0519   0.00    0.0
2026/01/15 03:15:00.000   67.857351924   20.968460151   391.0823   6  18   0.0822   0.0960   0.0836  -0.0527   0.0303  -0.0518   0.00    0.0
2026/01/15 03:15:30.000   67.857351935   20.968460127   391.0815   6  18   0.0819   0.0956   0.0834  -0.0524   0.0303  -0.0516   0.00    0.0
2026/01/15 03:16:00.000   67.857351946   20.968460084   391.0809   6  18   0.0816   0.0951   0.0831  -0.0521   0.0303  -0.0514   0.00    0.0
2026/01/15 03:16:30.000   67.857351963   20.968460035   391.0799   6  18   0.0813   0.0947   0.0828  -0.0517   0.0302  -0.0513   0.00    0.0
2026/01/15 03:17:00.000   67.857351979   20.968459987   391.0789   6  18   0.0810   0.0943   0.0825  -0.0514   0.0302  -0.0511   0.00    0.0
2026/01/15 03:17:30.000   67.857351996   20.968459941   391.0778   6  18   0.0807   0.0939   0.0823  -0.0510   0.0302  -0.0509   0.00    0.0
2026/01/15 03:18:00.000   67.857352009   20.968459917   391.0769   6  18   0.0803   0.0934   0.0820  -0.0507   0.0302  -0.0507   0.00    0.0
2026/01/15 03:28:30.000   67.857351963   20.968460115   391.0813   6   5   0.0796   0.0916   0.0817  -0.0495   0.0294  -0.0501   0.00    0.0
2026/01/15 03:29:30.000   67.857351956   20.968460130   391.0821   6   4   0.0795   0.0915   0.0816  -0.0494   0.0293  -0.0500   0.00    0.0
2026/01/15 03:30:30.000   67.857351955   20.968460130   391.0826   6   6   0.0794   0.0913   0.0816  -0.0493   0.0292  -0.0499   0.00    0.0
2026/01/15 03:31:00.000   67.857351954   20.968460127   391.0828   6   6   0.0794   0.0912   0.0816  -0.0492   0.0292  -0.0499   0.00    0.0
2026/01/15 03:32:00.000   67.857351954   20.968460154   391.0829   6   4   0.0793   0.0911   0.0816  -0.0491   0.0291  -0.0499   0.00    0.0
2026/01/15 03:32:30.000   67.857351952   20.968460175   391.0830   6  11   0.0793   0.0910   0.0816  -0.0491   0.0291  -0.0498   0.00    0.0
2026/01/15 03:33:30.000   67.857351947   20.968460199   391.0834   6  14   0.0793   0.0908   0.0815  -0.0490   0.0290  -0.0498   0.00    0.0
2026/01/15 03:34:00.000   67.857351947   20.968460205   391.0834   6  17   0.0792   0.0907   0.0815  -0.0489   0.0290  -0.0498   0.00    0.0
2026/01/15 03:34:30.000   67.857351943   20.968460225   391.0838   6  17   0.0792   0.0907   0.0815  -0.0489   0.0290  -0.0497   0.00    0.0
2026/01/15 03:35:00.000   67.857351942   20.968460232   391.0838   6  17   0.0792   0.0906   0.0815  -0.0488   0.0289  -0.0497   0.00    0.0
2026/01/15 03:35:30.000   67.857351940   20.968460245   391.0840   6  16   0.0791   0.0905   0.0815  -0.0488   0.0289  -0.0497   0.00    0.0
2026/01/15 03:36:00.000   67.857351936   20.968460260   391.0843   6  16   0.0791   0.0904   0.0815  -0.0487   0.0289  -0.0496   0.00    0.0
2026/01/15 03:36:30.000   67.857351929   20.968460268   391.0848   6  16   0.0791   0.0904   0.0814  -0.0487   0.0288  -0.0496   0.00    0.0
2026/01/15 03:37:00.000   67.857351925   20.968460289   391.0850   6  16   0.0790   0.0903   0.0814  -0.0486   0.0288  -0.0496   0.00    0.0
2026/01/15 03:37:30.000   67.857351924   20.968460305   391.0851   6  16   0.0790   0.0902   0.0814  -0.0486   0.0288  -0.0496   0.00    0.0
2026/01/15 03:38:00.000   67.857351923   20.968460309   391.0853   6  16   0.0789   0.0901   0.0814  -0.0485   0.0287  -0.0495   0.00    0.0
2026/01/15 03:38:30.000   67.857351923   20.968460318   391.0853   6  16   0.0789   0.0901   0.0814  -0.0484   0.0287  -0.0495   0.00    0.0
2026/01/15 03:39:00.000   67.857351918   20.968460340   391.0856   6  16   0.0789   0.0900   0.0814  -0.0484   0.0287  -0.0495   0.00    0.0
2026/01/15 03:39:30.000   67.857351920   20.968460335   391.0855   6  16   0.0788   0.0899   0.0813  -0.0483   0.0286  -0.0494   0.00    0.0
2026/01/15 03:40:00.000   67.857351914   20.968460353   391.0858   6  16   0.0788   0.0898   0.0813  -0.0483   0.0286  -0.0494   0.00    0.0
2026/01/15 03:40:30.000   67.857351908   20.968460369   391.0862   6  16   0.0788   0.0897   0.0813  -0.0482   0.0285  -0.0494   0.00    0.0
2026/01/15 03:41:00.000   67.857351908   20.968460375   391.0861   6  16   0.0787   0.0897   0.0813  -0.0482   0.0285  -0.0493   0.00    0.0
2026/01/15 03:41:30.000   67.857351908   20.968460383   391.0861   6  16   0.0787   0.0896   0.0812  -0.0481   0.0285  -0.0493   0.00    0.0
2026/01/15 03:42:00.000   67.857351905   20.968460397   391.0861   6  16   0.0786   0.0895   0.0812  -0.0481   0.0284  -0.0493   0.00    0.0
2026/01/15 03:42:30.000   67.857351903   20.968460410   391.0862   6  16   0.0786   0.0894   0.0812  -0.0480   0.0284  -0.0492   0.00    0.0
2026/01/15 03:43:00.000   67.857351904   20.968460415   391.0861   6  16   0.0785   0.0893   0.0811  -0.0479   0.0284  -0.0492   0.00    0.0
2026/01/15 03:43:30.000   67.857351906   20.968460412   391.0860   6  16   0.0785   0.0893   0.0811  -0.0479   0.0283  -0.0491   0.00    0.0
2026/01/15 03:44:00.000   67.857351907   20.968460408   391.0859   6  16   0.0784   0.0892   0.0811  -0.0478   0.0283  -0.0491   0.00    0.0
2026/01/15 03:44:30.000   67.857351912   20.968460412   391.0854   6  16   0.0784   0.0891   0.0810  -0.0477   0.0282  -0.0491   0.00    0.0
2026/01/15 03:45:00.000   67.857351913   20.968460409   391.0849   6  16   0.0783   0.0890   0.0810  -0.0477   0.0282  -0.0490   0.00    0.0
2026/01/15 03:45:30.000   67.857351916   20.968460398   391.0845   6  16   0.0783   0.0889   0.0809  -0.0476   0.0281  -0.0490   0.00    0.0
2026/01/15 03:46:00.000   67.857351919   20.968460402   391.0843   6  16   0.0782   0.0888   0.0809  -0.0475   0.0281  -0.0489   0.00    0.0
2026/01/15 03:46:30.000   67.857351922   20.968460426   391.0837   6  16   0.0782   0.0887   0.0808  -0.0475   0.0280  -0.0489   0.00    0.0
2026/01/15 03:47:00.000   67.857351926   20.968460422   391.0833   6  16   0.0781   0.0886   0.0808  -0.0474   0.0280  -0.0488   0.00    0.0
2026/01/15 03:47:30.000   67.857351928   20.968460415   391.0829   6  16   0.0780   0.0885   0.0807  -0.0473   0.0279  -0.0488   0.00    0.0
2026/01/15 03:48:00.000   67.857351931   20.968460403   391.0825   6  16   0.0780   0.0884   0.0807  -0.0472   0.0279  -0.0487   0.00    0.0
2026/01/15 03:48:30.000   67.857351933   20.968460394   391.0821   6  16   0.0779   0.0883   0.0806  -0.0471   0.0278  -0.0486   0.00    0.0
2026/01/15 03:49:00.000   67.857351942   20.968460380   391.0811   6  16   0.0778   0.0882   0.0805  -0.0471   0.0277  -0.0486   0.00    0.0
2026/01/15 03:49:30.000   67.857351946   20.968460391   391.0803   6  16   0.0778   0.0881   0.0805  -0.0470   0.0277  -0.0485   0.00    0.0
2026/01/15 03:50:00.000   67.857351950   20.968460395   391.0799   6  15   0.0777   0.0880   0.0804  -0.0469   0.0276  -0.0485   0.00    0.0
2026/01/15 03:50:30.000   67.857351957   20.968460386   391.0793   6  15   0.0776   0.0879   0.0803  -0.0468   0.0276  -0.0484   0.00    0.0
2026/01/15 03:51:00.000   67.857351963   20.968460380   391.0787   6  15   0.0775   0.0878   0.0803  -0.0467   0.0275  -0.0483   0.00    0.0
2026/01/15 03:51:30.000   67.857351970   20.968460376   391.0781   6  15   0.0774   0.0877   0.0802  -0.0466   0.0274  -0.0483   0.00    0.0
2026/01/15 03:52:00.000   67.857351974   20.968460388   391.0775   6  15   0.0773   0.0876   0.0801  -0.0465   0.0273  -0.0482   0.00    0.0
2026/01/15 03:52:30.000   67.857351978   20.968460377   391.0768   6  15   0.0772   0.0875   0.0800  -0.0464   0.0273  -0.0481   0.00    0.0
2026/01/15 03:53:00.000   67.857351983   20.968460387   391.0761   6  15   0.0772   0.0874   0.0799  -0.0463   0.0272  -0.0480   0.00    0.0
2026/01/15 03:53:30.000   67.857351990   20.968460382   391.0752   6  15   0.0771   0.0873   0.0799  -0.0462   0.0271  -0.0480   0.00    0.0
2026/01/15 03:54:00.000   67.857352000   20.968460377   391.0742   6  15   0.0770   0.0871   0.0798  -0.0461   0.0270  -0.0479   0.00    0.0
2026/01/15 03:54:30.000   67.857352007   20.968460371   391.0735   6  15   0.0768   0.0870   0.0797  -0.0460   0.0269  -0.0478   0.00    0.0
2026/01/15 03:55:00.000   67.857352013   20.968460356   391.0727   6  15   0.0767   0.0869   0.0796  -0.0458   0.0268  -0.0477   0.00    0.0
2026/01/15 03:55:30.000   67.857352018   20.968460350   391.0719   6  15   0.0766   0.0868   0.0795  -0.0457   0.0267  -0.0476   0.00    0.0
2026/01/15 03:56:00.000   67.857352024   20.968460342   391.0711   6  15   0.0765   0.0866   0.0794  -0.0456   0.0266  -0.0475   0.00    0.0
2026/01/15 03:56:30.000   67.857352030   20.968460335   391.0704   6  15   0.0764   0.0865   0.0793  -0.0455   0.0265  -0.0474   0.00    0.0
2026/01/15 03:57:00.000   67.857352035   20.968460338   391.0697   6  15   0.0763   0.0864   0.0791  -0.0453   0.0264  -0.0473   0.00    0.0
2026/01/15 03:57:30.000   67.857352045   20.968460324   391.0690   6  15   0.0762   0.0862   0.0790  -0.0452   0.0263  -0.0472   0.00    0.0
2026/01/15 03:58:00.000   67.857352053   20.968460301   391.0680   6  15   0.0760   0.0861   0.0789  -0.0451   0.0262  -0.0471   0.00    0.0
2026/01/15 03:58:30.000   67.857352062   20.968460277   391.0669   6  15   0.0759   0.0859   0.0788  -0.0449   0.0261  -0.0470   0.00    0.0
2026/01/15 03:59:00.000   67.857352070   20.968460266   391.0660   6  15   0.0758   0.0858   0.0787  -0.0448   0.0260  -0.0469   0.00    0.0
2026/01/15 03:59:30.000   67.857352079   20.968460255   391.0647   6  15   0.0756   0.0857   0.0785  -0.0446   0.0259  -0.0468   0.00    0.0
2026/01/15 04:00:00.000   67.857352090   20.968460248   391.0633   6  15   0.0755   0.0855   0.0784  -0.0445   0.0257  -0.0467   0.00    0.0
2026/01/15 04:00:30.000   67.857352098   20.968460237   391.0621   6  15   0.0753   0.0854   0.0782  -0.0443   0.0256  -0.0466   0.00    0.0
2026/01/15 04:01:00.000   67.857352110   20.968460211   391.0605   6  15   0.0752   0.0852   0.0781  -0.0441   0.0255  -0.0464   0.00    0.0
2026/01/15 04:01:30.000   67.857352122   20.968460197   391.0590   6  15   0.0750   0.0850   0.0779  -0.0440   0.0254  -0.0463   0.00    0.0
2026/01/15 04:51:00.000   67.857352105   20.968460665   391.0590   6   4   0.0728   0.0806   0.0769  -0.0409   0.0232  -0.0441   0.00    0.0
2026/01/15 04:52:30.000   67.857352101   20.968460686   391.0595   6   5   0.0727   0.0805   0.0769  -0.0408   0.0231  -0.0440   0.00    0.0
2026/01/15 04:53:00.000   67.857352102   20.968460688   391.0594   6  11   0.0727   0.0805   0.0769  -0.0408   0.0231  -0.0440   0.00    0.0
2026/01/15 04:53:30.000   67.857352104   20.968460689   391.0593   6  12   0.0727   0.0804   0.0769  -0.0407   0.0231  -0.0440   0.00    0.0
2026/01/15 04:54:00.000   67.857352104   20.968460694   391.0593   6  14   0.0727   0.0804   0.0769  -0.0407   0.0230  -0.0440   0.00    0.0
2026/01/15 04:54:30.000   67.857352102   20.968460707   391.0594   6  14   0.0727   0.0804   0.0769  -0.0407   0.0230  -0.0439   0.00    0.0
2026/01/15 04:55:00.000   67.857352103   20.968460716   391.0593   6  14   0.0726   0.0803   0.0769  -0.0407   0.0230  -0.0439   0.00    0.0
2026/01/15 04:55:30.000   67.857352102   20.968460726   391.0592   6  14   0.0726   0.0803   0.0769  -0.0406   0.0230  -0.0439   0.00    0.0
2026/01/15 04:56:00.000   67.857352104   20.968460730   391.0590   6  14   0.0726   0.0803   0.0768  -0.0406   0.0229  -0.0439   0.00    0.0
2026/01/15 05:01:00.000   67.857352115   20.968460714   391.0584   6   8   0.0724   0.0799   0.0767  -0.0403   0.0227  -0.0436   0.00    0.0
2026/01/15 05:01:30.000   67.857352116   20.968460710   391.0583   6  14   0.0723   0.0798   0.0767  -0.0403   0.0227  -0.0436   0.00    0.0
2026/01/15 05:02:00.000   67.857352119   20.968460707   391.0581   6  14   0.0723   0.0797   0.0767  -0.0402   0.0226  -0.0435   0.00    0.0
2026/01/15 05:02:30.000   67.857352121   20.968460706   391.0579   6  14   0.0722   0.0797   0.0767  -0.0402   0.0226  -0.0435   0.00    0.0
2026/01/15 05:03:00.000   67.857352120   20.968460713   391.0579   6  14   0.0722   0.0796   0.0766  -0.0402   0.0225  -0.0435   0.00    0.0
2026/01/15 05:03:30.000   67.857352121   20.968460713   391.0578   6  14   0.0722   0.0796   0.0766  -0.0401   0.0225  -0.0434   0.00    0.0
2026/01/15 05:04:00.000   67.857352125   20.968460715   391.0576   6  14   0.0721   0.0795   0.0766  -0.0401   0.0225  -0.0434   0.00    0.0
2026/01/15 05:04:30.000   67.857352127   20.968460713   391.0574   6  14   0.0721   0.0794   0.0766  -0.0400   0.0224  -0.0434   0.00    0.0
2026/01/15 05:05:00.000   67.857352130   20.968460702   391.0572   6  14   0.0720   0.0794   0.0766  -0.0400   0.0224  -0.0433   0.00    0.0
2026/01/15 05:05:30.000   67.857352130   20.968460710   391.0573   6  14   0.0720   0.0793   0.0765  -0.0399   0.0224  -0.0433   0.00    0.0
2026/01/15 05:06:00.000   67.857352133   20.968460715   391.0570   6  14   0.0720   0.0792   0.0765  -0.0399   0.0223  -0.0433   0.00    0.0
2026/01/15 05:06:30.000   67.857352135   20.968460708   391.0569   6  14   0.0719   0.0792   0.0765  -0.0398   0.0223  -0.0432   0.00    0.0
2026/01/15 05:07:00.000   67.857352138   20.968460709   391.0566   6  14   0.0719   0.0791   0.0765  -0.0398   0.0223  -0.0432   0.00    0.0
2026/01/15 05:07:30.000   67.857352139   20.968460710   391.0565   6  14   0.0718   0.0790   0.0764  -0.0397   0.0222  -0.0432   0.00    0.0
2026/01/15 05:08:00.000   67.857352139   20.968460710   391.0565   6  14   0.0718   0.0790   0.0764  -0.0397   0.0222  -0.0431   0.00    0.0
2026/01/15 05:08:30.000   67.857352140   20.968460707   391.0565   6  14   0.0717   0.0789   0.0764  -0.0396   0.0222  -0.0431   0.00    0.0
2026/01/15 05:09:00.000   67.857352143   20.968460693   391.0564   6  14   0.0717   0.0788   0.0764  -0.0396   0.0221  -0.0431   0.00    0.0
2026/01/15 05:09:30.000   67.857352144   20.968460694   391.0563   6  14   0.0716   0.0787   0.0763  -0.0395   0.0221  -0.0430   0.00    0.0
2026/01/15 05:10:00.000   67.857352145   20.968460707   391.0562   6  14   0.0716   0.0786   0.0763  -0.0395   0.0220  -0.0430   0.00    0.0
2026/01/15 05:10:30.000   67.857352148   20.968460704   391.0558   6  14   0.0715   0.0786   0.0763  -0.0394   0.0220  -0.0429   0.00    0.0
2026/01/15 05:11:00.000   67.857352149   20.968460700   391.0558   6  14   0.0715   0.0785   0.0763  -0.0394   0.0220  -0.0429   0.00    0.0
2026/01/15 05:11:30.000   67.857352150   20.968460699   391.0557   6  14   0.0714   0.0784   0.0762  -0.0393   0.0219  -0.0429   0.00    0.0
2026/01/15 05:12:00.000   67.857352153   20.968460696   391.0555   6  15   0.0714   0.0783   0.0762  -0.0392   0.0219  -0.0428   0.00    0.0
2026/01/15 05:12:30.000   67.857352152   20.968460694   391.0557   6  15   0.0713   0.0782   0.0762  -0.0392   0.0218  -0.0428   0.00    0.0
2026/01/15 05:13:00.000   67.857352152   20.968460712   391.0556   6  15   0.0712   0.0781   0.0761  -0.0391   0.0218  -0.0427   0.00    0.0
2026/01/15 05:13:30.000   67.857352150   20.968460714   391.0556   6  16   0.0712   0.0780   0.0761  -0.0390   0.0217  -0.0427   0.00    0.0
2026/01/15 05:14:00.000   67.857352149   20.968460726   391.0556   6  16   0.0711   0.0779   0.0761  -0.0389   0.0217  -0.0426   0.00    0.0
2026/01/15 05:14:30.000   67.857352147   20.968460736   391.0557   6  16   0.0710   0.0778   0.0760  -0.0389   0.0216  -0.0426   0.00    0.0
2026/01/15 05:15:00.000   67.857352150   20.968460738   391.0553   6  17   0.0710   0.0777   0.0760  -0.0388   0.0215  -0.0425   0.00    0.0
2026/01/15 05:15:30.000   67.857352150   20.968460725   391.0551   6  17   0.0709   0.0776   0.0759  -0.0387   0.0215  -0.0425   0.00    0.0
2026/01/15 05:16:00.000   67.857352152   20.968460725   391.0547   6  17   0.0708   0.0775   0.0759  -0.0386   0.0214  -0.0424   0.00    0.0
2026/01/15 05:16:30.000   67.857352154   20.968460707   391.0542   6  18   0.0707   0.0773   0.0758  -0.0385   0.0214  -0.0424   0.00    0.0
2026/01/15 05:17:00.000   67.857352159   20.968460696   391.0537   6  18   0.0706   0.0772   0.0758  -0.0384   0.0213  -0.0423   0.00    0.0
2026/01/15 05:17:30.000   67.857352158   20.968460693   391.0535   6  18   0.0706   0.0771   0.0757  -0.0383   0.0212  -0.0423   0.00    0.0
2026/01/15 06:54:00.000   67.857351518   20.968463109   391.0724   6   4   0.0652   0.0703   0.0739  -0.0308   0.0158  -0.0376   0.00    0.0
2026/01/15 06:54:30.000   67.857351515   20.968463115   391.0725   6   4   0.0652   0.0702   0.0739  -0.0308   0.0158  -0.0376   0.00    0.0
2026/01/15 06:55:00.000   67.857351511   20.968463123   391.0727   6   4   0.0651   0.0702   0.0739  -0.0307   0.0158  -0.0376   0.00    0.0
2026/01/15 06:55:30.000   67.857351508   20.968463130   391.0728   6   4   0.0651   0.0702   0.0739  -0.0307   0.0157  -0.0376   0.00    0.0
2026/01/15 06:56:00.000   67.857351505   20.968463148   391.0728   6   4   0.0651   0.0702   0.0739  -0.0307   0.0157  -0.0375   0.00    0.0
2026/01/15 06:56:30.000   67.857351502   20.968463152   391.0729   6   4   0.0651   0.0702   0.0738  -0.0306   0.0157  -0.0375   0.00    0.0
2026/01/15 06:57:00.000   67.857351499   20.968463160   391.0730   6   4   0.0650   0.0701   0.0738  -0.0306   0.0157  -0.0375   0.00    0.0
2026/01/15 06:57:30.000   67.857351497   20.968463168   391.0730   6   4   0.0650   0.0701   0.0738  -0.0306   0.0157  -0.0375   0.00    0.0
2026/01/15 06:58:00.000   67.857351494   20.968463177   391.0732   6   4   0.0650   0.0701   0.0738  -0.0305   0.0156  -0.0374   0.00    0.0
2026/01/15 06:58:30.000   67.857351492   20.968463183   391.0733   6   4   0.0650   0.0701   0.0738  -0.0305   0.0156  -0.0374   0.00    0.0
2026/01/15 06:59:00.000   67.857351486   20.968463197   391.0735   6   4   0.0650   0.0701   0.0738  -0.0305   0.0156  -0.0374   0.00    0.0
2026/01/15 06:59:30.000   67.857351485   20.968463204   391.0734   6   4   0.0649   0.0700   0.0738  -0.0304   0.0156  -0.0374   0.00    0.0
2026/01/15 07:00:00.000   67.857351484   20.968463214   391.0734   6   4   0.0649   0.0700   0.0738  -0.0304   0.0155  -0.0374   0.00    0.0
2026/01/15 07:00:30.000   67.857351484   20.968463226   391.0733   6   4   0.0649   0.0700   0.0738  -0.0304   0.0155  -0.0373   0.00    0.0
2026/01/15 07:01:00.000   67.857351479   20.968463236   391.0735   6   4   0.0649   0.0700   0.0738  -0.0303   0.0155  -0.0373   0.00    0.0
2026/01/15 07:01:30.000   67.857351478   20.968463244   391.0735   6   4   0.0648   0.0699   0.0738  -0.0303   0.0155  -0.0373   0.00    0.0
2026/01/15 07:02:00.000   67.857351475   20.968463261   391.0735   6   4   0.0648   0.0699   0.0738  -0.0303   0.0154  -0.0373   0.00    0.0
2026/01/15 07:02:30.000   67.857351473   20.968463268   391.0735   6   4   0.0648   0.0699   0.0738  -0.0302   0.0154  -0.0372   0.00    0.0
2026/01/15 07:03:00.000   67.857351470   20.968463274   391.0737   6   4   0.0648   0.0699   0.0737  -0.0302   0.0154  -0.0372   0.00    0.0
2026/01/15 07:03:30.000   67.857351467   20.968463281   391.0738   6   4   0.0648   0.0699   0.0737  -0.0302   0.0154  -0.0372   0.00    0.0
2026/01/15 07:04:00.000   67.857351463   20.968463287   391.0739   6   4   0.0647   0.0698   0.0737  -0.0301   0.0153  -0.0372   0.00    0.0
2026/01/15 07:04:30.000   67.857351462   20.968463295   391.0738   6   4   0.0647   0.0698   0.0737  -0.0301   0.0153  -0.0372   0.00    0.0
2026/01/15 07:05:00.000   67.857351459   20.968463309   391.0739   6   4   0.0647   0.0698   0.0737  -0.0301   0.0153  -0.0371   0.00    0.0
2026/01/15 07:05:30.000   67.857351455   20.968463323   391.0740   6   4   0.0647   0.0698   0.0737  -0.0300   0.0153  -0.0371   0.00    0.0
2026/01/15 07:16:30.000   67.857351394   20.968463510   391.0762   6  12   0.0642   0.0693   0.0735  -0.0293   0.0147  -0.0367   0.00    0.0
2026/01/15 07:17:00.000   67.857351392   20.968463516   391.0764   6  13   0.0642   0.0693   0.0735  -0.0293   0.0146  -0.0366   0.00    0.0
2026/01/15 07:17:30.000   67.857351388   20.968463524   391.0766   6  14   0.0642   0.0692   0.0735  -0.0293   0.0146  -0.0366   0.00    0.0
2026/01/15 07:18:00.000   67.857351388   20.968463532   391.0765   6  14   0.0642   0.0692   0.0735  -0.0292   0.0146  -0.0366   0.00    0.0
2026/01/15 07:18:30.000   67.857351385   20.968463543   391.0766   6  14   0.0641   0.0692   0.0735  -0.0292   0.0145  -0.0366   0.00    0.0
2026/01/15 07:19:00.000   67.857351384   20.968463552   391.0767   6  14   0.0641   0.0692   0.0735  -0.0292   0.0145  -0.0366   0.00    0.0
2026/01/15 07:19:30.000   67.857351381   20.968463558   391.0769   6  14   0.0641   0.0692   0.0735  -0.0291   0.0145  -0.0365   0.00    0.0
2026/01/15 07:20:00.000   67.857351381   20.968463562   391.0769   6  14   0.0641   0.0691   0.0735  -0.0291   0.0145  -0.0365   0.00    0.0
2026/01/15 07:20:30.000   67.857351377   20.968463580   391.0771   6  14   0.0641   0.0691   0.0735  -0.0291   0.0144  -0.0365   0.00    0.0
2026/01/15 07:21:00.000   67.857351374   20.968463595   391.0773   6  14   0.0640   0.0691   0.0735  -0.0290   0.0144  -0.0365   0.00    0.0
2026/01/15 07:21:30.000   67.857351369   20.968463599   391.0777   6  14   0.0640   0.0691   0.0734  -0.0290   0.0144  -0.0365   0.00    0.0
2026/01/15 07:22:00.000   67.857351367   20.968463610   391.0777   6  15   0.0640   0.0690   0.0734  -0.0290   0.0143  -0.0364   0.00    0.0
2026/01/15 07:22:30.000   67.857351365   20.968463618   391.0778   6  15   0.0640   0.0690   0.0734  -0.0289   0.0143  -0.0364   0.00    0.0
2026/01/15 07:23:00.000   67.857351361   20.968463627   391.0782   6  15   0.0639   0.0690   0.0734  -0.0289   0.0143  -0.0364   0.00    0.0
2026/01/15 07:23:30.000   67.857351360   20.968463638   391.0782   6  15   0.0639   0.0690   0.0734  -0.0289   0.0142  -0.0364   0.00    0.0
2026/01/15 07:24:00.000   67.857351359   20.968463643   391.0781   6  14   0.0639   0.0689   0.0734  -0.0288   0.0142  -0.0363   0.00    0.0
2026/01/15 07:24:30.000   67.857351354   20.968463653   391.0785   6  14   0.0639   0.0689   0.0734  -0.0288   0.0142  -0.0363   0.00    0.0
2026/01/15 07:25:00.000   67.857351351   20.968463664   391.0787   6  14   0.0638   0.0689   0.0734  -0.0288   0.0141  -0.0363   0.00    0.0
2026/01/15 07:25:30.000   67.857351349   20.968463667   391.0787   6  14   0.0638   0.0688   0.0733  -0.0287   0.0141  -0.0363   0.00    0.0
2026/01/15 07:26:00.000   67.857351347   20.968463674   391.0788   6  14   0.0638   0.0688   0.0733  -0.0287   0.0141  -0.0362   0.00    0.0
2026/01/15 07:26:30.000   67.857351345   20.968463688   391.0789   6  14   0.0637   0.0688   0.0733  -0.0287   0.0140  -0.0362   0.00    0.0
2026/01/15 07:27:00.000   67.857351345   20.968463690   391.0790   6  14   0.0637   0.0688   0.0733  -0.0286   0.0140  -0.0362   0.00    0.0
2026/01/15 07:27:30.000   67.857351344   20.968463693   391.0790   6  14   0.0637   0.0687   0.0733  -0.0286   0.0140  -0.0362   0.00    0.0
2026/01/15 07:28:00.000   67.857351343   20.968463698   391.0789   6  15   0.0637   0.0687   0.0733  -0.0285   0.0139  -0.0362   0.00    0.0
2026/01/15 07:28:30.000   67.857351344   20.968463699   391.0788   6  16   0.0636   0.0687   0.0732  -0.0285   0.0139  -0.0361   0.00    0.0
2026/01/15 07:29:00.000   67.857351344   20.968463702   391.0788   6  17   0.0636   0.0686   0.0732  -0.0285   0.0139  -0.0361   0.00    0.0
2026/01/15 07:29:30.000   67.857351344   20.968463711   391.0786   6  17   0.0635   0.0686   0.0732  -0.0284   0.0139  -0.0361   0.00    0.0
2026/01/15 07:30:00.000   67.857351345   20.968463715   391.0785   6  17   0.0635   0.0686   0.0732  -0.0284   0.0138  -0.0361   0.00    0.0
2026/01/15 07:30:30.000   67.857351339   20.968463729   391.0788   6  17   0.0635   0.0685   0.0731  -0.0283   0.0138  -0.0360   0.00    0.0
2026/01/15 07:31:00.000   67.857351340   20.968463729   391.0787   6  17   0.0634   0.0685   0.0731  -0.0283   0.0138  -0.0360   0.00    0.0
2026/01/15 07:31:30.000   67.857351341   20.968463730   391.0787   6  17   0.0634   0.0685   0.0731  -0.0283   0.0138  -0.0360   0.00    0.0
2026/01/15 07:32:00.000   67.857351339   20.968463739   391.0787   6  17   0.0633   0.0684   0.0730  -0.0282   0.0137  -0.0359   0.00    0.0
