% program   : RTKPOST-EX 2.5.0
% inp file  : C:\PPP_PROJECT\New_Data\obs\RNXDATA\KIRU00SWE_R_20260150000_01D_30S_MO.rnx
% inp file  : C:\PPP_PROJECT\New_Data\nav\BRDC00IGS_R_20260150000_01D_MN.rnx
% inp file  : C:\PPP_PROJECT\New_Data\DATA_FINAL_ANT_EXTRA\COD0MGXFIN_20260150000_01D_05M_ORB.SP3
% inp file  : C:\PPP_PROJECT\New_Data\DATA_FINAL_ANT_EXTRA\COD0MGXFIN_20260150000_01D_30S_CLK.CLK
% obs start : 2026/01/15 00:00:00.0 GPST (week2401 345600.0s)
% obs end   : 2026/01/15 23:59:30.0 GPST (week2401 431970.0s)
% pos mode  : PPP Static
% freqs     : L1+L2/E5b
% solution  : Forward
% elev mask : 15.0 deg
% dynamics  : on
% tidecorr  :
% ionos opt : Iono-Free LC
% tropo opt : Saastamoinen
% ephemeris : Precise
% navi sys  : GPS Galileo BDS
% antenna1  :                       ( 0.0000  0.0000  0.0000)
%
% (lat/lon/height=WGS84/ellipsoidal,Q=1:fix,2:float,3:sbas,4:dgps,5:single,6:ppp,ns=# of satellites)
%  GPST                  latitude(deg) longitude(deg)  height(m)   Q  ns   sdn(m)   sde(m)   sdu(m)  sdne(m)  sdeu(m)  sdun(m) age(s)  ratio
2026/01/15 00:00:00.000   67.857347853   20.968477909   392.2088   6   9   2.9458   2.7869   7.0697  -0.7086  -1.2424   2.5553   0.00    0.0
2026/01/15 00:46:30.000   67.857350255   20.968466454   392.1281   6   4   0.3120   0.2698   0.7581  -0.0932  -0.2329   0.3041   0.00    0.0
2026/01/15 00:47:00.000   67.857350291   20.968466511   392.1413   6   9   0.3110   0.2685   0.7556  -0.0936  -0.2321   0.3041   0.00    0.0
2026/01/15 00:47:30.000   67.857350276   20.968466471   392.1412   6   8   0.3099   0.2672   0.7534  -0.0938  -0.2311   0.3042   0.00    0.0
2026/01/15 00:51:00.000   67.857350296   20.968466701   392.1238   6   8   0.3020   0.2585   0.7332  -0.0956  -0.2240   0.2998   0.00    0.0
2026/01/15 00:51:30.000   67.857350335   20.968466759   392.1214   6  15   0.3008   0.2573   0.7291  -0.0956  -0.2225   0.2985   0.00    0.0
2026/01/15 00:52:00.000   67.857350316   20.968466769   392.1201   6   7   0.2996   0.2561   0.7252  -0.0956  -0.2211   0.2972   0.00    0.0
2026/01/15 00:52:30.000   67.857350274   20.968466754   392.1138   6   7   0.2984   0.2549   0.7214  -0.0955  -0.2197   0.2960   0.00    0.0
2026/01/15 00:53:00.000   67.857350243   20.968466814   392.0987   6  13   0.2972   0.2537   0.7173  -0.0955  -0.2182   0.2947   0.00    0.0
2026/01/15 00:53:30.000   67.857350203   20.968466912   392.0873   6   7   0.2960   0.2525   0.7132  -0.0954  -0.2168   0.2933   0.00    0.0
2026/01/15 00:54:00.000   67.857350213   20.968466987   392.0838   6  14   0.2947   0.2514   0.7091  -0.0952  -0.2151   0.2918   0.00    0.0
2026/01/15 00:54:30.000   67.857350211   20.968466929   392.0782   6  13   0.2935   0.2502   0.7049  -0.0950  -0.2134   0.2901   0.00    0.0
2026/01/15 00:55:00.000   67.857350182   20.968466965   392.0719   6  14   0.2922   0.2490   0.7004  -0.0948  -0.2116   0.2883   0.00    0.0
2026/01/15 00:55:30.000   67.857350194   20.968466932   392.0688   6  14   0.2908   0.2478   0.6957  -0.0944  -0.2098   0.2864   0.00    0.0
2026/01/15 00:56:00.000   67.857350193   20.968466891   392.0623   6  15   0.2894   0.2467   0.6906  -0.0941  -0.2078   0.2842   0.00    0.0
2026/01/15 00:56:30.000   67.857350171   20.968466733   392.0531   6  14   0.2880   0.2455   0.6852  -0.0936  -0.2056   0.2819   0.00    0.0
2026/01/15 00:57:00.000   67.857350159   20.968466758   392.0337   6  14   0.2866   0.2443   0.6795  -0.0931  -0.2034   0.2792   0.00    0.0
2026/01/15 00:57:30.000   67.857350148   20.968466776   392.0138   6  13   0.2851   0.2432   0.6737  -0.0924  -0.2009   0.2765   0.00    0.0
2026/01/15 00:58:00.000   67.857350145   20.968466942   391.9907   6  14   0.2836   0.2420   0.6674  -0.0917  -0.1983   0.2735   0.00    0.0
2026/01/15 00:58:30.000   67.857350107   20.968466919   391.9876   6  14   0.2821   0.2409   0.6615  -0.0910  -0.1960   0.2703   0.00    0.0
2026/01/15 00:59:00.000   67.857350114   20.968466944   391.9764   6  14   0.2805   0.2399   0.6555  -0.0902  -0.1936   0.2670   0.00    0.0
2026/01/15 00:59:30.000   67.857350063   20.968466961   391.9664   6  14   0.2788   0.2388   0.6491  -0.0893  -0.1911   0.2634   0.00    0.0
2026/01/15 01:00:00.000   67.857350037   20.968466916   391.9456   6  14   0.2773   0.2377   0.6426  -0.0884  -0.1884   0.2599   0.00    0.0
2026/01/15 01:00:30.000   67.857350011   20.968466936   391.9262   6  14   0.2757   0.2366   0.6359  -0.0875  -0.1857   0.2562   0.00    0.0
2026/01/15 01:01:00.000   67.857349980   20.968467023   391.9090   6  14   0.2740   0.2356   0.6289  -0.0865  -0.1829   0.2523   0.00    0.0
2026/01/15 01:01:30.000   67.857349964   20.968467022   391.8889   6  14   0.2724   0.2345   0.6216  -0.0854  -0.1800   0.2482   0.00    0.0
2026/01/15 01:02:00.000   67.857349946   20.968467034   391.8745   6  14   0.2706   0.2335   0.6141  -0.0843  -0.1770   0.2439   0.00    0.0
2026/01/15 01:02:30.000   67.857349943   20.968467024   391.8616   6  14   0.2689   0.2324   0.6063  -0.0832  -0.1740   0.2394   0.00    0.0
2026/01/15 01:03:00.000   67.857349940   20.968466994   391.8529   6  15   0.2671   0.2313   0.5981  -0.0819  -0.1706   0.2346   0.00    0.0
2026/01/15 01:03:30.000   67.857349956   20.968466906   391.8445   6  15   0.2654   0.2302   0.5897  -0.0806  -0.1672   0.2297   0.00    0.0
2026/01/15 01:04:00.000   67.857349931   20.968466946   391.8316   6  15   0.2636   0.2291   0.5812  -0.0793  -0.1637   0.2247   0.00    0.0
2026/01/15 01:04:30.000   67.857349875   20.968466905   391.8267   6  15   0.2618   0.2281   0.5725  -0.0780  -0.1602   0.2195   0.00    0.0
2026/01/15 01:05:00.000   67.857349867   20.968466910   391.8123   6  15   0.2600   0.2270   0.5637  -0.0767  -0.1567   0.2141   0.00    0.0
2026/01/15 01:05:30.000   67.857349851   20.968466913   391.7993   6  15   0.2581   0.2260   0.5548  -0.0753  -0.1531   0.2087   0.00    0.0
2026/01/15 01:06:00.000   67.857349841   20.968467022   391.7848   6  15   0.2563   0.2249   0.5459  -0.0740  -0.1496   0.2031   0.00    0.0
2026/01/15 01:06:30.000   67.857349811   20.968467023   391.7705   6  15   0.2545   0.2239   0.5369  -0.0727  -0.1460   0.1974   0.00    0.0
2026/01/15 01:07:00.000   67.857349811   20.968466939   391.7603   6  15   0.2527   0.2229   0.5278  -0.0714  -0.1424   0.1916   0.00    0.0
2026/01/15 01:07:30.000   67.857349764   20.968466943   391.7514   6  15   0.2508   0.2219   0.5188  -0.0700  -0.1389   0.1857   0.00    0.0
2026/01/15 01:08:00.000   67.857349724   20.968466903   391.7435   6  15   0.2490   0.2209   0.5097  -0.0687  -0.1353   0.1797   0.00    0.0
2026/01/15 01:08:30.000   67.857349718   20.968466911   391.7320   6  15   0.2472   0.2199   0.5007  -0.0675  -0.1318   0.1736   0.00    0.0
2026/01/15 01:09:00.000   67.857349674   20.968466941   391.7224   6  15   0.2454   0.2190   0.4918  -0.0662  -0.1282   0.1674   0.00    0.0
2026/01/15 01:09:30.000   67.857349625   20.968466986   391.7102   6  15   0.2436   0.2180   0.4829  -0.0650  -0.1247   0.1612   0.00    0.0
2026/01/15 01:10:00.000   67.857349600   20.968466978   391.7035   6  15   0.2418   0.2171   0.4741  -0.0638  -0.1213   0.1549   0.00    0.0
2026/01/15 01:10:30.000   67.857349567   20.968466909   391.6994   6  15   0.2400   0.2161   0.4654  -0.0627  -0.1179   0.1485   0.00    0.0
2026/01/15 01:11:00.000   67.857349528   20.968466938   391.6883   6  15   0.2382   0.2152   0.4568  -0.0616  -0.1145   0.1421   0.00    0.0
2026/01/15 01:11:30.000   67.857349508   20.968466919   391.6774   6  15   0.2364   0.2143   0.4483  -0.0605  -0.1111   0.1356   0.00    0.0
2026/01/15 01:12:00.000   67.857349510   20.968466959   391.6601   6  15   0.2347   0.2134   0.4400  -0.0595  -0.1079   0.1290   0.00    0.0
2026/01/15 01:12:30.000   67.857349452   20.968466952   391.6507   6  15   0.2330   0.2125   0.4320  -0.0587  -0.1049   0.1225   0.00    0.0
2026/01/15 01:13:00.000   67.857349447   20.968467004   391.6354   6  15   0.2313   0.2117   0.4241  -0.0580  -0.1019   0.1160   0.00    0.0
2026/01/15 01:13:30.000   67.857349419   20.968466958   391.6286   6  15   0.2296   0.2108   0.4164  -0.0573  -0.0991   0.1094   0.00    0.0
2026/01/15 01:14:00.000   67.857349423   20.968467010   391.6193   6  15   0.2280   0.2100   0.4088  -0.0566  -0.0963   0.1027   0.00    0.0
2026/01/15 01:14:30.000   67.857349430   20.968466969   391.6104   6  15   0.2263   0.2092   0.4014  -0.0561  -0.0936   0.0959   0.00    0.0
2026/01/15 01:15:00.000   67.857349435   20.968466985   391.6015   6  15   0.2247   0.2084   0.3941  -0.0555  -0.0910   0.0888   0.00    0.0
2026/01/15 01:15:30.000   67.857349431   20.968466978   391.5902   6  15   0.2231   0.2076   0.3870  -0.0550  -0.0884   0.0816   0.00    0.0
2026/01/15 01:16:00.000   67.857349427   20.968467008   391.5836   6  15   0.2215   0.2068   0.3800  -0.0546  -0.0859   0.0740   0.00    0.0
2026/01/15 01:16:30.000   67.857349417   20.968467057   391.5762   6  15   0.2199   0.2060   0.3731  -0.0542  -0.0834   0.0661   0.00    0.0
2026/01/15 01:17:00.000   67.857349427   20.968467037   391.5667   6  15   0.2183   0.2052   0.3664  -0.0539  -0.0810   0.0576   0.00    0.0
2026/01/15 01:17:30.000   67.857349412   20.968467056   391.5571   6  15   0.2167   0.2044   0.3599  -0.0536  -0.0786   0.0481   0.00    0.0
2026/01/15 01:18:00.000   67.857349424   20.968467056   391.5521   6  15   0.2151   0.2036   0.3535  -0.0534  -0.0763   0.0371   0.00    0.0
2026/01/15 01:18:30.000   67.857349421   20.968467116   391.5449   6  15   0.2135   0.2028   0.3472  -0.0532  -0.0741   0.0223   0.00    0.0
2026/01/15 01:19:00.000   67.857349414   20.968467032   391.5391   6  15   0.2120   0.2020   0.3411  -0.0530  -0.0719  -0.0182   0.00    0.0
2026/01/15 01:19:30.000   67.857349434   20.968467092   391.5313   6  15   0.2104   0.2012   0.3351  -0.0529  -0.0698  -0.0333   0.00    0.0
2026/01/15 01:20:00.000   67.857349453   20.968467087   391.5228   6  15   0.2088   0.2005   0.3292  -0.0528  -0.0677  -0.0428   0.00    0.0
2026/01/15 01:20:30.000   67.857349462   20.968467027   391.5140   6  17   0.2072   0.1996   0.3234  -0.0528  -0.0657  -0.0496   0.00    0.0
2026/01/15 01:21:00.000   67.857349469   20.968467059   391.5054   6  17   0.2056   0.1988   0.3178  -0.0528  -0.0638  -0.0551   0.00    0.0
2026/01/15 01:21:30.000   67.857349497   20.968467034   391.4994   6  17   0.2040   0.1980   0.3124  -0.0528  -0.0621  -0.0600   0.00    0.0
2026/01/15 01:22:00.000   67.857349530   20.968466946   391.4916   6  17   0.2024   0.1972   0.3071  -0.0528  -0.0604  -0.0641   0.00    0.0
2026/01/15 01:22:30.000   67.857349571   20.968466867   391.4828   6  17   0.2008   0.1964   0.3020  -0.0529  -0.0588  -0.0677   0.00    0.0
2026/01/15 01:23:00.000   67.857349593   20.968466805   391.4751   6  17   0.1992   0.1955   0.2970  -0.0529  -0.0573  -0.0708   0.00    0.0
2026/01/15 01:23:30.000   67.857349623   20.968466799   391.4677   6  17   0.1976   0.1947   0.2921  -0.0530  -0.0558  -0.0735   0.00    0.0
2026/01/15 01:24:00.000   67.857349665   20.968466707   391.4612   6  17   0.1960   0.1939   0.2872  -0.0531  -0.0544  -0.0759   0.00    0.0
2026/01/15 01:24:30.000   67.857349697   20.968466631   391.4526   6  16   0.1946   0.1931   0.2826  -0.0532  -0.0530  -0.0783   0.00    0.0
2026/01/15 01:25:00.000   67.857349723   20.968466535   391.4505   6   7   0.1935   0.1923   0.2797  -0.0533  -0.0522  -0.0790   0.00    0.0
2026/01/15 01:26:00.000   67.857349719   20.968466366   391.4476   6  14   0.1914   0.1909   0.2747  -0.0537  -0.0504  -0.0805   0.00    0.0
2026/01/15 01:26:30.000   67.857349726   20.968466334   391.4447   6   7   0.1902   0.1902   0.2717  -0.0538  -0.0497  -0.0810   0.00    0.0
2026/01/15 01:27:00.000   67.857349751   20.968466291   391.4409   6  13   0.1888   0.1894   0.2683  -0.0541  -0.0492  -0.0824   0.00    0.0
2026/01/15 01:27:30.000   67.857349782   20.968466311   391.4340   6  14   0.1870   0.1886   0.2636  -0.0544  -0.0478  -0.0839   0.00    0.0
2026/01/15 01:28:00.000   67.857349827   20.968466238   391.4273   6  14   0.1853   0.1878   0.2591  -0.0548  -0.0465  -0.0852   0.00    0.0
2026/01/15 01:28:30.000   67.857349869   20.968466206   391.4194   6  15   0.1836   0.1870   0.2548  -0.0551  -0.0452  -0.0862   0.00    0.0
2026/01/15 01:29:00.000   67.857349888   20.968466134   391.4154   6  16   0.1818   0.1862   0.2505  -0.0554  -0.0439  -0.0872   0.00    0.0
2026/01/15 01:29:30.000   67.857349909   20.968466086   391.4106   6  15   0.1801   0.1854   0.2464  -0.0558  -0.0427  -0.0880   0.00    0.0
2026/01/15 01:30:00.000   67.857349944   20.968466051   391.4042   6  14   0.1785   0.1846   0.2424  -0.0561  -0.0415  -0.0886   0.00    0.0
2026/01/15 01:30:30.000   67.857350003   20.968465997   391.3956   6  15   0.1768   0.1838   0.2385  -0.0565  -0.0404  -0.0891   0.00    0.0
2026/01/15 01:31:00.000   67.857350047   20.968466019   391.3862   6  15   0.1751   0.1830   0.2347  -0.0568  -0.0393  -0.0895   0.00    0.0
2026/01/15 01:31:30.000   67.857350088   20.968465951   391.3806   6  16   0.1734   0.1821   0.2310  -0.0571  -0.0382  -0.0898   0.00    0.0
2026/01/15 01:32:00.000   67.857350117   20.968465902   391.3754   6  15   0.1718   0.1813   0.2275  -0.0575  -0.0372  -0.0900   0.00    0.0
2026/01/15 01:32:30.000   67.857350154   20.968465899   391.3680   6  14   0.1701   0.1805   0.2240  -0.0578  -0.0363  -0.0902   0.00    0.0
2026/01/15 01:33:00.000   67.857350200   20.968465865   391.3599   6  15   0.1685   0.1797   0.2205  -0.0581  -0.0353  -0.0902   0.00    0.0
2026/01/15 01:33:30.000   67.857350250   20.968465817   391.3535   6  15   0.1669   0.1789   0.2172  -0.0585  -0.0344  -0.0901   0.00    0.0
2026/01/15 01:34:00.000   67.857350285   20.968465749   391.3478   6  15   0.1653   0.1781   0.2140  -0.0588  -0.0336  -0.0900   0.00    0.0
2026/01/15 01:34:30.000   67.857350324   20.968465798   391.3415   6  15   0.1637   0.1773   0.2108  -0.0591  -0.0327  -0.0899   0.00    0.0
2026/01/15 01:35:00.000   67.857350348   20.968465736   391.3369   6  15   0.1621   0.1764   0.2077  -0.0594  -0.0319  -0.0897   0.00    0.0
2026/01/15 01:35:30.000   67.857350381   20.968465799   391.3313   6  16   0.1605   0.1756   0.2046  -0.0597  -0.0311  -0.0894   0.00    0.0
2026/01/15 01:36:00.000   67.857350421   20.968465714   391.3259   6  16   0.1590   0.1748   0.2017  -0.0600  -0.0304  -0.0891   0.00    0.0
2026/01/15 01:36:30.000   67.857350429   20.968465695   391.3229   6  16   0.1578   0.1741   0.1990  -0.0609  -0.0286  -0.0893   0.00    0.0
2026/01/15 01:37:00.000   67.857350453   20.968465708   391.3179   6  16   0.1566   0.1734   0.1964  -0.0617  -0.0268  -0.0894   0.00    0.0
2026/01/15 01:37:30.000   67.857350456   20.968465683   391.3158   6  16   0.1555   0.1727   0.1938  -0.0625  -0.0249  -0.0895   0.00    0.0
2026/01/15 01:38:00.000   67.857350462   20.968465735   391.3137   6  16   0.1543   0.1721   0.1913  -0.0633  -0.0230  -0.0895   0.00    0.0
2026/01/15 01:38:30.000   67.857350472   20.968465736   391.3099   6  16   0.1532   0.1714   0.1888  -0.0641  -0.0209  -0.0895   0.00    0.0
2026/01/15 01:39:00.000   67.857350482   20.968465696   391.3066   6  16   0.1520   0.1707   0.1864  -0.0649  -0.0186  -0.0895   0.00    0.0
2026/01/15 01:39:30.000   67.857350500   20.968465638   391.3026   6  16   0.1509   0.1700   0.1840  -0.0656  -0.0161  -0.0894   0.00    0.0
2026/01/15 01:40:00.000   67.857350520   20.968465679   391.2982   6  16   0.1498   0.1693   0.1817  -0.0663  -0.0132  -0.0893   0.00    0.0
2026/01/15 01:40:30.000   67.857350539   20.968465628   391.2950   6  16   0.1487   0.1687   0.1794  -0.0670  -0.0096  -0.0891   0.00    0.0
2026/01/15 01:41:00.000   67.857350539   20.968465634   391.2921   6  16   0.1476   0.1680   0.1772  -0.0677  -0.0037  -0.0889   0.00    0.0
2026/01/15 01:41:30.000   67.857350542   20.968465618   391.2898   6  16   0.1465   0.1673   0.1750  -0.0683   0.0079  -0.0887   0.00    0.0
2026/01/15 01:42:00.000   67.857350566   20.968465628   391.2853   6  16   0.1454   0.1666   0.1729  -0.0690   0.0116  -0.0884   0.00    0.0
2026/01/15 01:42:30.000   67.857350585   20.968465650   391.2816   6  16   0.1443   0.1659   0.1707  -0.0696   0.0143  -0.0882   0.00    0.0
2026/01/15 01:43:00.000   67.857350603   20.968465657   391.2789   6  16   0.1433   0.1653   0.1687  -0.0702   0.0164  -0.0878   0.00    0.0
2026/01/15 01:43:30.000   67.857350615   20.968465703   391.2752   6  16   0.1422   0.1646   0.1666  -0.0707   0.0183  -0.0875   0.00    0.0
2026/01/15 01:44:00.000   67.857350624   20.968465730   391.2722   6  16   0.1411   0.1639   0.1646  -0.0712   0.0199  -0.0872   0.00    0.0
2026/01/15 01:44:30.000   67.857350653   20.968465730   391.2681   6  16   0.1401   0.1632   0.1626  -0.0717   0.0213  -0.0868   0.00    0.0
2026/01/15 01:45:00.000   67.857350678   20.968465711   391.2634   6  16   0.1391   0.1625   0.1607  -0.0722   0.0226  -0.0864   0.00    0.0
2026/01/15 01:45:30.000   67.857350695   20.968465688   391.2598   6  16   0.1380   0.1619   0.1588  -0.0727   0.0238  -0.0860   0.00    0.0
2026/01/15 01:46:00.000   67.857350717   20.968465647   391.2568   6  16   0.1370   0.1612   0.1569  -0.0732   0.0249  -0.0855   0.00    0.0
2026/01/15 01:46:30.000   67.857350734   20.968465611   391.2533   6  16   0.1360   0.1606   0.1551  -0.0736   0.0260  -0.0851   0.00    0.0
2026/01/15 01:47:00.000   67.857350745   20.968465637   391.2496   6  16   0.1350   0.1599   0.1533  -0.0741   0.0270  -0.0847   0.00    0.0
2026/01/15 01:47:30.000   67.857350760   20.968465644   391.2459   6  16   0.1341   0.1593   0.1515  -0.0746   0.0279  -0.0843   0.00    0.0
2026/01/15 01:48:00.000   67.857350772   20.968465646   391.2432   6  16   0.1332   0.1587   0.1498  -0.0751   0.0287  -0.0838   0.00    0.0
2026/01/15 01:48:30.000   67.857350795   20.968465602   391.2391   6  16   0.1323   0.1581   0.1481  -0.0756   0.0295  -0.0834   0.00    0.0
2026/01/15 01:49:00.000   67.857350808   20.968465591   391.2355   6  16   0.1314   0.1575   0.1464  -0.0760   0.0302  -0.0829   0.00    0.0
2026/01/15 01:49:30.000   67.857350818   20.968465604   391.2320   6  17   0.1304   0.1569   0.1447  -0.0764   0.0309  -0.0824   0.00    0.0
2026/01/15 01:50:00.000   67.857350836   20.968465593   391.2286   6  17   0.1295   0.1563   0.1431  -0.0768   0.0315  -0.0819   0.00    0.0
2026/01/15 01:50:30.000   67.857350852   20.968465602   391.2250   6  17   0.1287   0.1557   0.1415  -0.0772   0.0321  -0.0814   0.00    0.0
2026/01/15 01:51:00.000   67.857350873   20.968465585   391.2218   6  17   0.1278   0.1551   0.1399  -0.0776   0.0326  -0.0809   0.00    0.0
2026/01/15 01:51:30.000   67.857350893   20.968465566   391.2187   6  17   0.1269   0.1545   0.1384  -0.0780   0.0332  -0.0804   0.00    0.0
2026/01/15 01:52:00.000   67.857350915   20.968465515   391.2150   6  17   0.1260   0.1540   0.1368  -0.0783   0.0336  -0.0799   0.00    0.0
2026/01/15 01:52:30.000   67.857350923   20.968465491   391.2126   6  17   0.1252   0.1534   0.1353  -0.0786   0.0341  -0.0794   0.00    0.0
2026/01/15 01:53:00.000   67.857350941   20.968465486   391.2090   6  17   0.1244   0.1528   0.1338  -0.0789   0.0345  -0.0789   0.00    0.0
2026/01/15 01:53:30.000   67.857350958   20.968465454   391.2051   6  17   0.1235   0.1522   0.1324  -0.0792   0.0349  -0.0783   0.00    0.0
2026/01/15 01:54:00.000   67.857350979   20.968465448   391.2010   6  17   0.1227   0.1516   0.1309  -0.0795   0.0353  -0.0778   0.00    0.0
2026/01/15 01:54:30.000   67.857351000   20.968465382   391.1967   6  17   0.1219   0.1510   0.1295  -0.0798   0.0356  -0.0773   0.00    0.0
2026/01/15 01:55:00.000   67.857351018   20.968465397   391.1932   6  17   0.1211   0.1504   0.1281  -0.0800   0.0359  -0.0767   0.00    0.0
2026/01/15 01:55:30.000   67.857351036   20.968465370   391.1900   6  17   0.1203   0.1498   0.1267  -0.0802   0.0362  -0.0762   0.00    0.0
2026/01/15 01:56:00.000   67.857351054   20.968465341   391.1869   6  17   0.1195   0.1492   0.1254  -0.0804   0.0365  -0.0757   0.00    0.0
2026/01/15 01:56:30.000   67.857351066   20.968465339   391.1843   6  17   0.1187   0.1486   0.1240  -0.0806   0.0368  -0.0751   0.00    0.0
2026/01/15 01:57:00.000   67.857351089   20.968465313   391.1808   6  17   0.1179   0.1480   0.1227  -0.0808   0.0370  -0.0746   0.00    0.0
2026/01/15 01:57:30.000   67.857351104   20.968465290   391.1771   6  18   0.1171   0.1474   0.1214  -0.0809   0.0372  -0.0741   0.00    0.0
2026/01/15 01:58:00.000   67.857351121   20.968465255   391.1738   6  18   0.1164   0.1468   0.1201  -0.0810   0.0373  -0.0735   0.00    0.0
2026/01/15 01:58:30.000   67.857351137   20.968465222   391.1707   6  18   0.1156   0.1461   0.1189  -0.0811   0.0374  -0.0730   0.00    0.0
2026/01/15 01:59:00.000   67.857351148   20.968465197   391.1675   6  18   0.1148   0.1455   0.1176  -0.0812   0.0376  -0.0724   0.00    0.0
2026/01/15 01:59:30.000   67.857351163   20.968465182   391.1637   6  18   0.1141   0.1449   0.1164  -0.0813   0.0377  -0.0719   0.00    0.0
2026/01/15 02:00:00.000   67.857351174   20.968465160   391.1610   6  18   0.1133   0.1442   0.1152  -0.0813   0.0377  -0.0713   0.00    0.0
2026/01/15 02:00:30.000   67.857351207   20.968465077   391.1570   6  18   0.1126   0.1436   0.1140  -0.0814   0.0378  -0.0708   0.00    0.0
2026/01/15 02:01:00.000   67.857351235   20.968465008   391.1531   6  18   0.1119   0.1430   0.1128  -0.0814   0.0379  -0.0702   0.00    0.0
2026/01/15 02:01:30.000   67.857351258   20.968464971   391.1495   6  18   0.1112   0.1423   0.1117  -0.0814   0.0379  -0.0697   0.00    0.0
2026/01/15 02:02:00.000   67.857351279   20.968464919   391.1459   6  18   0.1104   0.1417   0.1105  -0.0814   0.0379  -0.0692   0.00    0.0
2026/01/15 02:02:30.000   67.857351299   20.968464880   391.1421   6  19   0.1097   0.1410   0.1095  -0.0814   0.0379  -0.0687   0.00    0.0
2026/01/15 02:03:00.000   67.857351320   20.968464833   391.1387   6  19   0.1091   0.1403   0.1084  -0.0813   0.0379  -0.0682   0.00    0.0
2026/01/15 02:03:30.000   67.857351337   20.968464785   391.1353   6  19   0.1084   0.1397   0.1074  -0.0813   0.0378  -0.0678   0.00    0.0
2026/01/15 02:04:00.000   67.857351354   20.968464748   391.1318   6  19   0.1077   0.1390   0.1064  -0.0812   0.0378  -0.0673   0.00    0.0
2026/01/15 02:04:30.000   67.857351384   20.968464670   391.1282   6  19   0.1070   0.1383   0.1054  -0.0811   0.0377  -0.0668   0.00    0.0
2026/01/15 02:05:00.000   67.857351393   20.968464642   391.1254   6  19   0.1064   0.1376   0.1044  -0.0810   0.0377  -0.0664   0.00    0.0
2026/01/15 02:05:30.000   67.857351408   20.968464604   391.1226   6  19   0.1057   0.1370   0.1034  -0.0809   0.0376  -0.0659   0.00    0.0
2026/01/15 02:06:00.000   67.857351422   20.968464568   391.1200   6  19   0.1051   0.1363   0.1024  -0.0808   0.0375  -0.0654   0.00    0.0
2026/01/15 02:06:30.000   67.857351438   20.968464520   391.1168   6  19   0.1044   0.1356   0.1015  -0.0806   0.0374  -0.0650   0.00    0.0
2026/01/15 02:07:00.000   67.857351454   20.968464453   391.1138   6  19   0.1038   0.1349   0.1006  -0.0805   0.0373  -0.0645   0.00    0.0
2026/01/15 02:07:30.000   67.857351477   20.968464365   391.1105   6  19   0.1031   0.1342   0.0996  -0.0803   0.0371  -0.0640   0.00    0.0
2026/01/15 02:08:00.000   67.857351500   20.968464277   391.1068   6  19   0.1025   0.1335   0.0987  -0.0802   0.0370  -0.0636   0.00    0.0
2026/01/15 02:08:30.000   67.857351522   20.968464199   391.1032   6  20   0.1019   0.1328   0.0978  -0.0800   0.0370  -0.0632   0.00    0.0
2026/01/15 02:09:00.000   67.857351537   20.968464142   391.1001   6  20   0.1013   0.1321   0.0970  -0.0799   0.0369  -0.0627   0.00    0.0
2026/01/15 02:22:30.000   67.857351521   20.968463843   391.1040   6   4   0.0990   0.1266   0.0962  -0.0762   0.0347  -0.0610   0.00    0.0
2026/01/15 02:33:00.000   67.857351498   20.968463646   391.1071   6   5   0.0974   0.1228   0.0957  -0.0736   0.0331  -0.0598   0.00    0.0
2026/01/15 02:33:30.000   67.857351499   20.968463616   391.1073   6   6   0.0973   0.1226   0.0957  -0.0735   0.0330  -0.0598   0.00    0.0
2026/01/15 02:34:00.000   67.857351495   20.968463620   391.1077   6  15   0.0973   0.1224   0.0957  -0.0734   0.0329  -0.0597   0.00    0.0
2026/01/15 02:35:00.000   67.857351505   20.968463551   391.1076   6  16   0.0971   0.1221   0.0956  -0.0731   0.0328  -0.0596   0.00    0.0
2026/01/15 02:35:30.000   67.857351507   20.968463537   391.1076   6  16   0.0971   0.1219   0.0956  -0.0730   0.0327  -0.0595   0.00    0.0
2026/01/15 02:36:00.000   67.857351507   20.968463536   391.1076   6  16   0.0970   0.1217   0.0956  -0.0729   0.0326  -0.0595   0.00    0.0
2026/01/15 02:36:30.000   67.857351506   20.968463515   391.1079   6  16   0.0969   0.1215   0.0956  -0.0727   0.0326  -0.0594   0.00    0.0
2026/01/15 02:37:30.000   67.857351511   20.968463487   391.1079   6  16   0.0968   0.1212   0.0955  -0.0725   0.0324  -0.0593   0.00    0.0
2026/01/15 02:38:00.000   67.857351518   20.968463457   391.1079   6  16   0.0967   0.1210   0.0955  -0.0724   0.0324  -0.0593   0.00    0.0
2026/01/15 02:38:30.000   67.857351519   20.968463433   391.1080   6  16   0.0966   0.1208   0.0955  -0.0722   0.0323  -0.0592   0.00    0.0
2026/01/15 02:39:00.000   67.857351520   20.968463422   391.1081   6  16   0.0965   0.1206   0.0954  -0.0721   0.0322  -0.0592   0.00    0.0
2026/01/15 02:39:30.000   67.857351525   20.968463393   391.1080   6  16   0.0965   0.1204   0.0954  -0.0720   0.0322  -0.0591   0.00    0.0
2026/01/15 02:40:00.000   67.857351526   20.968463352   391.1082   6  16   0.0964   0.1202   0.0954  -0.0718   0.0321  -0.0591   0.00    0.0
2026/01/15 02:40:30.000   67.857351531   20.968463326   391.1082   6  16   0.0963   0.1200   0.0953  -0.0717   0.0320  -0.0590   0.00    0.0
2026/01/15 02:41:00.000   67.857351531   20.968463325   391.1082   6  16   0.0962   0.1198   0.0953  -0.0715   0.0320  -0.0590   0.00    0.0
2026/01/15 02:41:30.000   67.857351532   20.968463305   391.1082   6  16   0.0961   0.1196   0.0953  -0.0714   0.0319  -0.0589   0.00    0.0
2026/01/15 02:42:00.000   67.857351530   20.968463301   391.1083   6  16   0.0960   0.1194   0.0952  -0.0712   0.0318  -0.0589   0.00    0.0
2026/01/15 02:42:30.000   67.857351537   20.968463265   391.1079   6  16   0.0959   0.1191   0.0952  -0.0711   0.0318  -0.0588   0.00    0.0
2026/01/15 02:43:00.000   67.857351539   20.968463234   391.1079   6  16   0.0958   0.1189   0.0952  -0.0709   0.0317  -0.0587   0.00    0.0
2026/01/15 02:43:30.000   67.857351539   20.968463209   391.1080   6  16   0.0957   0.1187   0.0951  -0.0708   0.0317  -0.0587   0.00    0.0
2026/01/15 02:44:00.000   67.857351543   20.968463198   391.1077   6  16   0.0956   0.1185   0.0951  -0.0706   0.0316  -0.0586   0.00    0.0
2026/01/15 02:44:30.000   67.857351542   20.968463184   391.1078   6  16   0.0955   0.1183   0.0950  -0.0704   0.0315  -0.0586   0.00    0.0
2026/01/15 02:45:00.000   67.857351538   20.968463186   391.1080   6  16   0.0954   0.1180   0.0950  -0.0703   0.0315  -0.0585   0.00    0.0
2026/01/15 02:45:30.000   67.857351542   20.968463159   391.1080   6  16   0.0953   0.1178   0.0949  -0.0701   0.0314  -0.0584   0.00    0.0
2026/01/15 02:46:00.000   67.857351548   20.968463143   391.1078   6  16   0.0952   0.1176   0.0949  -0.0699   0.0313  -0.0584   0.00    0.0
2026/01/15 02:46:30.000   67.857351559   20.968463073   391.1077   6  16   0.0951   0.1173   0.0948  -0.0697   0.0313  -0.0583   0.00    0.0
2026/01/15 02:47:00.000   67.857351565   20.968463055   391.1075   6  16   0.0950   0.1171   0.0947  -0.0695   0.0312  -0.0582   0.00    0.0
2026/01/15 02:47:30.000   67.857351574   20.968463015   391.1071   6  16   0.0948   0.1168   0.0947  -0.0693   0.0311  -0.0581   0.00    0.0
2026/01/15 02:48:00.000   67.857351579   20.968462978   391.1069   6  16   0.0947   0.1165   0.0946  -0.0691   0.0311  -0.0581   0.00    0.0
2026/01/15 02:48:30.000   67.857351584   20.968462921   391.1068   6  16   0.0946   0.1163   0.0945  -0.0689   0.0310  -0.0580   0.00    0.0
2026/01/15 02:49:00.000   67.857351591   20.968462887   391.1065   6  16   0.0944   0.1160   0.0944  -0.0687   0.0309  -0.0579   0.00    0.0
2026/01/15 02:49:30.000   67.857351602   20.968462832   391.1062   6  16   0.0943   0.1157   0.0944  -0.0685   0.0309  -0.0578   0.00    0.0
2026/01/15 02:50:00.000   67.857351606   20.968462795   391.1059   6  16   0.0941   0.1154   0.0943  -0.0683   0.0308  -0.0577   0.00    0.0
2026/01/15 02:50:30.000   67.857351606   20.968462777   391.1058   6  16   0.0940   0.1151   0.0942  -0.0680   0.0307  -0.0576   0.00    0.0
2026/01/15 02:51:00.000   67.857351610   20.968462741   391.1057   6  16   0.0938   0.1148   0.0941  -0.0678   0.0307  -0.0576   0.00    0.0
2026/01/15 02:51:30.000   67.857351615   20.968462705   391.1056   6  16   0.0937   0.1145   0.0940  -0.0675   0.0306  -0.0575   0.00    0.0
2026/01/15 02:52:00.000   67.857351623   20.968462653   391.1054   6  16   0.0935   0.1142   0.0939  -0.0673   0.0305  -0.0574   0.00    0.0
2026/01/15 02:52:30.000   67.857351633   20.968462586   391.1049   6  16   0.0933   0.1139   0.0938  -0.0670   0.0304  -0.0573   0.00    0.0
2026/01/15 02:53:00.000   67.857351636   20.968462553   391.1049   6  16   0.0932   0.1136   0.0937  -0.0668   0.0304  -0.0572   0.00    0.0
2026/01/15 02:53:30.000   67.857351649   20.968462507   391.1043   6  16   0.0930   0.1133   0.0936  -0.0666   0.0304  -0.0571   0.00    0.0
2026/01/15 02:54:00.000   67.857351659   20.968462464   391.1040   6  16   0.0929   0.1131   0.0935  -0.0664   0.0304  -0.0571   0.00    0.0
2026/01/15 02:54:30.000   67.857351668   20.968462444   391.1033   6  16   0.0927   0.1128   0.0934  -0.0662   0.0304  -0.0570   0.00    0.0
2026/01/15 02:55:00.000   67.857351671   20.968462431   391.1030   6  16   0.0926   0.1125   0.0933  -0.0660   0.0304  -0.0569   0.00    0.0
2026/01/15 02:55:30.000   67.857351680   20.968462394   391.1025   6  16   0.0924   0.1122   0.0931  -0.0657   0.0304  -0.0568   0.00    0.0
2026/01/15 02:56:00.000   67.857351688   20.968462356   391.1021   6  16   0.0922   0.1118   0.0930  -0.0655   0.0304  -0.0567   0.00    0.0
2026/01/15 02:56:30.000   67.857351697   20.968462309   391.1015   6  16   0.0921   0.1115   0.0929  -0.0652   0.0304  -0.0567   0.00    0.0
2026/01/15 02:57:00.000   67.857351706   20.968462265   391.1010   6  16   0.0919   0.1112   0.0928  -0.0650   0.0304  -0.0566   0.00    0.0
2026/01/15 02:57:30.000   67.857351710   20.968462254   391.1005   6  17   0.0917   0.1109   0.0926  -0.0647   0.0304  -0.0565   0.00    0.0
2026/01/15 02:58:00.000   67.857351719   20.968462205   391.1000   6  17   0.0915   0.1105   0.0925  -0.0645   0.0304  -0.0564   0.00    0.0
2026/01/15 02:58:30.000   67.857351726   20.968462193   391.0996   6  18   0.0913   0.1102   0.0923  -0.0642   0.0304  -0.0563   0.00    0.0
2026/01/15 02:59:00.000   67.857351731   20.968462180   391.0994   6  18   0.0911   0.1098   0.0922  -0.0639   0.0304  -0.0562   0.00    0.0
2026/01/15 02:59:30.000   67.857351745   20.968462121   391.0988   6  18   0.0909   0.1095   0.0920  -0.0636   0.0304  -0.0561   0.00    0.0
2026/01/15 03:00:00.000   67.857351749   20.968462086   391.0986   6  18   0.0907   0.1091   0.0918  -0.0634   0.0303  -0.0560   0.00    0.0
2026/01/15 03:00:30.000   67.857351759   20.968462030   391.0981   6  18   0.0905   0.1087   0.0917  -0.0631   0.0303  -0.0559   0.00    0.0
2026/01/15 03:01:00.000   67.857351768   20.968461970   391.0975   6  18   0.0903   0.1084   0.0915  -0.0628   0.0303  -0.0558   0.00    0.0
2026/01/15 03:01:30.000   67.857351773   20.968461943   391.0967   6  18   0.0901   0.1080   0.0913  -0.0625   0.0303  -0.0557   0.00    0.0
2026/01/15 03:02:00.000   67.857351787   20.968461884   391.0960   6  18   0.0898   0.1076   0.0911  -0.0622   0.0303  -0.0556   0.00    0.0
2026/01/15 03:02:30.000   67.857351799   20.968461846   391.0952   6  18   0.0896   0.1072   0.0909  -0.0619   0.0303  -0.0555   0.00    0.0
2026/01/15 03:03:00.000   67.857351809   20.968461823   391.0944   6  18   0.0894   0.1068   0.0907  -0.0615   0.0303  -0.0554   0.00    0.0
2026/01/15 03:03:30.000   67.857351819   20.968461767   391.0936   6  18   0.0891   0.1064   0.0905  -0.0612   0.0303  -0.0552   0.00    0.0
2026/01/15 03:04:00.000   67.857351824   20.968461727   391.0930   6  18   0.0889   0.1060   0.0903  -0.0609   0.0302  -0.0551   0.00    0.0
2026/01/15 03:04:30.000   67.857351834   20.968461687   391.0921   6  18   0.0886   0.1056   0.0901  -0.0606   0.0302  -0.0550   0.00    0.0
2026/01/15 03:05:00.000   67.857351844   20.968461649   391.0913   6  18   0.0884   0.1052   0.0899  -0.0602   0.0302  -0.0549   0.00    0.0
2026/01/15 03:05:30.000   67.857351859   20.968461583   391.0900   6  18   0.0881   0.1048   0.0897  -0.0599   0.0302  -0.0547   0.00    0.0
2026/01/15 03:06:00.000   67.857351869   20.968461547   391.0891   6  18   0.0879   0.1044   0.0895  -0.0595   0.0301  -0.0546   0.00    0.0
2026/01/15 03:06:30.000   67.857351878   20.968461517   391.0881   6  19   0.0876   0.1039   0.0893  -0.0592   0.0301  -0.0545   0.00    0.0
2026/01/15 03:07:00.000   67.857351893   20.968461458   391.0869   6  19   0.0873   0.1035   0.0890  -0.0588   0.0301  -0.0543   0.00    0.0
2026/01/15 03:07:30.000   67.857351907   20.968461406   391.0860   6  19   0.0871   0.1031   0.0888  -0.0585   0.0301  -0.0542   0.00    0.0
2026/01/15 03:08:00.000   67.857351915   20.968461364   391.0853   6  19   0.0868   0.1027   0.0885  -0.0582   0.0301  -0.0541   0.00    0.0
2026/01/15 03:08:30.000   67.857351918   20.968461343   391.0845   6  19   0.0866   0.1024   0.0883  -0.0579   0.0301  -0.0540   0.00    0.0
2026/01/15 03:09:00.000   67.857351930   20.968461301   391.0832   6  19   0.0864   0.1020   0.0881  -0.0576   0.0301  -0.0539   0.00    0.0
2026/01/15 03:09:30.000   67.857351943   20.968461249   391.0821   6  19   0.0861   0.1016   0.0878  -0.0574   0.0302  -0.0537   0.00    0.0
2026/01/15 03:10:00.000   67.857351954   20.968461205   391.0807   6  19   0.0859   0.1012   0.0875  -0.0571   0.0302  -0.0536   0.00    0.0
2026/01/15 03:10:30.000   67.857351967   20.968461164   391.0801   6  18   0.0856   0.1009   0.0873  -0.0568   0.0302  -0.0535   0.00    0.0
2026/01/15 03:11:00.000   67.857351979   20.968461116   391.0796   6  18   0.0854   0.1005   0.0871  -0.0565   0.0303  -0.0534   0.00    0.0
2026/01/15 03:11:30.000   67.857351987   20.968461081   391.0794   6  18   0.0851   0.1001   0.0869  -0.0562   0.0303  -0.0532   0.00    0.0
2026/01/15 03:12:00.000   67.857351997   20.968461042   391.0790   6  18   0.0848   0.0997   0.0866  -0.0559   0.0303  -0.0531   0.00    0.0
2026/01/15 03:12:30.000   67.857352010   20.968460994   391.0784   6  18   0.0846   0.0993   0.0864  -0.0556   0.0304  -0.0530   0.00    0.0
2026/01/15 03:13:00.000   67.857352021   20.968460957   391.0780   6  18   0.0843   0.0989   0.0861  -0.0553   0.0304  -0.0528   0.00    0.0
2026/01/15 03:13:30.000   67.857352032   20.968460916   391.0776   6  18   0.0840   0.0985   0.0859  -0.0550   0.0304  -0.0527   0.00    0.0
2026/01/15 03:14:00.000   67.857352044   20.968460857   391.0769   6  18   0.0837   0.0981   0.0856  -0.0547   0.0305  -0.0525   0.00    0.0
2026/01/15 03:14:30.000   67.857352059   20.968460810   391.0761   6  18   0.0835   0.0977   0.0854  -0.0544   0.0305  -0.0524   0.00    0.0
2026/01/15 03:15:00.000   67.857352075   20.968460758   391.0752   6  18   0.0832   0.0973   0.0851  -0.0540   0.0305  -0.0523   0.00    0.0
2026/01/15 03:15:30.000   67.857352087   20.968460718   391.0744   6  18   0.0829   0.0969   0.0848  -0.0537   0.0305  -0.0521   0.00    0.0
2026/01/15 03:16:00.000   67.857352099   20.968460660   391.0737   6  18   0.0826   0.0965   0.0846  -0.0534   0.0305  -0.0520   0.00    0.0
2026/01/15 03:16:30.000   67.857352116   20.968460594   391.0727   6  18   0.0823   0.0961   0.0843  -0.0531   0.0305  -0.0518   0.00    0.0
2026/01/15 03:17:00.000   67.857352133   20.968460531   391.0717   6  18   0.0820   0.0957   0.0840  -0.0527   0.0305  -0.0516   0.00    0.0
2026/01/15 03:17:30.000   67.857352151   20.968460470   391.0706   6  18   0.0817   0.0953   0.0837  -0.0524   0.0305  -0.0515   0.00    0.0
2026/01/15 03:18:00.000   67.857352165   20.968460431   391.0696   6  18   0.0814   0.0948   0.0835  -0.0521   0.0305  -0.0513   0.00    0.0
2026/01/15 03:28:30.000   67.857352164   20.968460295   391.0720   6   5   0.0806   0.0930   0.0831  -0.0508   0.0296  -0.0506   0.00    0.0
2026/01/15 03:29:30.000   67.857352160   20.968460280   391.0728   6   5   0.0805   0.0928   0.0831  -0.0507   0.0296  -0.0506   0.00    0.0
2026/01/15 03:30:30.000   67.857352163   20.968460251   391.0732   6   7   0.0805   0.0926   0.0831  -0.0506   0.0295  -0.0505   0.00    0.0
2026/01/15 03:31:00.000   67.857352163   20.968460234   391.0733   6   9   0.0804   0.0925   0.0831  -0.0505   0.0295  -0.0505   0.00    0.0
2026/01/15 03:31:30.000   67.857352168   20.968460229   391.0732   6   9   0.0804   0.0924   0.0831  -0.0505   0.0294  -0.0504   0.00    0.0
2026/01/15 03:32:30.000   67.857352165   20.968460240   391.0734   6  13   0.0803   0.0923   0.0830  -0.0504   0.0293  -0.0504   0.00    0.0
2026/01/15 03:33:30.000   67.857352164   20.968460236   391.0737   6  13   0.0803   0.0921   0.0830  -0.0503   0.0293  -0.0503   0.00    0.0
2026/01/15 03:34:00.000   67.857352166   20.968460229   391.0737   6  17   0.0802   0.0920   0.0830  -0.0502   0.0292  -0.0503   0.00    0.0
2026/01/15 03:34:30.000   67.857352163   20.968460235   391.0740   6  17   0.0802   0.0920   0.0830  -0.0501   0.0292  -0.0503   0.00    0.0
2026/01/15 03:35:00.000   67.857352163   20.968460228   391.0740   6  17   0.0801   0.0919   0.0830  -0.0501   0.0292  -0.0502   0.00    0.0
2026/01/15 03:35:30.000   67.857352163   20.968460228   391.0741   6  16   0.0801   0.0918   0.0829  -0.0500   0.0291  -0.0502   0.00    0.0
2026/01/15 03:36:00.000   67.857352160   20.968460229   391.0744   6  16   0.0801   0.0917   0.0829  -0.0500   0.0291  -0.0502   0.00    0.0
2026/01/15 03:36:30.000   67.857352154   20.968460223   391.0748   6  16   0.0800   0.0916   0.0829  -0.0499   0.0291  -0.0501   0.00    0.0
2026/01/15 03:37:00.000   67.857352152   20.968460232   391.0751   6  16   0.0800   0.0915   0.0829  -0.0499   0.0290  -0.0501   0.00    0.0
2026/01/15 03:37:30.000   67.857352152   20.968460234   391.0751   6  16   0.0800   0.0915   0.0829  -0.0498   0.0290  -0.0501   0.00    0.0
2026/01/15 03:38:00.000   67.857352153   20.968460224   391.0752   6  16   0.0799   0.0914   0.0828  -0.0497   0.0289  -0.0500   0.00    0.0
2026/01/15 03:38:30.000   67.857352154   20.968460220   391.0753   6  16   0.0799   0.0913   0.0828  -0.0497   0.0289  -0.0500   0.00    0.0
2026/01/15 03:39:00.000   67.857352151   20.968460229   391.0756   6  16   0.0798   0.0912   0.0828  -0.0496   0.0289  -0.0500   0.00    0.0
2026/01/15 03:39:30.000   67.857352154   20.968460210   391.0754   6  16   0.0798   0.0911   0.0828  -0.0496   0.0288  -0.0500   0.00    0.0
2026/01/15 03:40:00.000   67.857352150   20.968460215   391.0757   6  16   0.0798   0.0911   0.0828  -0.0495   0.0288  -0.0499   0.00    0.0
2026/01/15 03:40:30.000   67.857352144   20.968460219   391.0761   6  16   0.0797   0.0910   0.0827  -0.0494   0.0287  -0.0499   0.00    0.0
2026/01/15 03:41:00.000   67.857352146   20.968460212   391.0759   6  16   0.0797   0.0909   0.0827  -0.0494   0.0287  -0.0498   0.00    0.0
2026/01/15 03:41:30.000   67.857352147   20.968460207   391.0759   6  16   0.0796   0.0908   0.0827  -0.0493   0.0287  -0.0498   0.00    0.0
2026/01/15 03:42:00.000   67.857352146   20.968460208   391.0759   6  16   0.0796   0.0907   0.0826  -0.0493   0.0286  -0.0498   0.00    0.0
2026/01/15 03:42:30.000   67.857352145   20.968460208   391.0760   6  16   0.0795   0.0906   0.0826  -0.0492   0.0286  -0.0497   0.00    0.0
2026/01/15 03:43:00.000   67.857352147   20.968460201   391.0759   6  16   0.0795   0.0905   0.0826  -0.0491   0.0285  -0.0497   0.00    0.0
2026/01/15 03:43:30.000   67.857352150   20.968460185   391.0758   6  16   0.0794   0.0905   0.0825  -0.0491   0.0285  -0.0496   0.00    0.0
2026/01/15 03:44:00.000   67.857352153   20.968460168   391.0757   6  16   0.0794   0.0904   0.0825  -0.0490   0.0285  -0.0496   0.00    0.0
2026/01/15 03:44:30.000   67.857352158   20.968460159   391.0751   6  16   0.0793   0.0903   0.0824  -0.0489   0.0284  -0.0496   0.00    0.0
2026/01/15 03:45:00.000   67.857352161   20.968460144   391.0746   6  16   0.0793   0.0902   0.0824  -0.0489   0.0284  -0.0495   0.00    0.0
2026/01/15 03:45:30.000   67.857352165   20.968460120   391.0742   6  16   0.0792   0.0901   0.0823  -0.0488   0.0283  -0.0495   0.00    0.0
2026/01/15 03:46:00.000   67.857352169   20.968460112   391.0739   6  16   0.0791   0.0900   0.0823  -0.0487   0.0283  -0.0494   0.00    0.0
2026/01/15 03:46:30.000   67.857352174   20.968460123   391.0734   6  16   0.0791   0.0899   0.0822  -0.0486   0.0282  -0.0494   0.00    0.0
2026/01/15 03:47:00.000   67.857352178   20.968460107   391.0729   6  16   0.0790   0.0898   0.0822  -0.0486   0.0282  -0.0493   0.00    0.0
2026/01/15 03:47:30.000   67.857352181   20.968460088   391.0725   6  16   0.0789   0.0897   0.0821  -0.0485   0.0281  -0.0492   0.00    0.0
2026/01/15 03:48:00.000   67.857352185   20.968460064   391.0721   6  16   0.0789   0.0896   0.0820  -0.0484   0.0280  -0.0492   0.00    0.0
2026/01/15 03:48:30.000   67.857352188   20.968460043   391.0717   6  16   0.0788   0.0895   0.0819  -0.0483   0.0280  -0.0491   0.00    0.0
2026/01/15 03:49:00.000   67.857352198   20.968460017   391.0707   6  16   0.0787   0.0894   0.0819  -0.0482   0.0279  -0.0491   0.00    0.0
2026/01/15 03:49:30.000   67.857352204   20.968460016   391.0698   6  16   0.0787   0.0893   0.0818  -0.0481   0.0279  -0.0490   0.00    0.0
2026/01/15 03:50:00.000   67.857352209   20.968460009   391.0694   6  15   0.0786   0.0892   0.0817  -0.0480   0.0278  -0.0489   0.00    0.0
2026/01/15 03:50:30.000   67.857352216   20.968459987   391.0688   6  15   0.0785   0.0891   0.0817  -0.0479   0.0277  -0.0489   0.00    0.0
2026/01/15 03:51:00.000   67.857352223   20.968459970   391.0683   6  15   0.0784   0.0889   0.0816  -0.0478   0.0276  -0.0488   0.00    0.0
2026/01/15 03:51:30.000   67.857352231   20.968459954   391.0677   6  15   0.0783   0.0888   0.0815  -0.0477   0.0276  -0.0487   0.00    0.0
2026/01/15 03:52:00.000   67.857352236   20.968459955   391.0670   6  15   0.0782   0.0887   0.0814  -0.0476   0.0275  -0.0487   0.00    0.0
2026/01/15 03:52:30.000   67.857352241   20.968459932   391.0664   6  15   0.0781   0.0886   0.0813  -0.0475   0.0274  -0.0486   0.00    0.0
2026/01/15 03:53:00.000   67.857352247   20.968459931   391.0655   6  15   0.0780   0.0885   0.0812  -0.0474   0.0273  -0.0485   0.00    0.0
2026/01/15 03:53:30.000   67.857352256   20.968459916   391.0647   6  15   0.0779   0.0884   0.0811  -0.0473   0.0273  -0.0484   0.00    0.0
2026/01/15 03:54:00.000   67.857352266   20.968459899   391.0636   6  15   0.0778   0.0882   0.0810  -0.0472   0.0272  -0.0483   0.00    0.0
2026/01/15 03:54:30.000   67.857352274   20.968459883   391.0629   6  15   0.0777   0.0881   0.0809  -0.0470   0.0271  -0.0482   0.00    0.0
2026/01/15 03:55:00.000   67.857352281   20.968459857   391.0621   6  15   0.0776   0.0880   0.0808  -0.0469   0.0270  -0.0482   0.00    0.0
2026/01/15 03:55:30.000   67.857352286   20.968459841   391.0614   6  15   0.0775   0.0878   0.0807  -0.0468   0.0269  -0.0481   0.00    0.0
2026/01/15 03:56:00.000   67.857352293   20.968459822   391.0606   6  15   0.0774   0.0877   0.0806  -0.0466   0.0268  -0.0480   0.00    0.0
2026/01/15 03:56:30.000   67.857352299   20.968459805   391.0600   6  15   0.0772   0.0876   0.0805  -0.0465   0.0267  -0.0479   0.00    0.0
2026/01/15 03:57:00.000   67.857352304   20.968459799   391.0593   6  15   0.0771   0.0874   0.0803  -0.0464   0.0266  -0.0478   0.00    0.0
2026/01/15 03:57:30.000   67.857352314   20.968459774   391.0585   6  15   0.0770   0.0873   0.0802  -0.0462   0.0265  -0.0477   0.00    0.0
2026/01/15 03:58:00.000   67.857352324   20.968459741   391.0576   6  15   0.0768   0.0871   0.0801  -0.0461   0.0263  -0.0475   0.00    0.0
2026/01/15 03:58:30.000   67.857352333   20.968459708   391.0565   6  15   0.0767   0.0870   0.0800  -0.0459   0.0262  -0.0474   0.00    0.0
2026/01/15 03:59:00.000   67.857352340   20.968459687   391.0556   6  15   0.0766   0.0868   0.0798  -0.0458   0.0261  -0.0473   0.00    0.0
2026/01/15 03:59:30.000   67.857352350   20.968459667   391.0543   6  15   0.0764   0.0867   0.0797  -0.0456   0.0260  -0.0472   0.00    0.0
2026/01/15 04:00:00.000   67.857352361   20.968459651   391.0530   6  15   0.0763   0.0865   0.0795  -0.0455   0.0259  -0.0471   0.00    0.0
2026/01/15 04:00:30.000   67.857352369   20.968459631   391.0518   6  15   0.0761   0.0863   0.0794  -0.0453   0.0257  -0.0470   0.00    0.0
2026/01/15 04:01:00.000   67.857352382   20.968459596   391.0503   6  15   0.0759   0.0862   0.0792  -0.0451   0.0256  -0.0468   0.00    0.0
2026/01/15 04:01:30.000   67.857352394   20.968459573   391.0487   6  15   0.0758   0.0860   0.0790  -0.0450   0.0255  -0.0467   0.00    0.0
2026/01/15 04:52:00.000   67.857352425   20.968459358   391.0527   6   4   0.0735   0.0814   0.0780  -0.0417   0.0232  -0.0444   0.00    0.0
2026/01/15 04:53:00.000   67.857352428   20.968459354   391.0526   6  11   0.0734   0.0813   0.0780  -0.0416   0.0231  -0.0443   0.00    0.0
2026/01/15 04:53:30.000   67.857352430   20.968459351   391.0524   6  12   0.0734   0.0813   0.0780  -0.0416   0.0231  -0.0443   0.00    0.0
2026/01/15 04:54:00.000   67.857352431   20.968459352   391.0523   6  14   0.0734   0.0812   0.0780  -0.0416   0.0231  -0.0443   0.00    0.0
2026/01/15 04:54:30.000   67.857352430   20.968459360   391.0524   6  14   0.0733   0.0812   0.0779  -0.0415   0.0230  -0.0442   0.00    0.0
2026/01/15 04:55:00.000   67.857352432   20.968459364   391.0523   6  14   0.0733   0.0812   0.0779  -0.0415   0.0230  -0.0442   0.00    0.0
2026/01/15 04:55:30.000   67.857352431   20.968459369   391.0522   6  14   0.0733   0.0811   0.0779  -0.0415   0.0230  -0.0442   0.00    0.0
2026/01/15 04:56:00.000   67.857352434   20.968459369   391.0519   6  14   0.0733   0.0811   0.0779  -0.0414   0.0229  -0.0442   0.00    0.0
2026/01/15 05:01:00.000   67.857352453   20.968459308   391.0508   6  13   0.0730   0.0807   0.0778  -0.0411   0.0227  -0.0439   0.00    0.0
2026/01/15 05:01:30.000   67.857352454   20.968459301   391.0507   6  14   0.0730   0.0806   0.0778  -0.0411   0.0226  -0.0439   0.00    0.0
2026/01/15 05:02:00.000   67.857352457   20.968459294   391.0505   6  14   0.0730   0.0805   0.0778  -0.0410   0.0226  -0.0438   0.00    0.0
2026/01/15 05:02:30.000   67.857352459   20.968459289   391.0502   6  14   0.0729   0.0805   0.0777  -0.0410   0.0226  -0.0438   0.00    0.0
2026/01/15 05:03:00.000   67.857352458   20.968459292   391.0503   6  14   0.0729   0.0804   0.0777  -0.0410   0.0225  -0.0438   0.00    0.0
2026/01/15 05:03:30.000   67.857352459   20.968459288   391.0502   6  14   0.0728   0.0804   0.0777  -0.0409   0.0225  -0.0437   0.00    0.0
2026/01/15 05:04:00.000   67.857352464   20.968459286   391.0499   6  14   0.0728   0.0803   0.0777  -0.0409   0.0225  -0.0437   0.00    0.0
2026/01/15 05:04:30.000   67.857352466   20.968459280   391.0497   6  14   0.0728   0.0802   0.0776  -0.0408   0.0224  -0.0437   0.00    0.0
2026/01/15 05:05:00.000   67.857352470   20.968459265   391.0495   6  14   0.0727   0.0802   0.0776  -0.0408   0.0224  -0.0436   0.00    0.0
2026/01/15 05:05:30.000   67.857352469   20.968459269   391.0495   6  14   0.0727   0.0801   0.0776  -0.0407   0.0223  -0.0436   0.00    0.0
2026/01/15 05:06:00.000   67.857352473   20.968459270   391.0492   6  14   0.0726   0.0800   0.0776  -0.0407   0.0223  -0.0436   0.00    0.0
2026/01/15 05:06:30.000   67.857352475   20.968459259   391.0491   6  14   0.0726   0.0800   0.0776  -0.0406   0.0223  -0.0435   0.00    0.0
2026/01/15 05:07:00.000   67.857352478   20.968459256   391.0487   6  14   0.0725   0.0799   0.0775  -0.0406   0.0222  -0.0435   0.00    0.0
2026/01/15 05:07:30.000   67.857352479   20.968459254   391.0487   6  14   0.0725   0.0798   0.0775  -0.0405   0.0222  -0.0435   0.00    0.0
2026/01/15 05:08:00.000   67.857352480   20.968459249   391.0486   6  14   0.0725   0.0797   0.0775  -0.0405   0.0222  -0.0434   0.00    0.0
2026/01/15 05:08:30.000   67.857352481   20.968459243   391.0486   6  14   0.0724   0.0797   0.0775  -0.0404   0.0221  -0.0434   0.00    0.0
2026/01/15 05:09:00.000   67.857352483   20.968459225   391.0485   6  14   0.0724   0.0796   0.0774  -0.0403   0.0221  -0.0434   0.00    0.0
2026/01/15 05:09:30.000   67.857352484   20.968459222   391.0484   6  14   0.0723   0.0795   0.0774  -0.0403   0.0220  -0.0433   0.00    0.0
2026/01/15 05:10:00.000   67.857352485   20.968459231   391.0482   6  14   0.0723   0.0794   0.0774  -0.0402   0.0220  -0.0433   0.00    0.0
2026/01/15 05:10:30.000   67.857352489   20.968459225   391.0479   6  14   0.0722   0.0793   0.0773  -0.0402   0.0220  -0.0432   0.00    0.0
2026/01/15 05:11:00.000   67.857352490   20.968459218   391.0477   6  14   0.0721   0.0792   0.0773  -0.0401   0.0219  -0.0432   0.00    0.0
2026/01/15 05:11:30.000   67.857352491   20.968459213   391.0477   6  14   0.0721   0.0792   0.0773  -0.0400   0.0219  -0.0431   0.00    0.0
2026/01/15 05:12:00.000   67.857352494   20.968459207   391.0474   6  15   0.0720   0.0791   0.0773  -0.0399   0.0218  -0.0431   0.00    0.0
2026/01/15 05:12:30.000   67.857352492   20.968459202   391.0476   6  15   0.0720   0.0790   0.0772  -0.0399   0.0218  -0.0431   0.00    0.0
2026/01/15 05:13:00.000   67.857352491   20.968459217   391.0475   6  15   0.0719   0.0789   0.0772  -0.0398   0.0217  -0.0430   0.00    0.0
2026/01/15 05:13:30.000   67.857352490   20.968459217   391.0476   6  16   0.0718   0.0788   0.0771  -0.0397   0.0217  -0.0430   0.00    0.0
2026/01/15 05:14:00.000   67.857352488   20.968459227   391.0475   6  16   0.0718   0.0787   0.0771  -0.0396   0.0216  -0.0429   0.00    0.0
2026/01/15 05:14:30.000   67.857352486   20.968459235   391.0476   6  16   0.0717   0.0785   0.0771  -0.0395   0.0216  -0.0429   0.00    0.0
2026/01/15 05:15:00.000   67.857352488   20.968459233   391.0471   6  17   0.0716   0.0784   0.0770  -0.0395   0.0215  -0.0428   0.00    0.0
2026/01/15 05:15:30.000   67.857352488   20.968459217   391.0470   6  17   0.0716   0.0783   0.0770  -0.0394   0.0214  -0.0428   0.00    0.0
2026/01/15 05:16:00.000   67.857352490   20.968459215   391.0465   6  17   0.0715   0.0782   0.0769  -0.0393   0.0214  -0.0427   0.00    0.0
2026/01/15 05:16:30.000   67.857352492   20.968459194   391.0460   6  18   0.0714   0.0781   0.0769  -0.0392   0.0213  -0.0427   0.00    0.0
2026/01/15 05:17:00.000   67.857352496   20.968459180   391.0454   6  18   0.0713   0.0779   0.0768  -0.0391   0.0212  -0.0426   0.00    0.0
2026/01/15 05:17:30.000   67.857352495   20.968459175   391.0452   6  18   0.0712   0.0778   0.0768  -0.0390   0.0212  -0.0425   0.00    0.0
2026/01/15 06:54:00.000   67.857351896   20.968460502   391.0594   6   4   0.0657   0.0708   0.0749  -0.0312   0.0155  -0.0378   0.00    0.0
2026/01/15 06:54:30.000   67.857351894   20.968460502   391.0595   6   4   0.0657   0.0708   0.0749  -0.0312   0.0155  -0.0378   0.00    0.0
2026/01/15 06:55:00.000   67.857351890   20.968460506   391.0598   6   4   0.0656   0.0708   0.0749  -0.0312   0.0155  -0.0377   0.00    0.0
2026/01/15 06:55:30.000   67.857351887   20.968460509   391.0599   6   4   0.0656   0.0707   0.0749  -0.0311   0.0155  -0.0377   0.00    0.0
2026/01/15 06:56:00.000   67.857351885   20.968460522   391.0600   6   4   0.0656   0.0707   0.0748  -0.0311   0.0155  -0.0377   0.00    0.0
2026/01/15 06:56:30.000   67.857351883   20.968460522   391.0601   6   4   0.0656   0.0707   0.0748  -0.0311   0.0154  -0.0377   0.00    0.0
2026/01/15 06:57:00.000   67.857351880   20.968460525   391.0603   6   4   0.0656   0.0707   0.0748  -0.0310   0.0154  -0.0376   0.00    0.0
2026/01/15 06:57:30.000   67.857351879   20.968460528   391.0603   6   4   0.0655   0.0706   0.0748  -0.0310   0.0154  -0.0376   0.00    0.0
2026/01/15 06:58:00.000   67.857351875   20.968460533   391.0605   6   4   0.0655   0.0706   0.0748  -0.0310   0.0154  -0.0376   0.00    0.0
2026/01/15 06:58:30.000   67.857351874   20.968460534   391.0606   6   4   0.0655   0.0706   0.0748  -0.0309   0.0153  -0.0376   0.00    0.0
2026/01/15 06:59:00.000   67.857351869   20.968460543   391.0608   6   4   0.0655   0.0706   0.0748  -0.0309   0.0153  -0.0376   0.00    0.0
2026/01/15 06:59:30.000   67.857351868   20.968460546   391.0609   6   4   0.0654   0.0706   0.0748  -0.0309   0.0153  -0.0375   0.00    0.0
2026/01/15 07:00:00.000   67.857351867   20.968460551   391.0609   6   4   0.0654   0.0705   0.0748  -0.0308   0.0153  -0.0375   0.00    0.0
2026/01/15 07:00:30.000   67.857351867   20.968460559   391.0608   6   4   0.0654   0.0705   0.0748  -0.0308   0.0152  -0.0375   0.00    0.0
2026/01/15 07:01:00.000   67.857351863   20.968460565   391.0610   6   4   0.0654   0.0705   0.0748  -0.0308   0.0152  -0.0375   0.00    0.0
2026/01/15 07:01:30.000   67.857351862   20.968460568   391.0610   6   4   0.0654   0.0705   0.0748  -0.0307   0.0152  -0.0374   0.00    0.0
2026/01/15 07:02:00.000   67.857351859   20.968460581   391.0611   6   4   0.0653   0.0704   0.0748  -0.0307   0.0152  -0.0374   0.00    0.0
2026/01/15 07:02:30.000   67.857351858   20.968460583   391.0612   6   4   0.0653   0.0704   0.0747  -0.0307   0.0151  -0.0374   0.00    0.0
2026/01/15 07:03:00.000   67.857351855   20.968460585   391.0614   6   4   0.0653   0.0704   0.0747  -0.0306   0.0151  -0.0374   0.00    0.0
2026/01/15 07:03:30.000   67.857351852   20.968460587   391.0615   6   4   0.0653   0.0704   0.0747  -0.0306   0.0151  -0.0374   0.00    0.0
2026/01/15 07:04:00.000   67.857351849   20.968460590   391.0617   6   4   0.0652   0.0704   0.0747  -0.0306   0.0151  -0.0373   0.00    0.0
2026/01/15 07:04:30.000   67.857351848   20.968460593   391.0616   6   4   0.0652   0.0703   0.0747  -0.0305   0.0150  -0.0373   0.00    0.0
2026/01/15 07:05:00.000   67.857351845   20.968460603   391.0617   6   4   0.0652   0.0703   0.0747  -0.0305   0.0150  -0.0373   0.00    0.0
2026/01/15 07:05:30.000   67.857351841   20.968460613   391.0619   6   4   0.0652   0.0703   0.0747  -0.0305   0.0150  -0.0373   0.00    0.0
2026/01/15 07:16:30.000   67.857351789   20.968460695   391.0647   6  10   0.0647   0.0698   0.0745  -0.0297   0.0144  -0.0368   0.00    0.0
2026/01/15 07:17:00.000   67.857351787   20.968460696   391.0648   6  12   0.0647   0.0698   0.0745  -0.0297   0.0143  -0.0368   0.00    0.0
2026/01/15 07:17:30.000   67.857351784   20.968460698   391.0650   6  13   0.0647   0.0698   0.0745  -0.0297   0.0143  -0.0368   0.00    0.0
2026/01/15 07:18:00.000   67.857351784   20.968460702   391.0650   6  14   0.0646   0.0697   0.0745  -0.0296   0.0143  -0.0367   0.00    0.0
2026/01/15 07:18:30.000   67.857351782   20.968460708   391.0651   6  14   0.0646   0.0697   0.0745  -0.0296   0.0142  -0.0367   0.00    0.0
2026/01/15 07:19:00.000   67.857351781   20.968460712   391.0652   6  14   0.0646   0.0697   0.0745  -0.0296   0.0142  -0.0367   0.00    0.0
2026/01/15 07:19:30.000   67.857351778   20.968460713   391.0655   6  14   0.0646   0.0697   0.0745  -0.0295   0.0142  -0.0367   0.00    0.0
2026/01/15 07:20:00.000   67.857351778   20.968460713   391.0655   6  14   0.0646   0.0696   0.0745  -0.0295   0.0141  -0.0366   0.00    0.0
2026/01/15 07:20:30.000   67.857351775   20.968460726   391.0657   6  14   0.0645   0.0696   0.0744  -0.0295   0.0141  -0.0366   0.00    0.0
2026/01/15 07:21:00.000   67.857351772   20.968460737   391.0658   6  14   0.0645   0.0696   0.0744  -0.0294   0.0141  -0.0366   0.00    0.0
2026/01/15 07:21:30.000   67.857351767   20.968460736   391.0662   6  14   0.0645   0.0696   0.0744  -0.0294   0.0140  -0.0366   0.00    0.0
2026/01/15 07:22:00.000   67.857351766   20.968460742   391.0663   6  15   0.0645   0.0695   0.0744  -0.0294   0.0140  -0.0366   0.00    0.0
2026/01/15 07:22:30.000   67.857351764   20.968460745   391.0664   6  15   0.0644   0.0695   0.0744  -0.0293   0.0140  -0.0365   0.00    0.0
2026/01/15 07:23:00.000   67.857351759   20.968460751   391.0668   6  15   0.0644   0.0695   0.0744  -0.0293   0.0139  -0.0365   0.00    0.0
2026/01/15 07:23:30.000   67.857351759   20.968460758   391.0668   6  15   0.0644   0.0695   0.0744  -0.0293   0.0139  -0.0365   0.00    0.0
2026/01/15 07:24:00.000   67.857351759   20.968460758   391.0668   6  14   0.0644   0.0694   0.0744  -0.0292   0.0139  -0.0365   0.00    0.0
2026/01/15 07:24:30.000   67.857351754   20.968460763   391.0672   6  14   0.0643   0.0694   0.0743  -0.0292   0.0138  -0.0364   0.00    0.0
2026/01/15 07:25:00.000   67.857351751   20.968460770   391.0673   6  14   0.0643   0.0694   0.0743  -0.0292   0.0138  -0.0364   0.00    0.0
2026/01/15 07:25:30.000   67.857351750   20.968460769   391.0673   6  14   0.0643   0.0694   0.0743  -0.0291   0.0138  -0.0364   0.00    0.0
2026/01/15 07:26:00.000   67.857351749   20.968460772   391.0673   6  14   0.0643   0.0693   0.0743  -0.0291   0.0137  -0.0364   0.00    0.0
2026/01/15 07:26:30.000   67.857351747   20.968460781   391.0675   6  14   0.0642   0.0693   0.0743  -0.0290   0.0137  -0.0364   0.00    0.0
2026/01/15 07:27:00.000   67.857351747   20.968460779   391.0676   6  14   0.0642   0.0693   0.0743  -0.0290   0.0137  -0.0363   0.00    0.0
2026/01/15 07:27:30.000   67.857351746   20.968460778   391.0675   6  14   0.0642   0.0692   0.0742  -0.0290   0.0136  -0.0363   0.00    0.0
2026/01/15 07:28:00.000   67.857351746   20.968460779   391.0674   6  15   0.0641   0.0692   0.0742  -0.0289   0.0136  -0.0363   0.00    0.0
2026/01/15 07:28:30.000   67.857351747   20.968460775   391.0673   6  16   0.0641   0.0692   0.0742  -0.0289   0.0136  -0.0363   0.00    0.0
2026/01/15 07:29:00.000   67.857351747   20.968460774   391.0673   6  17   0.0641   0.0691   0.0742  -0.0289   0.0136  -0.0362   0.00    0.0
2026/01/15 07:29:30.000   67.857351746   20.968460778   391.0671   6  17   0.0640   0.0691   0.0742  -0.0288   0.0135  -0.0362   0.00    0.0
2026/01/15 07:30:00.000   67.857351746   20.968460778   391.0671   6  17   0.0640   0.0691   0.0741  -0.0288   0.0135  -0.0362   0.00    0.0
2026/01/15 07:30:30.000   67.857351741   20.968460788   391.0674   6  17   0.0639   0.0690   0.0741  -0.0287   0.0135  -0.0361   0.00    0.0
2026/01/15 07:31:00.000   67.857351741   20.968460784   391.0673   6  17   0.0639   0.0690   0.0741  -0.0287   0.0135  -0.0361   0.00    0.0
2026/01/15 07:31:30.000   67.857351741   20.968460782   391.0674   6  17   0.0639   0.0690   0.0740  -0.0287   0.0134  -0.0361   0.00    0.0
2026/01/15 07:32:00.000   67.857351740   20.968460786   391.0673   6  17   0.0638   0.0689   0.0740  -0.0286   0.0134  -0.0361   0.00    0.0
2026/01/15 07:32:30.000   67.857351740   20.968460788   391.0671   6  17   0.0638   0.0689   0.0740  -0.0286   0.0134  -0.0360   0.00    0.0
2026/01/15 07:33:00.000   67.857351737   20.968460792   391.0671   6  17   0.0637   0.0688   0.0739  -0.0285   0.0134  -0.0360   0.00    0.0
2026/01/15 07:33:30.000   67.857351736   20.968460793   391.0670   6  17   0.0637   0.0688   0.0739  -0.0285   0.0133  -0.0360   0.00    0.0
2026/01/15 07:34:00.000   67.857351735   20.968460795   391.0668   6  17   0.0636   0.0687   0.0739  -0.0284   0.0133  -0.0359   0.00    0.0
2026/01/15 07:34:30.000   67.857351734   20.968460799   391.0666   6  17   0.0636   0.0687   0.0738  -0.0284   0.0133  -0.0359   0.00    0.0
2026/01/15 07:35:00.000   67.857351734   20.968460799   391.0664   6  17   0.0635   0.0687   0.0738  -0.0284   0.0133  -0.0359   0.00    0.0
2026/01/15 07:35:30.000   67.857351735   20.968460803   391.0661   6  17   0.0635   0.0686   0.0737  -0.0283   0.0133  -0.0359   0.00    0.0
