% program   : RTKPOST-EX 2.5.0
% inp file  : C:\PPP_PROJECT\New_Data\obs\RNXDATA\WUH200CHN_R_20260150000_01D_30S_MO.rnx
% inp file  : C:\PPP_PROJECT\New_Data\nav\BRDC00IGS_R_20260150000_01D_MN.rnx
% inp file  : C:\PPP_PROJECT\New_Data\DATA_FINAL_ANT_EXTRA\COD0MGXFIN_20260150000_01D_05M_ORB.SP3
% inp file  : C:\PPP_PROJECT\New_Data\DATA_FINAL_ANT_EXTRA\COD0MGXFIN_20260150000_01D_30S_CLK.CLK
% inp file  : C:\PPP_PROJECT\New_Data\DATA_FINAL_ANT_EXTRA\COD0MGXFIN_20260150000_01D_01D_OSB.BIA
% obs start : 2026/01/15 00:00:00.0 GPST (week2401 345600.0s)
% obs end   : 2026/01/15 23:59:30.0 GPST (week2401 431970.0s)
% pos mode  : PPP Static
% freqs     : L1+L2/E5b
% solution  : Forward
% elev mask : 15.0 deg
% dynamics  : on
% tidecorr  :
% ionos opt : Iono-Free LC
% tropo opt : Saastamoinen
% ephemeris : Precise
% navi sys  : GPS Galileo BDS
% antenna1  :                       ( 0.0000  0.0000  0.0000)
%
% (lat/lon/height=WGS84/ellipsoidal,Q=1:fix,2:float,3:sbas,4:dgps,5:single,6:ppp,ns=# of satellites)
%  GPST                  latitude(deg) longitude(deg)  height(m)   Q  ns   sdn(m)   sde(m)   sdu(m)  sdne(m)  sdeu(m)  sdun(m) age(s)  ratio
2026/01/15 00:00:00.000   30.531659557  114.357261922    25.7103   6  10   2.6569   3.1534   7.4301   0.3099   1.9968  -2.5124   0.00    0.0
2026/01/15 00:00:30.000   30.531663793  114.357261730    25.8016   6  13   1.8795   2.2346   5.2682   0.2201   1.4188  -1.7774   0.00    0.0
2026/01/15 00:01:00.000   30.531663696  114.357263650    26.5797   6  13   1.5335   1.8263   4.2884   0.1865   1.1581  -1.4469   0.00    0.0
2026/01/15 00:01:30.000   30.531665105  114.357264543    26.9537   6  13   1.3260   1.5819   3.6916   0.1687   0.9992  -1.2471   0.00    0.0
2026/01/15 00:02:00.000   30.531666064  114.357266628    27.1868   6  13   1.1836   1.4146   3.2746   0.1584   0.8877  -1.1089   0.00    0.0
2026/01/15 00:02:30.000   30.531665744  114.357267503    27.1520   6  13   1.0777   1.2907   2.9586   0.1521   0.8025  -1.0054   0.00    0.0
2026/01/15 00:03:00.000   30.531665999  114.357267906    26.9224   6  13   0.9948   1.1939   2.7063   0.1483   0.7338  -0.9239   0.00    0.0
2026/01/15 00:03:30.000   30.531666904  114.357268830    26.9115   6  13   0.9274   1.1156   2.4971   0.1459   0.6762  -0.8573   0.00    0.0
2026/01/15 00:04:00.000   30.531667442  114.357269046    27.0077   6  13   0.8711   1.0503   2.3190   0.1446   0.6264  -0.8014   0.00    0.0
2026/01/15 00:04:30.000   30.531667429  114.357268715    27.0677   6  13   0.8230   0.9949   2.1643   0.1439   0.5826  -0.7535   0.00    0.0
2026/01/15 00:05:00.000   30.531668172  114.357268602    27.0499   6  13   0.7812   0.9469   2.0278   0.1437   0.5434  -0.7118   0.00    0.0
2026/01/15 00:05:30.000   30.531668468  114.357269128    27.0409   6  13   0.7444   0.9047   1.9059   0.1438   0.5079  -0.6750   0.00    0.0
2026/01/15 00:06:00.000   30.531668782  114.357269385    27.0644   6  13   0.7115   0.8674   1.7962   0.1440   0.4754  -0.6422   0.00    0.0
2026/01/15 00:06:30.000   30.531668742  114.357269180    26.9832   6  13   0.6819   0.8339   1.6966   0.1443   0.4455  -0.6127   0.00    0.0
2026/01/15 00:07:00.000   30.531668693  114.357268655    26.9822   6  13   0.6551   0.8036   1.6058   0.1447   0.4177  -0.5860   0.00    0.0
2026/01/15 00:07:30.000   30.531668765  114.357268093    27.1241   6  13   0.6304   0.7760   1.5225   0.1450   0.3918  -0.5617   0.00    0.0
2026/01/15 00:08:00.000   30.531668738  114.357268199    27.2108   6  13   0.6073   0.7497   1.4438   0.1423   0.3636  -0.5410   0.00    0.0
2026/01/15 00:08:30.000   30.531668514  114.357268057    27.2797   6  13   0.5860   0.7256   1.3717   0.1403   0.3377  -0.5216   0.00    0.0
2026/01/15 00:09:00.000   30.531668608  114.357268255    27.2608   6  13   0.5662   0.7034   1.3053   0.1387   0.3137  -0.5035   0.00    0.0
2026/01/15 00:09:30.000   30.531668564  114.357268747    27.3476   6  15   0.5471   0.6811   1.2419   0.1421   0.2813  -0.4827   0.00    0.0
2026/01/15 00:10:00.000   30.531668566  114.357268699    27.4039   6  15   0.5292   0.6604   1.1820   0.1449   0.2533  -0.4647   0.00    0.0
2026/01/15 00:10:30.000   30.531668626  114.357268559    27.3856   6  14   0.5130   0.6429   1.1298   0.1433   0.2352  -0.4502   0.00    0.0
2026/01/15 00:11:00.000   30.531668858  114.357268548    27.3733   6  14   0.4977   0.6263   1.0811   0.1419   0.2181  -0.4365   0.00    0.0
2026/01/15 00:11:30.000   30.531669017  114.357268899    27.3950   6  14   0.4833   0.6108   1.0356   0.1407   0.2019  -0.4235   0.00    0.0
2026/01/15 00:12:00.000   30.531669136  114.357269147    27.3752   6  14   0.4696   0.5961   0.9928   0.1397   0.1865  -0.4110   0.00    0.0
2026/01/15 00:12:30.000   30.531669299  114.357269271    27.4178   6  14   0.4566   0.5822   0.9527   0.1388   0.1718  -0.3991   0.00    0.0
2026/01/15 00:13:00.000   30.531669536  114.357269029    27.4596   6  15   0.4440   0.5685   0.9146   0.1370   0.1555  -0.3882   0.00    0.0
2026/01/15 00:13:30.000   30.531669890  114.357269170    27.4573   6  15   0.4321   0.5555   0.8787   0.1355   0.1401  -0.3776   0.00    0.0
2026/01/15 00:14:00.000   30.531670082  114.357269098    27.4941   6  15   0.4207   0.5431   0.8450   0.1341   0.1252  -0.3675   0.00    0.0
2026/01/15 00:14:30.000   30.531670208  114.357268941    27.5080   6  15   0.4098   0.5314   0.8132   0.1329   0.1108  -0.3577   0.00    0.0
2026/01/15 00:15:00.000   30.531670368  114.357268752    27.5202   6  15   0.3994   0.5201   0.7833   0.1317   0.0965  -0.3483   0.00    0.0
2026/01/15 00:15:30.000   30.531670623  114.357268931    27.5308   6  16   0.3891   0.5086   0.7540   0.1320   0.0758  -0.3384   0.00    0.0
2026/01/15 00:16:00.000   30.531670745  114.357268996    27.5724   6  16   0.3793   0.4976   0.7265   0.1321   0.0526  -0.3291   0.00    0.0
2026/01/15 00:16:30.000   30.531671015  114.357268894    27.5634   6  16   0.3699   0.4872   0.7006   0.1321   0.0163  -0.3201   0.00    0.0
2026/01/15 00:17:00.000   30.531671238  114.357268823    27.5588   6  15   0.3610   0.4777   0.6768   0.1308  -0.0336  -0.3122   0.00    0.0
2026/01/15 00:17:30.000   30.531671309  114.357268776    27.5698   6  15   0.3525   0.4686   0.6541   0.1295  -0.0482  -0.3045   0.00    0.0
2026/01/15 00:18:00.000   30.531671450  114.357268926    27.5729   6  16   0.3442   0.4593   0.6321   0.1292  -0.0626  -0.2967   0.00    0.0
2026/01/15 00:18:30.000   30.531671647  114.357269094    27.5769   6  16   0.3362   0.4504   0.6113   0.1287  -0.0724  -0.2891   0.00    0.0
2026/01/15 00:19:00.000   30.531671800  114.357269059    27.5828   6  16   0.3284   0.4418   0.5915   0.1282  -0.0796  -0.2819   0.00    0.0
2026/01/15 00:19:30.000   30.531671965  114.357269203    27.5858   6  15   0.3211   0.4339   0.5731   0.1268  -0.0827  -0.2754   0.00    0.0
2026/01/15 00:20:00.000   30.531672138  114.357269454    27.5908   6  16   0.3139   0.4258   0.5552   0.1262  -0.0873  -0.2687   0.00    0.0
2026/01/15 00:20:30.000   30.531672276  114.357269550    27.6105   6  16   0.3070   0.4181   0.5382   0.1255  -0.0908  -0.2623   0.00    0.0
2026/01/15 00:21:00.000   30.531672341  114.357269588    27.6224   6  16   0.3003   0.4106   0.5220   0.1247  -0.0936  -0.2562   0.00    0.0
2026/01/15 00:21:30.000   30.531672425  114.357269578    27.6318   6  16   0.2938   0.4033   0.5066   0.1238  -0.0957  -0.2502   0.00    0.0
2026/01/15 00:22:00.000   30.531672597  114.357269646    27.6195   6  16   0.2876   0.3962   0.4918   0.1229  -0.0974  -0.2445   0.00    0.0
2026/01/15 00:22:30.000   30.531672631  114.357269641    27.6113   6   8   0.2836   0.3901   0.4818   0.1210  -0.0950  -0.2410   0.00    0.0
2026/01/15 00:23:00.000   30.531672658  114.357269638    27.6045   6   8   0.2796   0.3841   0.4721   0.1191  -0.0926  -0.2376   0.00    0.0
2026/01/15 00:23:30.000   30.531672766  114.357269606    27.6066   6  16   0.2736   0.3775   0.4582   0.1184  -0.0942  -0.2321   0.00    0.0
2026/01/15 00:24:00.000   30.531672879  114.357269687    27.6092   6  16   0.2677   0.3711   0.4451   0.1175  -0.0954  -0.2267   0.00    0.0
2026/01/15 00:24:30.000   30.531672876  114.357269577    27.6101   6   9   0.2642   0.3656   0.4365   0.1157  -0.0931  -0.2237   0.00    0.0
2026/01/15 00:25:00.000   30.531672964  114.357269566    27.6177   6  16   0.2585   0.3594   0.4241   0.1150  -0.0941  -0.2185   0.00    0.0
2026/01/15 00:25:30.000   30.531673051  114.357269479    27.6047   6  14   0.2539   0.3538   0.4130   0.1142  -0.0932  -0.2129   0.00    0.0
2026/01/15 00:26:00.000   30.531673040  114.357269368    27.6008   6   9   0.2506   0.3486   0.4053   0.1128  -0.0915  -0.2101   0.00    0.0
2026/01/15 00:26:30.000   30.531673031  114.357269297    27.5884   6   8   0.2487   0.3435   0.3997   0.1119  -0.0885  -0.2073   0.00    0.0
2026/01/15 00:27:00.000   30.531673115  114.357269217    27.5863   6   9   0.2454   0.3386   0.3943   0.1105  -0.0855  -0.2046   0.00    0.0
2026/01/15 00:27:30.000   30.531673269  114.357269169    27.5776   6   9   0.2422   0.3338   0.3888   0.1091  -0.0825  -0.2019   0.00    0.0
2026/01/15 00:28:00.000   30.531673433  114.357269138    27.5820   6  16   0.2367   0.3282   0.3792   0.1086  -0.0831  -0.1970   0.00    0.0
2026/01/15 00:28:30.000   30.531673522  114.357269154    27.5889   6   9   0.2337   0.3236   0.3741   0.1072  -0.0802  -0.1945   0.00    0.0
2026/01/15 00:29:00.000   30.531673545  114.357269082    27.5960   6   8   0.2308   0.3191   0.3690   0.1059  -0.0774  -0.1920   0.00    0.0
2026/01/15 00:29:30.000   30.531673581  114.357269047    27.6056   6   8   0.2279   0.3147   0.3640   0.1045  -0.0746  -0.1895   0.00    0.0
2026/01/15 00:30:00.000   30.531673541  114.357268979    27.6159   6   7   0.2263   0.3104   0.3590   0.1038  -0.0718  -0.1871   0.00    0.0
2026/01/15 00:31:00.000   30.531673574  114.357268869    27.6251   6   8   0.2222   0.3032   0.3528   0.1019  -0.0685  -0.1837   0.00    0.0
2026/01/15 00:31:30.000   30.531673512  114.357268805    27.6315   6   7   0.2206   0.2991   0.3478   0.1012  -0.0655  -0.1812   0.00    0.0
2026/01/15 00:32:00.000   30.531673480  114.357268835    27.6327   6   7   0.2191   0.2950   0.3428   0.1005  -0.0626  -0.1788   0.00    0.0
2026/01/15 00:32:30.000   30.531673528  114.357268837    27.6370   6   8   0.2161   0.2910   0.3379   0.0991  -0.0599  -0.1765   0.00    0.0
2026/01/15 00:33:30.000   30.531673510  114.357268799    27.6305   6   7   0.2136   0.2855   0.3321   0.0978  -0.0564  -0.1733   0.00    0.0
2026/01/15 01:00:30.000   30.531673090  114.357268545    27.4616   6  12   0.1763   0.2295   0.3045   0.0760  -0.0450  -0.1431   0.00    0.0
2026/01/15 01:01:00.000   30.531673065  114.357268533    27.4603   6  12   0.1758   0.2288   0.3041   0.0757  -0.0447  -0.1427   0.00    0.0
2026/01/15 01:01:30.000   30.531673073  114.357268550    27.4521   6   6   0.1753   0.2280   0.3037   0.0754  -0.0445  -0.1423   0.00    0.0
2026/01/15 01:02:00.000   30.531673089  114.357268556    27.4446   6  14   0.1747   0.2273   0.3033   0.0750  -0.0442  -0.1419   0.00    0.0
2026/01/15 01:02:30.000   30.531673039  114.357268586    27.4431   6  14   0.1742   0.2265   0.3029   0.0747  -0.0439  -0.1415   0.00    0.0
2026/01/15 01:03:00.000   30.531673015  114.357268588    27.4428   6  14   0.1736   0.2258   0.3025   0.0744  -0.0437  -0.1411   0.00    0.0
2026/01/15 01:03:30.000   30.531672994  114.357268602    27.4389   6  14   0.1731   0.2250   0.3021   0.0740  -0.0433  -0.1407   0.00    0.0
2026/01/15 01:04:00.000   30.531672960  114.357268577    27.4370   6  14   0.1725   0.2243   0.3016   0.0737  -0.0430  -0.1403   0.00    0.0
2026/01/15 01:04:30.000   30.531672968  114.357268540    27.4358   6  14   0.1720   0.2235   0.3012   0.0733  -0.0427  -0.1398   0.00    0.0
2026/01/15 01:05:30.000   30.531672968  114.357268524    27.4290   6  14   0.1709   0.2221   0.3003   0.0726  -0.0420  -0.1390   0.00    0.0
2026/01/15 01:06:00.000   30.531672964  114.357268507    27.4262   6  14   0.1703   0.2213   0.2997   0.0723  -0.0416  -0.1386   0.00    0.0
2026/01/15 01:06:30.000   30.531672979  114.357268504    27.4236   6  14   0.1698   0.2206   0.2992   0.0719  -0.0412  -0.1381   0.00    0.0
2026/01/15 01:07:00.000   30.531672970  114.357268479    27.4232   6  14   0.1692   0.2198   0.2986   0.0715  -0.0408  -0.1377   0.00    0.0
2026/01/15 01:09:00.000   30.531672886  114.357268348    27.4011   6   6   0.1671   0.2170   0.2970   0.0702  -0.0392  -0.1362   0.00    0.0
2026/01/15 01:09:30.000   30.531672909  114.357268367    27.3990   6  14   0.1664   0.2161   0.2961   0.0697  -0.0386  -0.1356   0.00    0.0
2026/01/15 01:17:30.000   30.531672961  114.357268271    27.3450   6  14   0.1581   0.2054   0.2879   0.0643  -0.0321  -0.1295   0.00    0.0
2026/01/15 01:18:00.000   30.531673053  114.357268347    27.3532   6  14   0.1565   0.2039   0.2850   0.0634  -0.0311  -0.1281   0.00    0.0
2026/01/15 01:28:30.000   30.531673054  114.357268253    27.2698   6   5   0.1491   0.1932   0.2792   0.0580  -0.0210  -0.1233   0.00    0.0
2026/01/15 02:05:00.000   30.531673171  114.357266802    27.1001   6   4   0.1299   0.1637   0.2603   0.0469   0.0160  -0.1128   0.00    0.0
2026/01/15 02:24:00.000   30.531673070  114.357266266    27.1014   6   6   0.1231   0.1523   0.2528   0.0439   0.0118  -0.1095   0.00    0.0
2026/01/15 02:25:00.000   30.531673054  114.357266220    27.1048   6   6   0.1227   0.1518   0.2525   0.0438   0.0116  -0.1094   0.00    0.0
2026/01/15 02:26:00.000   30.531673013  114.357266169    27.1050   6   5   0.1224   0.1513   0.2521   0.0436   0.0114  -0.1092   0.00    0.0
2026/01/15 02:26:30.000   30.531673009  114.357266143    27.1070   6  11   0.1222   0.1510   0.2519   0.0435   0.0114  -0.1091   0.00    0.0
2026/01/15 02:27:00.000   30.531672978  114.357266101    27.1101   6  14   0.1221   0.1507   0.2517   0.0435   0.0114  -0.1090   0.00    0.0
2026/01/15 02:27:30.000   30.531672974  114.357266095    27.1106   6  14   0.1219   0.1505   0.2515   0.0434   0.0114  -0.1090   0.00    0.0
2026/01/15 02:28:00.000   30.531672970  114.357266079    27.1123   6  14   0.1218   0.1502   0.2513   0.0433   0.0115  -0.1089   0.00    0.0
2026/01/15 02:28:30.000   30.531672978  114.357266057    27.1144   6  14   0.1216   0.1500   0.2511   0.0432   0.0116  -0.1087   0.00    0.0
2026/01/15 02:29:00.000   30.531672972  114.357266044    27.1182   6  14   0.1214   0.1497   0.2509   0.0431   0.0117  -0.1086   0.00    0.0
2026/01/15 02:29:30.000   30.531672963  114.357266024    27.1202   6  14   0.1212   0.1495   0.2507   0.0431   0.0119  -0.1085   0.00    0.0
2026/01/15 02:30:00.000   30.531672945  114.357266008    27.1212   6  14   0.1211   0.1492   0.2505   0.0430   0.0121  -0.1084   0.00    0.0
2026/01/15 02:30:30.000   30.531672941  114.357265975    27.1237   6  14   0.1209   0.1489   0.2502   0.0429   0.0123  -0.1083   0.00    0.0
2026/01/15 02:31:00.000   30.531672929  114.357265955    27.1260   6  14   0.1207   0.1487   0.2500   0.0428   0.0125  -0.1081   0.00    0.0
2026/01/15 02:31:30.000   30.531672918  114.357265944    27.1292   6  14   0.1205   0.1484   0.2497   0.0427   0.0128  -0.1080   0.00    0.0
2026/01/15 02:32:00.000   30.531672890  114.357265922    27.1309   6  14   0.1203   0.1482   0.2494   0.0425   0.0131  -0.1078   0.00    0.0
2026/01/15 02:32:30.000   30.531672875  114.357265907    27.1328   6   4   0.1202   0.1479   0.2492   0.0425   0.0131  -0.1077   0.00    0.0
2026/01/15 02:33:00.000   30.531672861  114.357265885    27.1368   6  15   0.1199   0.1477   0.2488   0.0423   0.0134  -0.1075   0.00    0.0
2026/01/15 02:34:00.000   30.531672840  114.357265850    27.1422   6  15   0.1196   0.1472   0.2482   0.0421   0.0140  -0.1072   0.00    0.0
2026/01/15 02:35:00.000   30.531672835  114.357265805    27.1480   6  14   0.1191   0.1466   0.2474   0.0418   0.0147  -0.1069   0.00    0.0
2026/01/15 02:35:30.000   30.531672829  114.357265782    27.1498   6   4   0.1190   0.1464   0.2473   0.0417   0.0148  -0.1068   0.00    0.0
2026/01/15 02:36:00.000   30.531672822  114.357265752    27.1556   6  15   0.1187   0.1461   0.2466   0.0415   0.0155  -0.1065   0.00    0.0
2026/01/15 02:36:30.000   30.531672834  114.357265731    27.1613   6  15   0.1184   0.1458   0.2459   0.0413   0.0162  -0.1061   0.00    0.0
2026/01/15 02:37:30.000   30.531672808  114.357265650    27.1710   6  15   0.1179   0.1453   0.2450   0.0409   0.0171  -0.1057   0.00    0.0
2026/01/15 02:38:00.000   30.531672799  114.357265606    27.1773   6  15   0.1175   0.1450   0.2441   0.0406   0.0178  -0.1053   0.00    0.0
2026/01/15 02:38:30.000   30.531672802  114.357265570    27.1817   6  15   0.1172   0.1448   0.2433   0.0403   0.0186  -0.1048   0.00    0.0
2026/01/15 02:39:00.000   30.531672796  114.357265549    27.1883   6  15   0.1168   0.1445   0.2424   0.0400   0.0194  -0.1044   0.00    0.0
2026/01/15 02:39:30.000   30.531672806  114.357265549    27.1940   6  15   0.1164   0.1442   0.2416   0.0397   0.0201  -0.1040   0.00    0.0
2026/01/15 02:40:00.000   30.531672803  114.357265514    27.2011   6  15   0.1160   0.1439   0.2407   0.0394   0.0208  -0.1035   0.00    0.0
2026/01/15 02:40:30.000   30.531672805  114.357265483    27.2075   6  15   0.1157   0.1436   0.2397   0.0391   0.0215  -0.1030   0.00    0.0
2026/01/15 02:41:00.000   30.531672813  114.357265477    27.2140   6  15   0.1153   0.1433   0.2388   0.0387   0.0223  -0.1025   0.00    0.0
2026/01/15 02:41:30.000   30.531672825  114.357265483    27.2189   6  15   0.1149   0.1430   0.2378   0.0384   0.0230  -0.1020   0.00    0.0
2026/01/15 02:42:00.000   30.531672827  114.357265465    27.2257   6  15   0.1145   0.1427   0.2368   0.0380   0.0237  -0.1015   0.00    0.0
2026/01/15 02:42:30.000   30.531672825  114.357265460    27.2327   6  15   0.1140   0.1425   0.2357   0.0377   0.0244  -0.1010   0.00    0.0
2026/01/15 02:43:00.000   30.531672820  114.357265436    27.2403   6  15   0.1136   0.1422   0.2347   0.0373   0.0251  -0.1005   0.00    0.0
2026/01/15 02:43:30.000   30.531672832  114.357265432    27.2462   6  15   0.1132   0.1419   0.2336   0.0369   0.0258  -0.0999   0.00    0.0
2026/01/15 02:44:00.000   30.531672830  114.357265415    27.2526   6  15   0.1127   0.1416   0.2325   0.0365   0.0264  -0.0993   0.00    0.0
2026/01/15 02:44:30.000   30.531672840  114.357265394    27.2603   6  15   0.1123   0.1413   0.2313   0.0360   0.0271  -0.0988   0.00    0.0
2026/01/15 02:45:00.000   30.531672852  114.357265378    27.2684   6  15   0.1118   0.1410   0.2302   0.0356   0.0278  -0.0982   0.00    0.0
2026/01/15 02:45:30.000   30.531672856  114.357265353    27.2763   6  15   0.1113   0.1407   0.2290   0.0352   0.0284  -0.0976   0.00    0.0
2026/01/15 02:46:00.000   30.531672863  114.357265338    27.2800   6  15   0.1108   0.1404   0.2277   0.0347   0.0291  -0.0969   0.00    0.0
2026/01/15 02:46:30.000   30.531672868  114.357265323    27.2855   6  15   0.1103   0.1401   0.2265   0.0342   0.0298  -0.0963   0.00    0.0
2026/01/15 02:47:00.000   30.531672893  114.357265330    27.2922   6  15   0.1098   0.1398   0.2252   0.0337   0.0304  -0.0956   0.00    0.0
2026/01/15 02:47:30.000   30.531672910  114.357265319    27.2990   6  15   0.1093   0.1395   0.2239   0.0332   0.0310  -0.0950   0.00    0.0
2026/01/15 02:48:00.000   30.531672919  114.357265301    27.3071   6  15   0.1088   0.1391   0.2225   0.0327   0.0317  -0.0943   0.00    0.0
2026/01/15 02:48:30.000   30.531672943  114.357265289    27.3152   6  15   0.1083   0.1388   0.2212   0.0322   0.0323  -0.0936   0.00    0.0
2026/01/15 02:49:00.000   30.531672963  114.357265282    27.3216   6  15   0.1077   0.1385   0.2198   0.0316   0.0329  -0.0929   0.00    0.0
2026/01/15 02:49:30.000   30.531672978  114.357265268    27.3302   6  15   0.1072   0.1382   0.2184   0.0310   0.0335  -0.0922   0.00    0.0
2026/01/15 02:50:00.000   30.531672989  114.357265249    27.3377   6  15   0.1066   0.1379   0.2169   0.0305   0.0341  -0.0915   0.00    0.0
2026/01/15 02:50:30.000   30.531673014  114.357265252    27.3463   6  15   0.1061   0.1376   0.2155   0.0298   0.0347  -0.0908   0.00    0.0
2026/01/15 02:51:00.000   30.531673040  114.357265238    27.3527   6  15   0.1055   0.1373   0.2140   0.0292   0.0353  -0.0901   0.00    0.0
2026/01/15 02:51:30.000   30.531673063  114.357265217    27.3595   6  15   0.1049   0.1370   0.2125   0.0286   0.0359  -0.0893   0.00    0.0
2026/01/15 02:52:00.000   30.531673088  114.357265188    27.3664   6  15   0.1044   0.1366   0.2110   0.0279   0.0365  -0.0886   0.00    0.0
2026/01/15 02:52:30.000   30.531673126  114.357265187    27.3726   6  15   0.1038   0.1363   0.2095   0.0273   0.0371  -0.0879   0.00    0.0
2026/01/15 02:53:00.000   30.531673170  114.357265172    27.3776   6  15   0.1032   0.1360   0.2079   0.0266   0.0377  -0.0871   0.00    0.0
2026/01/15 02:53:30.000   30.531673201  114.357265172    27.3834   6  16   0.1026   0.1357   0.2063   0.0259   0.0382  -0.0863   0.00    0.0
2026/01/15 02:54:00.000   30.531673228  114.357265149    27.3893   6  16   0.1020   0.1353   0.2048   0.0252   0.0387  -0.0855   0.00    0.0
2026/01/15 02:54:30.000   30.531673252  114.357265140    27.3958   6  16   0.1013   0.1350   0.2031   0.0245   0.0391  -0.0848   0.00    0.0
2026/01/15 02:55:00.000   30.531673279  114.357265144    27.4037   6  16   0.1007   0.1346   0.2015   0.0237   0.0396  -0.0840   0.00    0.0
2026/01/15 02:55:30.000   30.531673306  114.357265149    27.4109   6  15   0.1001   0.1343   0.2000   0.0230   0.0403  -0.0831   0.00    0.0
2026/01/15 02:56:00.000   30.531673335  114.357265138    27.4185   6  15   0.0995   0.1340   0.1985   0.0223   0.0409  -0.0823   0.00    0.0
2026/01/15 02:56:30.000   30.531673368  114.357265126    27.4245   6  15   0.0989   0.1337   0.1969   0.0215   0.0415  -0.0815   0.00    0.0
2026/01/15 02:57:00.000   30.531673395  114.357265097    27.4298   6  15   0.0982   0.1334   0.1954   0.0207   0.0421  -0.0806   0.00    0.0
2026/01/15 02:57:30.000   30.531673420  114.357265093    27.4384   6  15   0.0976   0.1330   0.1938   0.0199   0.0427  -0.0798   0.00    0.0
2026/01/15 02:58:00.000   30.531673454  114.357265079    27.4446   6  15   0.0970   0.1327   0.1922   0.0190   0.0432  -0.0789   0.00    0.0
2026/01/15 02:58:30.000   30.531673484  114.357265072    27.4527   6  15   0.0963   0.1324   0.1906   0.0181   0.0438  -0.0781   0.00    0.0
2026/01/15 02:59:00.000   30.531673507  114.357265094    27.4589   6  15   0.0957   0.1321   0.1891   0.0172   0.0443  -0.0773   0.00    0.0
2026/01/15 02:59:30.000   30.531673543  114.357265091    27.4664   6  15   0.0950   0.1317   0.1875   0.0162   0.0448  -0.0764   0.00    0.0
2026/01/15 03:00:00.000   30.531673577  114.357265087    27.4736   6  15   0.0944   0.1314   0.1859   0.0151   0.0453  -0.0756   0.00    0.0
2026/01/15 03:00:30.000   30.531673613  114.357265094    27.4807   6  15   0.0937   0.1311   0.1843   0.0140   0.0458  -0.0748   0.00    0.0
2026/01/15 03:01:00.000   30.531673651  114.357265091    27.4870   6  15   0.0931   0.1307   0.1827   0.0127   0.0463  -0.0740   0.00    0.0
2026/01/15 03:01:30.000   30.531673684  114.357265071    27.4937   6  15   0.0924   0.1304   0.1811   0.0114   0.0467  -0.0732   0.00    0.0
2026/01/15 03:02:00.000   30.531673721  114.357265058    27.5005   6  15   0.0918   0.1300   0.1795   0.0098   0.0472  -0.0724   0.00    0.0
2026/01/15 03:02:30.000   30.531673758  114.357265042    27.5076   6  15   0.0911   0.1297   0.1780   0.0080   0.0476  -0.0716   0.00    0.0
2026/01/15 03:03:00.000   30.531673805  114.357265039    27.5138   6  15   0.0905   0.1293   0.1764   0.0056   0.0480  -0.0708   0.00    0.0
2026/01/15 03:03:30.000   30.531673854  114.357265039    27.5180   6  15   0.0898   0.1290   0.1748  -0.0009   0.0484  -0.0700   0.00    0.0
2026/01/15 03:04:00.000   30.531673902  114.357265043    27.5225   6  15   0.0892   0.1286   0.1732  -0.0057   0.0488  -0.0692   0.00    0.0
2026/01/15 03:04:30.000   30.531673947  114.357265033    27.5282   6  15   0.0885   0.1283   0.1717  -0.0080   0.0491  -0.0684   0.00    0.0
2026/01/15 03:05:00.000   30.531673993  114.357265023    27.5346   6  15   0.0879   0.1279   0.1701  -0.0098   0.0495  -0.0677   0.00    0.0
2026/01/15 03:05:30.000   30.531674040  114.357265020    27.5394   6  15   0.0872   0.1276   0.1685  -0.0113   0.0498  -0.0669   0.00    0.0
2026/01/15 03:06:00.000   30.531674083  114.357265037    27.5439   6  15   0.0866   0.1272   0.1670  -0.0125   0.0501  -0.0662   0.00    0.0
2026/01/15 03:06:30.000   30.531674124  114.357265045    27.5484   6  15   0.0859   0.1268   0.1655  -0.0137   0.0504  -0.0655   0.00    0.0
2026/01/15 03:07:00.000   30.531674159  114.357265051    27.5550   6  15   0.0853   0.1265   0.1639  -0.0148   0.0507  -0.0647   0.00    0.0
2026/01/15 03:07:30.000   30.531674196  114.357265072    27.5613   6  15   0.0847   0.1261   0.1624  -0.0157   0.0510  -0.0640   0.00    0.0
2026/01/15 03:08:00.000   30.531674230  114.357265073    27.5679   6  15   0.0840   0.1257   0.1609  -0.0166   0.0513  -0.0633   0.00    0.0
2026/01/15 03:08:30.000   30.531674273  114.357265084    27.5742   6  15   0.0834   0.1254   0.1594  -0.0175   0.0515  -0.0626   0.00    0.0
2026/01/15 03:09:00.000   30.531674318  114.357265074    27.5776   6  15   0.0827   0.1250   0.1581  -0.0183   0.0521  -0.0620   0.00    0.0
2026/01/15 03:09:30.000   30.531674354  114.357265064    27.5823   6  14   0.0821   0.1247   0.1569  -0.0191   0.0526  -0.0613   0.00    0.0
2026/01/15 03:45:00.000   30.531674190  114.357263638    27.6030   6  11   0.0790   0.1157   0.1547  -0.0193   0.0520  -0.0588   0.00    0.0
2026/01/15 03:46:00.000   30.531674170  114.357263579    27.6049   6   6   0.0790   0.1155   0.1546  -0.0194   0.0520  -0.0587   0.00    0.0
2026/01/15 03:47:30.000   30.531674159  114.357263535    27.6064   6  12   0.0788   0.1152   0.1545  -0.0196   0.0520  -0.0586   0.00    0.0
2026/01/15 03:48:30.000   30.531674145  114.357263486    27.6103   6   5   0.0787   0.1149   0.1545  -0.0197   0.0521  -0.0585   0.00    0.0
2026/01/15 03:49:00.000   30.531674147  114.357263457    27.6101   6  12   0.0787   0.1148   0.1544  -0.0198   0.0521  -0.0585   0.00    0.0
2026/01/15 03:49:30.000   30.531674140  114.357263431    27.6106   6   5   0.0787   0.1147   0.1544  -0.0198   0.0521  -0.0585   0.00    0.0
2026/01/15 03:50:00.000   30.531674135  114.357263420    27.6112   6  12   0.0786   0.1146   0.1543  -0.0199   0.0521  -0.0584   0.00    0.0
2026/01/15 03:50:30.000   30.531674127  114.357263401    27.6120   6   5   0.0786   0.1145   0.1543  -0.0199   0.0521  -0.0584   0.00    0.0
2026/01/15 03:51:00.000   30.531674119  114.357263375    27.6118   6  12   0.0785   0.1143   0.1543  -0.0200   0.0521  -0.0584   0.00    0.0
2026/01/15 03:51:30.000   30.531674116  114.357263330    27.6118   6   6   0.0785   0.1142   0.1542  -0.0201   0.0521  -0.0583   0.00    0.0
2026/01/15 03:52:00.000   30.531674114  114.357263317    27.6118   6   6   0.0784   0.1141   0.1542  -0.0201   0.0521  -0.0583   0.00    0.0
2026/01/15 03:52:30.000   30.531674104  114.357263295    27.6122   6   6   0.0784   0.1140   0.1542  -0.0202   0.0522  -0.0582   0.00    0.0
2026/01/15 03:53:00.000   30.531674101  114.357263265    27.6124   6   6   0.0783   0.1139   0.1541  -0.0203   0.0522  -0.0582   0.00    0.0
2026/01/15 03:53:30.000   30.531674103  114.357263257    27.6118   6  13   0.0783   0.1138   0.1541  -0.0204   0.0522  -0.0582   0.00    0.0
2026/01/15 03:54:00.000   30.531674104  114.357263234    27.6119   6  13   0.0782   0.1137   0.1540  -0.0204   0.0522  -0.0581   0.00    0.0
2026/01/15 03:54:30.000   30.531674103  114.357263218    27.6110   6  13   0.0782   0.1135   0.1540  -0.0205   0.0523  -0.0581   0.00    0.0
2026/01/15 03:55:00.000   30.531674102  114.357263197    27.6103   6  13   0.0781   0.1134   0.1539  -0.0206   0.0523  -0.0580   0.00    0.0
2026/01/15 03:55:30.000   30.531674104  114.357263176    27.6102   6  13   0.0780   0.1133   0.1538  -0.0207   0.0523  -0.0580   0.00    0.0
2026/01/15 03:56:00.000   30.531674099  114.357263148    27.6112   6  13   0.0780   0.1132   0.1538  -0.0208   0.0523  -0.0579   0.00    0.0
2026/01/15 03:56:30.000   30.531674093  114.357263110    27.6118   6  13   0.0779   0.1131   0.1537  -0.0209   0.0524  -0.0579   0.00    0.0
2026/01/15 03:57:00.000   30.531674088  114.357263077    27.6125   6  13   0.0779   0.1129   0.1537  -0.0210   0.0524  -0.0579   0.00    0.0
2026/01/15 03:57:30.000   30.531674085  114.357263047    27.6125   6  13   0.0778   0.1128   0.1536  -0.0211   0.0524  -0.0578   0.00    0.0
2026/01/15 03:58:00.000   30.531674082  114.357263032    27.6128   6  13   0.0777   0.1127   0.1535  -0.0212   0.0524  -0.0578   0.00    0.0
2026/01/15 03:58:30.000   30.531674074  114.357262996    27.6139   6  13   0.0776   0.1126   0.1534  -0.0213   0.0525  -0.0577   0.00    0.0
2026/01/15 03:59:00.000   30.531674068  114.357262974    27.6152   6  13   0.0776   0.1125   0.1534  -0.0214   0.0525  -0.0577   0.00    0.0
2026/01/15 03:59:30.000   30.531674060  114.357262951    27.6162   6  11   0.0775   0.1123   0.1533  -0.0215   0.0525  -0.0576   0.00    0.0
2026/01/15 04:00:00.000   30.531674062  114.357262927    27.6179   6  13   0.0774   0.1122   0.1532  -0.0217   0.0526  -0.0576   0.00    0.0
2026/01/15 04:00:30.000   30.531674065  114.357262905    27.6182   6  14   0.0774   0.1121   0.1531  -0.0218   0.0526  -0.0575   0.00    0.0
2026/01/15 04:01:00.000   30.531674067  114.357262888    27.6190   6  14   0.0773   0.1120   0.1530  -0.0219   0.0526  -0.0575   0.00    0.0
2026/01/15 04:01:30.000   30.531674068  114.357262875    27.6196   6  14   0.0772   0.1118   0.1529  -0.0220   0.0527  -0.0574   0.00    0.0
2026/01/15 04:02:00.000   30.531674071  114.357262850    27.6202   6  14   0.0771   0.1117   0.1528  -0.0222   0.0527  -0.0574   0.00    0.0
2026/01/15 04:02:30.000   30.531674073  114.357262829    27.6212   6  14   0.0770   0.1116   0.1527  -0.0223   0.0528  -0.0573   0.00    0.0
2026/01/15 04:03:00.000   30.531674077  114.357262807    27.6218   6  14   0.0769   0.1114   0.1526  -0.0224   0.0528  -0.0573   0.00    0.0
2026/01/15 04:03:30.000   30.531674086  114.357262787    27.6219   6  14   0.0768   0.1113   0.1525  -0.0226   0.0528  -0.0572   0.00    0.0
2026/01/15 04:04:00.000   30.531674099  114.357262779    27.6222   6  14   0.0767   0.1112   0.1524  -0.0227   0.0529  -0.0572   0.00    0.0
2026/01/15 04:04:30.000   30.531674116  114.357262777    27.6212   6  14   0.0766   0.1110   0.1523  -0.0228   0.0529  -0.0571   0.00    0.0
2026/01/15 04:05:00.000   30.531674124  114.357262774    27.6206   6  14   0.0765   0.1109   0.1521  -0.0230   0.0530  -0.0571   0.00    0.0
2026/01/15 04:05:30.000   30.531674135  114.357262767    27.6209   6  14   0.0764   0.1108   0.1520  -0.0231   0.0530  -0.0570   0.00    0.0
2026/01/15 04:06:00.000   30.531674139  114.357262753    27.6214   6  14   0.0763   0.1106   0.1519  -0.0233   0.0531  -0.0570   0.00    0.0
2026/01/15 04:06:30.000   30.531674144  114.357262723    27.6222   6  14   0.0762   0.1105   0.1517  -0.0235   0.0531  -0.0569   0.00    0.0
2026/01/15 04:07:00.000   30.531674150  114.357262710    27.6225   6  14   0.0761   0.1103   0.1516  -0.0236   0.0532  -0.0569   0.00    0.0
2026/01/15 04:07:30.000   30.531674158  114.357262691    27.6232   6  14   0.0759   0.1102   0.1514  -0.0238   0.0532  -0.0568   0.00    0.0
2026/01/15 04:08:00.000   30.531674168  114.357262673    27.6239   6  14   0.0758   0.1100   0.1513  -0.0240   0.0533  -0.0567   0.00    0.0
2026/01/15 04:08:30.000   30.531674176  114.357262653    27.6249   6  14   0.0757   0.1099   0.1511  -0.0241   0.0533  -0.0567   0.00    0.0
2026/01/15 04:09:00.000   30.531674192  114.357262636    27.6258   6  14   0.0755   0.1097   0.1509  -0.0243   0.0533  -0.0566   0.00    0.0
2026/01/15 04:09:30.000   30.531674196  114.357262614    27.6275   6  14   0.0754   0.1096   0.1507  -0.0245   0.0534  -0.0566   0.00    0.0
2026/01/15 04:10:00.000   30.531674205  114.357262608    27.6280   6  14   0.0753   0.1094   0.1506  -0.0247   0.0534  -0.0565   0.00    0.0
2026/01/15 04:10:30.000   30.531674214  114.357262584    27.6284   6  14   0.0751   0.1093   0.1504  -0.0248   0.0535  -0.0565   0.00    0.0
2026/01/15 04:11:00.000   30.531674227  114.357262580    27.6294   6  14   0.0750   0.1091   0.1502  -0.0250   0.0535  -0.0564   0.00    0.0
2026/01/15 04:11:30.000   30.531674239  114.357262539    27.6307   6  14   0.0748   0.1090   0.1500  -0.0252   0.0536  -0.0563   0.00    0.0
2026/01/15 04:12:00.000   30.531674253  114.357262526    27.6313   6  14   0.0747   0.1088   0.1498  -0.0254   0.0536  -0.0563   0.00    0.0
2026/01/15 04:12:30.000   30.531674262  114.357262508    27.6331   6  14   0.0745   0.1086   0.1496  -0.0256   0.0536  -0.0562   0.00    0.0
2026/01/15 04:13:00.000   30.531674279  114.357262491    27.6337   6  14   0.0743   0.1085   0.1494  -0.0258   0.0537  -0.0562   0.00    0.0
2026/01/15 04:13:30.000   30.531674291  114.357262483    27.6352   6  14   0.0742   0.1083   0.1492  -0.0260   0.0537  -0.0561   0.00    0.0
2026/01/15 04:14:00.000   30.531674308  114.357262486    27.6369   6  13   0.0740   0.1082   0.1489  -0.0262   0.0538  -0.0560   0.00    0.0
2026/01/15 04:14:30.000   30.531674322  114.357262469    27.6387   6  14   0.0738   0.1080   0.1487  -0.0264   0.0538  -0.0560   0.00    0.0
2026/01/15 04:15:00.000   30.531674337  114.357262456    27.6403   6  14   0.0737   0.1078   0.1485  -0.0266   0.0538  -0.0559   0.00    0.0
2026/01/15 04:15:30.000   30.531674355  114.357262442    27.6416   6  14   0.0735   0.1076   0.1482  -0.0268   0.0539  -0.0558   0.00    0.0
2026/01/15 04:16:00.000   30.531674372  114.357262439    27.6423   6  14   0.0733   0.1075   0.1480  -0.0270   0.0539  -0.0558   0.00    0.0
2026/01/15 04:16:30.000   30.531674396  114.357262438    27.6432   6  14   0.0731   0.1073   0.1477  -0.0272   0.0539  -0.0557   0.00    0.0
2026/01/15 04:17:00.000   30.531674417  114.357262435    27.6449   6  14   0.0729   0.1071   0.1475  -0.0274   0.0540  -0.0556   0.00    0.0
2026/01/15 04:17:30.000   30.531674442  114.357262447    27.6455   6  14   0.0727   0.1069   0.1472  -0.0276   0.0540  -0.0556   0.00    0.0
2026/01/15 04:18:00.000   30.531674460  114.357262451    27.6463   6  14   0.0725   0.1068   0.1469  -0.0278   0.0540  -0.0555   0.00    0.0
2026/01/15 04:18:30.000   30.531674483  114.357262458    27.6476   6  14   0.0723   0.1066   0.1467  -0.0280   0.0541  -0.0554   0.00    0.0
2026/01/15 04:19:00.000   30.531674505  114.357262464    27.6489   6  14   0.0721   0.1064   0.1464  -0.0282   0.0541  -0.0554   0.00    0.0
2026/01/15 04:19:30.000   30.531674527  114.357262459    27.6509   6  14   0.0719   0.1062   0.1461  -0.0284   0.0541  -0.0553   0.00    0.0
2026/01/15 04:20:00.000   30.531674553  114.357262460    27.6508   6  14   0.0717   0.1060   0.1458  -0.0286   0.0541  -0.0552   0.00    0.0
2026/01/15 04:20:30.000   30.531674581  114.357262476    27.6520   6  14   0.0715   0.1058   0.1455  -0.0288   0.0541  -0.0552   0.00    0.0
2026/01/15 04:21:00.000   30.531674607  114.357262478    27.6538   6  14   0.0713   0.1056   0.1452  -0.0290   0.0541  -0.0551   0.00    0.0
2026/01/15 04:21:30.000   30.531674638  114.357262476    27.6547   6  14   0.0710   0.1054   0.1449  -0.0292   0.0542  -0.0550   0.00    0.0
2026/01/15 04:22:00.000   30.531674664  114.357262477    27.6560   6  14   0.0708   0.1052   0.1446  -0.0294   0.0542  -0.0550   0.00    0.0
2026/01/15 04:22:30.000   30.531674685  114.357262475    27.6578   6  14   0.0706   0.1050   0.1442  -0.0296   0.0542  -0.0549   0.00    0.0
2026/01/15 04:23:00.000   30.531674710  114.357262481    27.6597   6  14   0.0704   0.1048   0.1439  -0.0298   0.0542  -0.0548   0.00    0.0
2026/01/15 04:23:30.000   30.531674737  114.357262490    27.6611   6  14   0.0701   0.1046   0.1436  -0.0300   0.0542  -0.0547   0.00    0.0
2026/01/15 04:24:00.000   30.531674767  114.357262501    27.6627   6  14   0.0699   0.1044   0.1432  -0.0302   0.0542  -0.0547   0.00    0.0
2026/01/15 04:24:30.000   30.531674794  114.357262513    27.6637   6  14   0.0697   0.1042   0.1429  -0.0304   0.0542  -0.0546   0.00    0.0
2026/01/15 04:25:00.000   30.531674822  114.357262521    27.6652   6  14   0.0694   0.1040   0.1426  -0.0305   0.0541  -0.0545   0.00    0.0
2026/01/15 04:25:30.000   30.531674854  114.357262535    27.6661   6  14   0.0692   0.1038   0.1422  -0.0307   0.0541  -0.0545   0.00    0.0
2026/01/15 04:26:00.000   30.531674884  114.357262552    27.6676   6  14   0.0689   0.1036   0.1418  -0.0309   0.0541  -0.0544   0.00    0.0
2026/01/15 04:26:30.000   30.531674913  114.357262581    27.6691   6  14   0.0687   0.1034   0.1415  -0.0311   0.0541  -0.0543   0.00    0.0
2026/01/15 04:27:00.000   30.531674943  114.357262585    27.6711   6  14   0.0684   0.1032   0.1411  -0.0313   0.0541  -0.0542   0.00    0.0
2026/01/15 04:27:30.000   30.531674978  114.357262591    27.6722   6  15   0.0682   0.1030   0.1407  -0.0315   0.0540  -0.0542   0.00    0.0
2026/01/15 04:28:00.000   30.531675009  114.357262604    27.6738   6  15   0.0679   0.1027   0.1403  -0.0316   0.0540  -0.0541   0.00    0.0
2026/01/15 04:28:30.000   30.531675040  114.357262618    27.6754   6  15   0.0677   0.1025   0.1399  -0.0318   0.0540  -0.0540   0.00    0.0
2026/01/15 04:29:00.000   30.531675074  114.357262629    27.6763   6  15   0.0674   0.1023   0.1396  -0.0320   0.0540  -0.0539   0.00    0.0
2026/01/15 04:29:30.000   30.531675108  114.357262649    27.6777   6  15   0.0671   0.1021   0.1392  -0.0321   0.0539  -0.0539   0.00    0.0
2026/01/15 04:30:00.000   30.531675144  114.357262671    27.6788   6  16   0.0669   0.1019   0.1387  -0.0323   0.0539  -0.0538   0.00    0.0
2026/01/15 04:30:30.000   30.531675180  114.357262675    27.6798   6  16   0.0666   0.1016   0.1383  -0.0324   0.0538  -0.0537   0.00    0.0
2026/01/15 04:31:00.000   30.531675216  114.357262701    27.6812   6  16   0.0663   0.1014   0.1379  -0.0326   0.0537  -0.0536   0.00    0.0
2026/01/15 04:31:30.000   30.531675243  114.357262733    27.6834   6  16   0.0661   0.1011   0.1375  -0.0327   0.0537  -0.0535   0.00    0.0
2026/01/15 04:32:00.000   30.531675272  114.357262749    27.6856   6  16   0.0658   0.1009   0.1371  -0.0329   0.0536  -0.0534   0.00    0.0
2026/01/15 04:32:30.000   30.531675302  114.357262753    27.6871   6  16   0.0655   0.1007   0.1366  -0.0330   0.0535  -0.0533   0.00    0.0
2026/01/15 04:33:00.000   30.531675338  114.357262777    27.6877   6  16   0.0653   0.1004   0.1362  -0.0331   0.0534  -0.0532   0.00    0.0
2026/01/15 04:33:30.000   30.531675372  114.357262798    27.6880   6  16   0.0650   0.1002   0.1357  -0.0333   0.0533  -0.0532   0.00    0.0
2026/01/15 04:34:00.000   30.531675404  114.357262823    27.6882   6  16   0.0647   0.0999   0.1353  -0.0334   0.0533  -0.0531   0.00    0.0
2026/01/15 04:34:30.000   30.531675435  114.357262847    27.6888   6  16   0.0644   0.0997   0.1348  -0.0335   0.0532  -0.0530   0.00    0.0
2026/01/15 04:35:00.000   30.531675470  114.357262873    27.6890   6  16   0.0642   0.0994   0.1344  -0.0337   0.0531  -0.0529   0.00    0.0
2026/01/15 04:35:30.000   30.531675502  114.357262903    27.6899   6  16   0.0639   0.0992   0.1339  -0.0338   0.0530  -0.0528   0.00    0.0
2026/01/15 04:36:00.000   30.531675534  114.357262925    27.6908   6  16   0.0636   0.0989   0.1334  -0.0339   0.0529  -0.0527   0.00    0.0
2026/01/15 04:36:30.000   30.531675566  114.357262950    27.6920   6  16   0.0633   0.0987   0.1329  -0.0340   0.0528  -0.0526   0.00    0.0
2026/01/15 04:37:00.000   30.531675602  114.357262967    27.6924   6  16   0.0630   0.0984   0.1325  -0.0341   0.0527  -0.0525   0.00    0.0
2026/01/15 04:37:30.000   30.531675633  114.357262999    27.6931   6  16   0.0628   0.0982   0.1320  -0.0342   0.0525  -0.0524   0.00    0.0
2026/01/15 04:38:00.000   30.531675663  114.357263021    27.6943   6  16   0.0625   0.0979   0.1315  -0.0343   0.0524  -0.0523   0.00    0.0
2026/01/15 04:38:30.000   30.531675693  114.357263051    27.6955   6  16   0.0622   0.0977   0.1310  -0.0344   0.0523  -0.0522   0.00    0.0
2026/01/15 04:39:00.000   30.531675724  114.357263073    27.6968   6  16   0.0619   0.0974   0.1305  -0.0345   0.0522  -0.0521   0.00    0.0
2026/01/15 04:39:30.000   30.531675749  114.357263104    27.6994   6  17   0.0616   0.0971   0.1300  -0.0346   0.0520  -0.0519   0.00    0.0
2026/01/15 04:40:00.000   30.531675775  114.357263132    27.7017   6  17   0.0613   0.0969   0.1294  -0.0346   0.0519  -0.0518   0.00    0.0
2026/01/15 04:40:30.000   30.531675797  114.357263148    27.7029   6  17   0.0611   0.0966   0.1290  -0.0347   0.0518  -0.0517   0.00    0.0
2026/01/15 04:41:00.000   30.531675827  114.357263168    27.7037   6  17   0.0608   0.0964   0.1285  -0.0348   0.0518  -0.0515   0.00    0.0
2026/01/15 04:41:30.000   30.531675853  114.357263196    27.7048   6  17   0.0605   0.0961   0.1281  -0.0348   0.0517  -0.0514   0.00    0.0
2026/01/15 04:42:00.000   30.531675878  114.357263220    27.7064   6  17   0.0602   0.0959   0.1276  -0.0349   0.0517  -0.0513   0.00    0.0
2026/01/15 04:42:30.000   30.531675904  114.357263241    27.7070   6  17   0.0599   0.0956   0.1271  -0.0349   0.0516  -0.0511   0.00    0.0
2026/01/15 04:43:00.000   30.531675934  114.357263258    27.7076   6  17   0.0596   0.0954   0.1266  -0.0349   0.0515  -0.0510   0.00    0.0
2026/01/15 04:43:30.000   30.531675962  114.357263279    27.7077   6  17   0.0593   0.0952   0.1262  -0.0350   0.0514  -0.0508   0.00    0.0
2026/01/15 04:44:00.000   30.531675988  114.357263304    27.7103   6  16   0.0591   0.0949   0.1257  -0.0350   0.0514  -0.0507   0.00    0.0
2026/01/15 04:44:30.000   30.531676017  114.357263324    27.7129   6  16   0.0588   0.0947   0.1253  -0.0351   0.0513  -0.0505   0.00    0.0
2026/01/15 04:45:00.000   30.531676039  114.357263344    27.7161   6  15   0.0585   0.0944   0.1249  -0.0351   0.0512  -0.0503   0.00    0.0
2026/01/15 04:45:30.000   30.531676066  114.357263372    27.7181   6  16   0.0582   0.0942   0.1244  -0.0351   0.0511  -0.0502   0.00    0.0
2026/01/15 04:46:00.000   30.531676094  114.357263380    27.7197   6  16   0.0579   0.0939   0.1240  -0.0352   0.0510  -0.0500   0.00    0.0
2026/01/15 04:46:30.000   30.531676122  114.357263390    27.7219   6  15   0.0577   0.0937   0.1235  -0.0352   0.0509  -0.0498   0.00    0.0
2026/01/15 04:47:00.000   30.531676147  114.357263408    27.7237   6  16   0.0574   0.0934   0.1230  -0.0352   0.0508  -0.0497   0.00    0.0
2026/01/15 04:47:30.000   30.531676173  114.357263432    27.7249   6  15   0.0571   0.0932   0.1226  -0.0352   0.0506  -0.0495   0.00    0.0
2026/01/15 04:48:00.000   30.531676200  114.357263447    27.7268   6  16   0.0568   0.0929   0.1221  -0.0353   0.0505  -0.0493   0.00    0.0
2026/01/15 04:48:30.000   30.531676229  114.357263476    27.7287   6  16   0.0566   0.0927   0.1216  -0.0353   0.0504  -0.0492   0.00    0.0
2026/01/15 04:49:00.000   30.531676260  114.357263494    27.7300   6  15   0.0563   0.0924   0.1211  -0.0353   0.0503  -0.0490   0.00    0.0
2026/01/15 04:49:30.000   30.531676284  114.357263527    27.7327   6  15   0.0560   0.0922   0.1207  -0.0353   0.0502  -0.0488   0.00    0.0
2026/01/15 04:50:00.000   30.531676313  114.357263551    27.7345   6  16   0.0557   0.0919   0.1202  -0.0353   0.0501  -0.0486   0.00    0.0
2026/01/15 04:50:30.000   30.531676343  114.357263569    27.7361   6  16   0.0555   0.0916   0.1197  -0.0353   0.0499  -0.0485   0.00    0.0
2026/01/15 04:51:00.000   30.531676370  114.357263591    27.7386   6  15   0.0552   0.0914   0.1192  -0.0353   0.0498  -0.0483   0.00    0.0
2026/01/15 04:51:30.000   30.531676397  114.357263617    27.7413   6  15   0.0549   0.0911   0.1187  -0.0353   0.0497  -0.0481   0.00    0.0
2026/01/15 04:52:00.000   30.531676424  114.357263643    27.7433   6  15   0.0546   0.0909   0.1182  -0.0353   0.0495  -0.0479   0.00    0.0
2026/01/15 04:52:30.000   30.531676450  114.357263666    27.7454   6  15   0.0544   0.0906   0.1177  -0.0353   0.0494  -0.0478   0.00    0.0
2026/01/15 04:53:00.000   30.531676475  114.357263694    27.7475   6  15   0.0541   0.0904   0.1172  -0.0353   0.0493  -0.0476   0.00    0.0
2026/01/15 04:53:30.000   30.531676497  114.357263717    27.7495   6  15   0.0538   0.0901   0.1167  -0.0353   0.0491  -0.0474   0.00    0.0
2026/01/15 04:54:00.000   30.531676522  114.357263739    27.7516   6  15   0.0536   0.0898   0.1162  -0.0353   0.0490  -0.0472   0.00    0.0
2026/01/15 04:54:30.000   30.531676543  114.357263762    27.7537   6  15   0.0533   0.0896   0.1156  -0.0353   0.0488  -0.0470   0.00    0.0
2026/01/15 04:55:00.000   30.531676567  114.357263799    27.7556   6  15   0.0530   0.0893   0.1151  -0.0353   0.0487  -0.0468   0.00    0.0
2026/01/15 04:55:30.000   30.531676591  114.357263820    27.7576   6  15   0.0528   0.0891   0.1146  -0.0353   0.0485  -0.0467   0.00    0.0
2026/01/15 04:56:00.000   30.531676614  114.357263848    27.7596   6  15   0.0525   0.0888   0.1141  -0.0352   0.0484  -0.0465   0.00    0.0
2026/01/15 04:56:30.000   30.531676634  114.357263882    27.7622   6  15   0.0522   0.0885   0.1136  -0.0352   0.0482  -0.0463   0.00    0.0
2026/01/15 04:57:00.000   30.531676653  114.357263909    27.7642   6  15   0.0520   0.0883   0.1130  -0.0352   0.0480  -0.0461   0.00    0.0
2026/01/15 04:57:30.000   30.531676675  114.357263937    27.7656   6  15   0.0517   0.0880   0.1125  -0.0352   0.0479  -0.0459   0.00    0.0
2026/01/15 04:58:00.000   30.531676695  114.357263959    27.7681   6  15   0.0514   0.0878   0.1120  -0.0351   0.0477  -0.0457   0.00    0.0
2026/01/15 04:58:30.000   30.531676716  114.357263989    27.7703   6  15   0.0512   0.0875   0.1114  -0.0351   0.0475  -0.0455   0.00    0.0
2026/01/15 04:59:00.000   30.531676738  114.357264016    27.7724   6  15   0.0509   0.0872   0.1109  -0.0351   0.0474  -0.0453   0.00    0.0
2026/01/15 05:03:00.000   30.531676739  114.357263976    27.7763   6  16   0.0505   0.0866   0.1102  -0.0349   0.0471  -0.0450   0.00    0.0
2026/01/15 05:04:00.000   30.531676763  114.357264010    27.7764   6  16   0.0502   0.0862   0.1096  -0.0349   0.0470  -0.0448   0.00    0.0
2026/01/15 05:04:30.000   30.531676788  114.357264044    27.7777   6  16   0.0499   0.0859   0.1090  -0.0348   0.0468  -0.0446   0.00    0.0
2026/01/15 05:05:00.000   30.531676813  114.357264076    27.7790   6  16   0.0496   0.0856   0.1084  -0.0348   0.0467  -0.0443   0.00    0.0
2026/01/15 05:05:30.000   30.531676837  114.357264112    27.7804   6  16   0.0493   0.0854   0.1078  -0.0347   0.0466  -0.0441   0.00    0.0
2026/01/15 05:06:00.000   30.531676858  114.357264146    27.7817   6  16   0.0490   0.0851   0.1072  -0.0347   0.0464  -0.0439   0.00    0.0
2026/01/15 05:06:30.000   30.531676881  114.357264176    27.7834   6  16   0.0487   0.0848   0.1067  -0.0346   0.0463  -0.0437   0.00    0.0
2026/01/15 05:07:00.000   30.531676902  114.357264210    27.7850   6  16   0.0484   0.0845   0.1061  -0.0346   0.0462  -0.0434   0.00    0.0
2026/01/15 05:07:30.000   30.531676924  114.357264238    27.7865   6  16   0.0481   0.0842   0.1055  -0.0345   0.0460  -0.0432   0.00    0.0
2026/01/15 05:08:00.000   30.531676944  114.357264270    27.7877   6  16   0.0478   0.0839   0.1049  -0.0344   0.0459  -0.0430   0.00    0.0
2026/01/15 05:08:30.000   30.531676965  114.357264307    27.7891   6  16   0.0475   0.0836   0.1044  -0.0344   0.0457  -0.0428   0.00    0.0
2026/01/15 05:09:00.000   30.531676984  114.357264340    27.7906   6  16   0.0473   0.0833   0.1038  -0.0343   0.0456  -0.0425   0.00    0.0
2026/01/15 05:09:30.000   30.531677006  114.357264365    27.7917   6  16   0.0470   0.0831   0.1032  -0.0342   0.0454  -0.0423   0.00    0.0
2026/01/15 05:10:00.000   30.531677027  114.357264399    27.7929   6  16   0.0467   0.0828   0.1026  -0.0342   0.0453  -0.0421   0.00    0.0
2026/01/15 05:10:30.000   30.531677046  114.357264431    27.7944   6  16   0.0464   0.0825   0.1021  -0.0341   0.0451  -0.0419   0.00    0.0
2026/01/15 05:11:00.000   30.531677065  114.357264462    27.7957   6  16   0.0462   0.0822   0.1015  -0.0340   0.0450  -0.0417   0.00    0.0
2026/01/15 05:11:30.000   30.531677082  114.357264498    27.7976   6  16   0.0459   0.0819   0.1009  -0.0339   0.0448  -0.0415   0.00    0.0
2026/01/15 05:12:00.000   30.531677101  114.357264532    27.7994   6  16   0.0456   0.0816   0.1004  -0.0338   0.0446  -0.0412   0.00    0.0
2026/01/15 05:12:30.000   30.531677117  114.357264571    27.8019   6  16   0.0454   0.0814   0.0998  -0.0338   0.0445  -0.0410   0.00    0.0
2026/01/15 05:13:00.000   30.531677134  114.357264604    27.8039   6  16   0.0451   0.0811   0.0992  -0.0337   0.0443  -0.0408   0.00    0.0
2026/01/15 05:13:30.000   30.531677150  114.357264641    27.8058   6  16   0.0448   0.0808   0.0987  -0.0336   0.0442  -0.0406   0.00    0.0
2026/01/15 05:14:00.000   30.531677165  114.357264682    27.8078   6  16   0.0446   0.0805   0.0981  -0.0335   0.0440  -0.0404   0.00    0.0
2026/01/15 05:14:30.000   30.531677181  114.357264719    27.8096   6  16   0.0443   0.0802   0.0975  -0.0334   0.0438  -0.0402   0.00    0.0
2026/01/15 05:15:00.000   30.531677196  114.357264754    27.8117   6  16   0.0441   0.0800   0.0970  -0.0334   0.0436  -0.0399   0.00    0.0
2026/01/15 05:15:30.000   30.531677210  114.357264791    27.8140   6  16   0.0438   0.0797   0.0964  -0.0333   0.0435  -0.0397   0.00    0.0
2026/01/15 05:16:00.000   30.531677226  114.357264821    27.8156   6  15   0.0436   0.0794   0.0959  -0.0332   0.0433  -0.0395   0.00    0.0
2026/01/15 05:16:30.000   30.531677240  114.357264854    27.8173   6  16   0.0433   0.0791   0.0953  -0.0331   0.0431  -0.0393   0.00    0.0
2026/01/15 05:17:00.000   30.531677254  114.357264893    27.8192   6  16   0.0431   0.0788   0.0947  -0.0330   0.0429  -0.0391   0.00    0.0
2026/01/15 05:17:30.000   30.531677267  114.357264922    27.8208   6  16   0.0429   0.0786   0.0942  -0.0329   0.0428  -0.0389   0.00    0.0
2026/01/15 05:18:00.000   30.531677281  114.357264948    27.8222   6  16   0.0426   0.0783   0.0936  -0.0328   0.0426  -0.0387   0.00    0.0
2026/01/15 05:18:30.000   30.531677293  114.357264977    27.8235   6  16   0.0424   0.0780   0.0931  -0.0327   0.0424  -0.0385   0.00    0.0
2026/01/15 05:19:00.000   30.531677307  114.357265010    27.8252   6  16   0.0421   0.0778   0.0925  -0.0326   0.0422  -0.0382   0.00    0.0
2026/01/15 05:19:30.000   30.531677318  114.357265040    27.8268   6  16   0.0419   0.0775   0.0920  -0.0325   0.0421  -0.0380   0.00    0.0
2026/01/15 05:20:00.000   30.531677330  114.357265071    27.8284   6  16   0.0417   0.0772   0.0915  -0.0324   0.0419  -0.0378   0.00    0.0
2026/01/15 05:20:30.000   30.531677341  114.357265105    27.8304   6  16   0.0415   0.0769   0.0909  -0.0324   0.0417  -0.0376   0.00    0.0
2026/01/15 05:21:00.000   30.531677353  114.357265137    27.8323   6  16   0.0412   0.0767   0.0904  -0.0323   0.0415  -0.0374   0.00    0.0
2026/01/15 05:21:30.000   30.531677364  114.357265169    27.8342   6  15   0.0410   0.0764   0.0898  -0.0322   0.0413  -0.0372   0.00    0.0
2026/01/15 05:22:00.000   30.531677376  114.357265197    27.8355   6  16   0.0408   0.0761   0.0893  -0.0321   0.0411  -0.0370   0.00    0.0
2026/01/15 05:22:30.000   30.531677388  114.357265233    27.8367   6  16   0.0406   0.0759   0.0888  -0.0320   0.0410  -0.0368   0.00    0.0
2026/01/15 05:23:00.000   30.531677399  114.357265262    27.8381   6  16   0.0403   0.0756   0.0882  -0.0319   0.0408  -0.0366   0.00    0.0
2026/01/15 05:23:30.000   30.531677407  114.357265291    27.8398   6  16   0.0401   0.0753   0.0877  -0.0318   0.0406  -0.0364   0.00    0.0
2026/01/15 05:24:00.000   30.531677416  114.357265324    27.8411   6  16   0.0399   0.0751   0.0872  -0.0317   0.0404  -0.0362   0.00    0.0
2026/01/15 05:24:30.000   30.531677426  114.357265356    27.8425   6  16   0.0397   0.0748   0.0866  -0.0316   0.0402  -0.0360   0.00    0.0
2026/01/15 05:25:00.000   30.531677434  114.357265394    27.8441   6  16   0.0395   0.0745   0.0861  -0.0315   0.0400  -0.0358   0.00    0.0
2026/01/15 05:25:30.000   30.531677443  114.357265420    27.8451   6  16   0.0393   0.0743   0.0856  -0.0314   0.0398  -0.0356   0.00    0.0
2026/01/15 05:26:00.000   30.531677451  114.357265443    27.8462   6  16   0.0391   0.0740   0.0851  -0.0313   0.0397  -0.0354   0.00    0.0
2026/01/15 05:26:30.000   30.531677458  114.357265476    27.8476   6  16   0.0389   0.0738   0.0846  -0.0312   0.0395  -0.0352   0.00    0.0
2026/01/15 05:27:00.000   30.531677466  114.357265506    27.8490   6  16   0.0387   0.0735   0.0840  -0.0311   0.0393  -0.0350   0.00    0.0
2026/01/15 05:27:30.000   30.531677473  114.357265538    27.8505   6  16   0.0385   0.0733   0.0835  -0.0310   0.0391  -0.0348   0.00    0.0
2026/01/15 05:28:00.000   30.531677480  114.357265571    27.8517   6  16   0.0383   0.0730   0.0830  -0.0308   0.0389  -0.0346   0.00    0.0
2026/01/15 05:28:30.000   30.531677486  114.357265602    27.8527   6  16   0.0381   0.0727   0.0825  -0.0307   0.0387  -0.0344   0.00    0.0
2026/01/15 05:29:00.000   30.531677492  114.357265637    27.8537   6  16   0.0379   0.0725   0.0820  -0.0306   0.0385  -0.0342   0.00    0.0
2026/01/15 05:29:30.000   30.531677499  114.357265664    27.8545   6  16   0.0377   0.0722   0.0815  -0.0305   0.0384  -0.0340   0.00    0.0
2026/01/15 05:30:00.000   30.531677506  114.357265690    27.8550   6  16   0.0375   0.0720   0.0810  -0.0304   0.0382  -0.0338   0.00    0.0
2026/01/15 05:30:30.000   30.531677512  114.357265716    27.8557   6  16   0.0373   0.0717   0.0805  -0.0303   0.0380  -0.0336   0.00    0.0
2026/01/15 05:31:00.000   30.531677519  114.357265739    27.8561   6  16   0.0371   0.0715   0.0800  -0.0302   0.0378  -0.0334   0.00    0.0
2026/01/15 05:31:30.000   30.531677525  114.357265770    27.8571   6  16   0.0369   0.0712   0.0795  -0.0301   0.0376  -0.0332   0.00    0.0
2026/01/15 05:32:00.000   30.531677535  114.357265785    27.8581   6  15   0.0367   0.0710   0.0790  -0.0300   0.0374  -0.0330   0.00    0.0
2026/01/15 05:32:30.000   30.531677546  114.357265800    27.8588   6  15   0.0365   0.0708   0.0785  -0.0299   0.0372  -0.0328   0.00    0.0
2026/01/15 05:33:00.000   30.531677554  114.357265823    27.8597   6  15   0.0364   0.0705   0.0780  -0.0298   0.0370  -0.0326   0.00    0.0
2026/01/15 05:33:30.000   30.531677563  114.357265848    27.8607   6  15   0.0362   0.0703   0.0775  -0.0298   0.0368  -0.0324   0.00    0.0
2026/01/15 05:34:00.000   30.531677573  114.357265866    27.8612   6  15   0.0360   0.0701   0.0771  -0.0297   0.0367  -0.0323   0.00    0.0
2026/01/15 05:34:30.000   30.531677582  114.357265889    27.8622   6  15   0.0358   0.0699   0.0766  -0.0296   0.0365  -0.0321   0.00    0.0
2026/01/15 05:35:00.000   30.531677589  114.357265908    27.8624   6  15   0.0356   0.0697   0.0762  -0.0295   0.0363  -0.0319   0.00    0.0
2026/01/15 05:35:30.000   30.531677596  114.357265930    27.8627   6  14   0.0355   0.0694   0.0758  -0.0294   0.0362  -0.0317   0.00    0.0
2026/01/15 05:36:00.000   30.531677602  114.357265951    27.8633   6  15   0.0353   0.0692   0.0753  -0.0293   0.0360  -0.0314   0.00    0.0
2026/01/15 05:36:30.000   30.531677610  114.357265966    27.8635   6  16   0.0351   0.0690   0.0749  -0.0292   0.0359  -0.0312   0.00    0.0
2026/01/15 05:37:00.000   30.531677617  114.357265983    27.8638   6  16   0.0350   0.0688   0.0745  -0.0291   0.0357  -0.0310   0.00    0.0
2026/01/15 05:37:30.000   30.531677623  114.357266001    27.8643   6  16   0.0348   0.0686   0.0741  -0.0290   0.0356  -0.0308   0.00    0.0
2026/01/15 05:38:00.000   30.531677630  114.357266012    27.8645   6  16   0.0346   0.0684   0.0737  -0.0289   0.0354  -0.0306   0.00    0.0
2026/01/15 05:38:30.000   30.531677636  114.357266028    27.8648   6  16   0.0345   0.0681   0.0733  -0.0288   0.0353  -0.0304   0.00    0.0
2026/01/15 05:39:00.000   30.531677643  114.357266039    27.8650   6  16   0.0343   0.0679   0.0729  -0.0287   0.0351  -0.0302   0.00    0.0
2026/01/15 05:39:30.000   30.531677649  114.357266054    27.8653   6  16   0.0342   0.0677   0.0725  -0.0286   0.0350  -0.0300   0.00    0.0
2026/01/15 05:40:00.000   30.531677657  114.357266070    27.8657   6  15   0.0340   0.0675   0.0721  -0.0285   0.0348  -0.0299   0.00    0.0
2026/01/15 05:40:30.000   30.531677664  114.357266089    27.8659   6  16   0.0338   0.0673   0.0717  -0.0284   0.0347  -0.0297   0.00    0.0
2026/01/15 05:41:00.000   30.531677671  114.357266108    27.8662   6  16   0.0337   0.0671   0.0713  -0.0283   0.0345  -0.0295   0.00    0.0
2026/01/15 05:41:30.000   30.531677677  114.357266129    27.8668   6  15   0.0335   0.0669   0.0709  -0.0282   0.0344  -0.0293   0.00    0.0
2026/01/15 05:42:00.000   30.531677684  114.357266144    27.8670   6  15   0.0334   0.0667   0.0705  -0.0281   0.0342  -0.0291   0.00    0.0
2026/01/15 05:42:30.000   30.531677691  114.357266160    27.8673   6  15   0.0332   0.0665   0.0701  -0.0280   0.0341  -0.0289   0.00    0.0
2026/01/15 05:43:00.000   30.531677698  114.357266173    27.8673   6  16   0.0331   0.0662   0.0697  -0.0279   0.0339  -0.0287   0.00    0.0
2026/01/15 05:43:30.000   30.531677704  114.357266188    27.8676   6  15   0.0329   0.0660   0.0693  -0.0278   0.0338  -0.0285   0.00    0.0
2026/01/15 05:44:00.000   30.531677710  114.357266202    27.8678   6  17   0.0328   0.0658   0.0690  -0.0277   0.0337  -0.0284   0.00    0.0
2026/01/15 05:44:30.000   30.531677718  114.357266211    27.8677   6  17   0.0326   0.0656   0.0686  -0.0276   0.0335  -0.0282   0.00    0.0
2026/01/15 05:45:00.000   30.531677725  114.357266225    27.8675   6  17   0.0325   0.0654   0.0682  -0.0275   0.0334  -0.0280   0.00    0.0
2026/01/15 05:45:30.000   30.531677732  114.357266234    27.8673   6  17   0.0323   0.0652   0.0678  -0.0274   0.0332  -0.0278   0.00    0.0
2026/01/15 05:46:00.000   30.531677739  114.357266243    27.8671   6  17   0.0322   0.0650   0.0674  -0.0273   0.0331  -0.0277   0.00    0.0
2026/01/15 05:46:30.000   30.531677745  114.357266259    27.8670   6  16   0.0320   0.0648   0.0670  -0.0272   0.0329  -0.0275   0.00    0.0
2026/01/15 05:47:00.000   30.531677751  114.357266276    27.8668   6  17   0.0319   0.0646   0.0667  -0.0271   0.0328  -0.0273   0.00    0.0
2026/01/15 05:47:30.000   30.531677757  114.357266294    27.8666   6  17   0.0318   0.0644   0.0663  -0.0270   0.0326  -0.0271   0.00    0.0
2026/01/15 05:48:00.000   30.531677763  114.357266311    27.8666   6  17   0.0316   0.0642   0.0659  -0.0269   0.0325  -0.0270   0.00    0.0
2026/01/15 05:48:30.000   30.531677768  114.357266329    27.8666   6  17   0.0315   0.0640   0.0656  -0.0268   0.0324  -0.0268   0.00    0.0
2026/01/15 05:49:00.000   30.531677775  114.357266343    27.8661   6  17   0.0313   0.0638   0.0652  -0.0267   0.0322  -0.0266   0.00    0.0
2026/01/15 05:49:30.000   30.531677781  114.357266353    27.8655   6  17   0.0312   0.0636   0.0648  -0.0266   0.0321  -0.0265   0.00    0.0
2026/01/15 05:50:00.000   30.531677787  114.357266370    27.8649   6  17   0.0311   0.0634   0.0644  -0.0266   0.0320  -0.0263   0.00    0.0
2026/01/15 05:50:30.000   30.531677793  114.357266387    27.8643   6  17   0.0309   0.0632   0.0641  -0.0265   0.0318  -0.0262   0.00    0.0
2026/01/15 05:51:00.000   30.531677800  114.357266404    27.8637   6  17   0.0308   0.0630   0.0637  -0.0264   0.0317  -0.0260   0.00    0.0
2026/01/15 05:51:30.000   30.531677805  114.357266419    27.8631   6  17   0.0306   0.0628   0.0634  -0.0263   0.0315  -0.0258   0.00    0.0
2026/01/15 05:52:00.000   30.531677811  114.357266431    27.8624   6  17   0.0305   0.0626   0.0630  -0.0262   0.0314  -0.0257   0.00    0.0
2026/01/15 05:52:30.000   30.531677817  114.357266444    27.8619   6  17   0.0304   0.0624   0.0627  -0.0261   0.0313  -0.0255   0.00    0.0
2026/01/15 05:53:00.000   30.531677822  114.357266459    27.8615   6  16   0.0302   0.0622   0.0623  -0.0260   0.0311  -0.0254   0.00    0.0
