% program   : RTKLIB ver.EX 2.5.0
% inp file  : C:\PPP_PROJECT\RTKLIB_work\runs\ZIM2_EXP2_2B_20260508_102536\ZIM200CHE_R_20260150000_01D_30S_MO.rnx
% inp file  : C:\PPP_PROJECT\RTKLIB_work\runs\ZIM2_EXP2_2B_20260508_102536\BRDC00IGS_R_20260150000_01D_MN.rnx
% inp file  : C:\PPP_PROJECT\RTKLIB_work\runs\ZIM2_EXP2_2B_20260508_102536\COD0MGXFIN_20260150000_01D_05M_ORB.SP3
% inp file  : C:\PPP_PROJECT\RTKLIB_work\runs\ZIM2_EXP2_2B_20260508_102536\COD0MGXFIN_20260150000_01D_30S_CLK.CLK
% inp file  : C:\PPP_PROJECT\RTKLIB_work\runs\ZIM2_EXP2_2B_20260508_102536
% inp file  : C:\PPP_PROJECT\RTKLIB_work\runs\ZIM2_EXP2_2B_20260508_102536
% obs start : 2026/01/15 00:00:00.0 GPST (week2401 345600.0s)
% obs end   : 2026/01/15 23:59:30.0 GPST (week2401 431970.0s)
% pos mode  : PPP Static
% freqs     : L1+L2/E5b
% solution  : Forward
% elev mask : 15.0 deg
% dynamics  : on
% tidecorr  :
% ionos opt : Iono-Free LC
% tropo opt : Saastamoinen
% ephemeris : Precise
% navi sys  : GPS Galileo
% antenna1  : TRM59800.00     NONE  ( 0.0000  0.0000  0.0000)
%
% (lat/lon/height=WGS84/ellipsoidal,Q=1:fix,2:float,3:sbas,4:dgps,5:single,6:ppp,ns=# of satellites)
%  GPST                  latitude(deg) longitude(deg)  height(m)   Q  ns   sdn(m)   sde(m)   sdu(m)  sdne(m)  sdeu(m)  sdun(m) age(s)  ratio
2026/01/15 00:00:00.000   46.877098970    7.465046834   957.2887   6  15   3.2338   2.7191   6.3372  -0.5145   0.8560  -1.3067   0.00    0.0
2026/01/15 00:00:30.000   46.877099377    7.465045297   957.1738   6  17   2.2298   1.8619   4.3317   0.3358  -0.4681  -0.5507   0.00    0.0
2026/01/15 00:01:00.000   46.877098244    7.465044491   957.3250   6  17   1.8047   1.5071   3.4927   0.3388  -0.4986  -0.3448   0.00    0.0
2026/01/15 00:01:30.000   46.877098024    7.465043796   957.3945   6  17   1.5522   1.2994   2.9923   0.3134  -0.4714  -0.2730   0.00    0.0
2026/01/15 00:02:00.000   46.877097928    7.465043583   957.4274   6  17   1.3789   1.1586   2.6458   0.2885  -0.4406  -0.2537   0.00    0.0
2026/01/15 00:02:30.000   46.877097681    7.465043315   957.4543   6  17   1.2496   1.0550   2.3845   0.2671  -0.4127  -0.2556   0.00    0.0
2026/01/15 00:03:00.000   46.877097141    7.465043243   957.4836   6  17   1.1477   0.9745   2.1763   0.2489  -0.3884  -0.2651   0.00    0.0
2026/01/15 00:03:30.000   46.877096707    7.465043291   957.4828   6  17   1.0642   0.9095   2.0040   0.2333  -0.3671  -0.2763   0.00    0.0
2026/01/15 00:04:00.000   46.877096533    7.465043375   957.4768   6  17   0.9940   0.8556   1.8576   0.2200  -0.3484  -0.2869   0.00    0.0
2026/01/15 00:04:30.000   46.877096389    7.465043531   957.4516   6  17   0.9348   0.8109   1.7420   0.2040  -0.3389  -0.2807   0.00    0.0
2026/01/15 00:05:00.000   46.877096392    7.465043644   957.4124   6  17   0.8827   0.7722   1.6386   0.1907  -0.3283  -0.2797   0.00    0.0
2026/01/15 00:05:30.000   46.877096426    7.465043772   957.3668   6  17   0.8363   0.7381   1.5452   0.1795  -0.3175  -0.2810   0.00    0.0
2026/01/15 00:06:00.000   46.877096473    7.465043864   957.3296   6  17   0.7945   0.7079   1.4601   0.1701  -0.3068  -0.2832   0.00    0.0
2026/01/15 00:06:30.000   46.877096446    7.465043879   957.2984   6  17   0.7566   0.6807   1.3821   0.1621  -0.2963  -0.2855   0.00    0.0
2026/01/15 00:07:00.000   46.877096295    7.465043824   957.2759   6  17   0.7219   0.6561   1.3103   0.1551  -0.2862  -0.2873   0.00    0.0
2026/01/15 00:07:30.000   46.877096181    7.465043801   957.2627   6  17   0.6899   0.6337   1.2440   0.1491  -0.2765  -0.2885   0.00    0.0
2026/01/15 00:08:00.000   46.877096149    7.465043772   957.2282   6  17   0.6604   0.6131   1.1827   0.1437  -0.2673  -0.2889   0.00    0.0
2026/01/15 00:08:30.000   46.877096154    7.465043645   957.1933   6  17   0.6330   0.5941   1.1257   0.1390  -0.2585  -0.2886   0.00    0.0
2026/01/15 00:09:00.000   46.877096136    7.465043430   957.1676   6  17   0.6075   0.5765   1.0726   0.1347  -0.2501  -0.2875   0.00    0.0
2026/01/15 00:09:30.000   46.877096071    7.465043249   957.1529   6  16   0.5853   0.5610   1.0265   0.1313  -0.2422  -0.2918   0.00    0.0
2026/01/15 00:10:00.000   46.877096010    7.465043183   957.1314   6  16   0.5644   0.5464   0.9832   0.1279  -0.2345  -0.2941   0.00    0.0
2026/01/15 00:10:30.000   46.877096058    7.465043064   957.1033   6  16   0.5446   0.5326   0.9424   0.1245  -0.2270  -0.2949   0.00    0.0
2026/01/15 00:11:00.000   46.877096134    7.465042951   957.0791   6  16   0.5259   0.5197   0.9039   0.1211  -0.2197  -0.2945   0.00    0.0
2026/01/15 00:11:30.000   46.877096186    7.465042752   957.0489   6  16   0.5081   0.5074   0.8677   0.1178  -0.2127  -0.2930   0.00    0.0
2026/01/15 00:12:00.000   46.877096174    7.465042571   957.0221   6  16   0.4913   0.4958   0.8335   0.1145  -0.2059  -0.2907   0.00    0.0
2026/01/15 00:12:30.000   46.877096163    7.465042444   956.9988   6  16   0.4753   0.4847   0.8013   0.1113  -0.1995  -0.2877   0.00    0.0
2026/01/15 00:13:00.000   46.877096129    7.465042388   956.9771   6  16   0.4601   0.4742   0.7708   0.1082  -0.1933  -0.2842   0.00    0.0
2026/01/15 00:13:30.000   46.877096126    7.465042341   956.9537   6  16   0.4456   0.4641   0.7420   0.1051  -0.1873  -0.2803   0.00    0.0
2026/01/15 00:14:00.000   46.877096099    7.465042285   956.9311   6  16   0.4318   0.4545   0.7148   0.1021  -0.1817  -0.2760   0.00    0.0
2026/01/15 00:14:30.000   46.877096069    7.465042270   956.9137   6  16   0.4186   0.4453   0.6889   0.0992  -0.1762  -0.2715   0.00    0.0
2026/01/15 00:15:00.000   46.877096034    7.465042252   956.8970   6  16   0.4060   0.4364   0.6645   0.0963  -0.1711  -0.2668   0.00    0.0
2026/01/15 00:15:30.000   46.877096038    7.465042278   956.8881   6  15   0.3941   0.4282   0.6431   0.0939  -0.1655  -0.2609   0.00    0.0
2026/01/15 00:16:00.000   46.877096012    7.465042307   956.8795   6  15   0.3827   0.4202   0.6226   0.0915  -0.1601  -0.2551   0.00    0.0
2026/01/15 00:16:30.000   46.877095997    7.465042241   956.8719   6  15   0.3718   0.4125   0.6030   0.0892  -0.1549  -0.2494   0.00    0.0
2026/01/15 00:17:00.000   46.877095994    7.465042161   956.8624   6  15   0.3613   0.4051   0.5841   0.0870  -0.1500  -0.2439   0.00    0.0
2026/01/15 00:17:30.000   46.877096002    7.465042102   956.8504   6  15   0.3513   0.3979   0.5661   0.0848  -0.1453  -0.2384   0.00    0.0
2026/01/15 00:18:00.000   46.877096012    7.465042068   956.8394   6  15   0.3416   0.3910   0.5489   0.0827  -0.1408  -0.2331   0.00    0.0
2026/01/15 00:18:30.000   46.877096027    7.465042005   956.8296   6  15   0.3323   0.3843   0.5323   0.0807  -0.1365  -0.2279   0.00    0.0
2026/01/15 00:19:00.000   46.877096038    7.465041931   956.8181   6  15   0.3234   0.3779   0.5165   0.0788  -0.1324  -0.2227   0.00    0.0
2026/01/15 00:19:30.000   46.877096044    7.465041851   956.8065   6  15   0.3148   0.3716   0.5013   0.0769  -0.1285  -0.2178   0.00    0.0
2026/01/15 00:20:00.000   46.877096079    7.465041714   956.7957   6  15   0.3066   0.3655   0.4868   0.0751  -0.1247  -0.2129   0.00    0.0
2026/01/15 00:20:30.000   46.877096099    7.465041645   956.7833   6  15   0.2987   0.3596   0.4728   0.0733  -0.1212  -0.2081   0.00    0.0
2026/01/15 00:21:00.000   46.877096129    7.465041600   956.7738   6  15   0.2910   0.3538   0.4594   0.0716  -0.1178  -0.2035   0.00    0.0
2026/01/15 00:21:30.000   46.877096139    7.465041575   956.7656   6  15   0.2837   0.3482   0.4466   0.0700  -0.1146  -0.1990   0.00    0.0
2026/01/15 00:22:00.000   46.877096142    7.465041543   956.7602   6  15   0.2766   0.3428   0.4343   0.0684  -0.1115  -0.1946   0.00    0.0
2026/01/15 00:22:30.000   46.877096131    7.465041518   956.7549   6  15   0.2698   0.3375   0.4225   0.0669  -0.1086  -0.1903   0.00    0.0
2026/01/15 00:23:00.000   46.877096137    7.465041448   956.7523   6  15   0.2632   0.3324   0.4111   0.0654  -0.1058  -0.1861   0.00    0.0
2026/01/15 00:23:30.000   46.877096140    7.465041419   956.7487   6  15   0.2569   0.3274   0.4002   0.0640  -0.1031  -0.1821   0.00    0.0
2026/01/15 00:24:00.000   46.877096147    7.465041395   956.7440   6  15   0.2508   0.3225   0.3898   0.0626  -0.1006  -0.1781   0.00    0.0
2026/01/15 00:24:30.000   46.877096152    7.465041352   956.7401   6  15   0.2449   0.3178   0.3797   0.0613  -0.0982  -0.1743   0.00    0.0
2026/01/15 00:25:00.000   46.877096152    7.465041333   956.7377   6  15   0.2392   0.3132   0.3700   0.0600  -0.0959  -0.1705   0.00    0.0
2026/01/15 00:25:30.000   46.877096165    7.465041291   956.7331   6  15   0.2337   0.3087   0.3607   0.0588  -0.0937  -0.1669   0.00    0.0
2026/01/15 00:26:00.000   46.877096178    7.465041245   956.7285   6  15   0.2284   0.3043   0.3518   0.0576  -0.0917  -0.1633   0.00    0.0
2026/01/15 00:26:30.000   46.877096183    7.465041207   956.7243   6  15   0.2233   0.3000   0.3432   0.0565  -0.0897  -0.1599   0.00    0.0
2026/01/15 00:27:00.000   46.877096196    7.465041157   956.7180   6  15   0.2184   0.2958   0.3349   0.0553  -0.0878  -0.1565   0.00    0.0
2026/01/15 00:27:30.000   46.877096204    7.465041114   956.7137   6  15   0.2136   0.2917   0.3269   0.0543  -0.0860  -0.1533   0.00    0.0
2026/01/15 00:28:00.000   46.877096199    7.465041092   956.7119   6  15   0.2090   0.2877   0.3192   0.0532  -0.0843  -0.1501   0.00    0.0
2026/01/15 00:28:30.000   46.877096204    7.465041021   956.7094   6  15   0.2045   0.2838   0.3117   0.0522  -0.0826  -0.1470   0.00    0.0
2026/01/15 00:29:00.000   46.877096214    7.465040982   956.7057   6  15   0.2002   0.2799   0.3046   0.0512  -0.0811  -0.1441   0.00    0.0
2026/01/15 00:29:30.000   46.877096222    7.465040960   956.7026   6  15   0.1960   0.2762   0.2977   0.0503  -0.0796  -0.1411   0.00    0.0
2026/01/15 00:30:00.000   46.877096235    7.465040879   956.6994   6  15   0.1919   0.2725   0.2910   0.0494  -0.0781  -0.1383   0.00    0.0
2026/01/15 00:30:30.000   46.877096239    7.465040817   956.6970   6  15   0.1880   0.2690   0.2846   0.0485  -0.0768  -0.1356   0.00    0.0
2026/01/15 00:31:00.000   46.877096245    7.465040760   956.6948   6  15   0.1842   0.2655   0.2783   0.0476  -0.0755  -0.1329   0.00    0.0
2026/01/15 00:31:30.000   46.877096250    7.465040699   956.6923   6  15   0.1805   0.2620   0.2723   0.0468  -0.0742  -0.1303   0.00    0.0
2026/01/15 00:32:00.000   46.877096254    7.465040662   956.6890   6  15   0.1770   0.2587   0.2665   0.0459  -0.0730  -0.1277   0.00    0.0
2026/01/15 00:32:30.000   46.877096257    7.465040615   956.6850   6  15   0.1735   0.2554   0.2609   0.0451  -0.0719  -0.1253   0.00    0.0
2026/01/15 00:33:00.000   46.877096260    7.465040565   956.6817   6  15   0.1701   0.2522   0.2555   0.0444  -0.0708  -0.1229   0.00    0.0
2026/01/15 00:33:30.000   46.877096260    7.465040553   956.6786   6  15   0.1669   0.2490   0.2502   0.0436  -0.0697  -0.1206   0.00    0.0
2026/01/15 00:34:00.000   46.877096266    7.465040508   956.6742   6  15   0.1637   0.2460   0.2451   0.0429  -0.0687  -0.1183   0.00    0.0
2026/01/15 00:34:30.000   46.877096273    7.465040470   956.6703   6  15   0.1607   0.2429   0.2402   0.0422  -0.0678  -0.1161   0.00    0.0
2026/01/15 00:35:00.000   46.877096275    7.465040442   956.6675   6  15   0.1577   0.2400   0.2354   0.0415  -0.0668  -0.1139   0.00    0.0
2026/01/15 00:35:30.000   46.877096278    7.465040391   956.6642   6  15   0.1548   0.2371   0.2308   0.0408  -0.0659  -0.1118   0.00    0.0
2026/01/15 00:36:00.000   46.877096283    7.465040347   956.6605   6  15   0.1520   0.2342   0.2263   0.0402  -0.0651  -0.1098   0.00    0.0
2026/01/15 00:36:30.000   46.877096288    7.465040286   956.6573   6  15   0.1493   0.2314   0.2220   0.0395  -0.0642  -0.1078   0.00    0.0
2026/01/15 00:37:00.000   46.877096289    7.465040219   956.6545   6  15   0.1466   0.2287   0.2178   0.0389  -0.0634  -0.1059   0.00    0.0
2026/01/15 00:37:30.000   46.877096288    7.465040184   956.6515   6  15   0.1440   0.2260   0.2137   0.0383  -0.0627  -0.1040   0.00    0.0
2026/01/15 00:38:00.000   46.877096294    7.465040154   956.6477   6  15   0.1415   0.2234   0.2098   0.0377  -0.0619  -0.1022   0.00    0.0
2026/01/15 00:38:30.000   46.877096310    7.465040139   956.6428   6  15   0.1391   0.2208   0.2059   0.0371  -0.0612  -0.1004   0.00    0.0
2026/01/15 00:39:00.000   46.877096324    7.465040119   956.6384   6  15   0.1367   0.2183   0.2022   0.0365  -0.0605  -0.0986   0.00    0.0
2026/01/15 00:39:30.000   46.877096330    7.465040081   956.6350   6  15   0.1344   0.2158   0.1986   0.0360  -0.0599  -0.0969   0.00    0.0
2026/01/15 00:40:00.000   46.877096325    7.465040048   956.6325   6  15   0.1322   0.2133   0.1950   0.0354  -0.0592  -0.0953   0.00    0.0
2026/01/15 00:40:30.000   46.877096317    7.465039998   956.6310   6  15   0.1300   0.2109   0.1916   0.0349  -0.0586  -0.0937   0.00    0.0
2026/01/15 00:41:00.000   46.877096317    7.465039920   956.6291   6  15   0.1279   0.2086   0.1883   0.0344  -0.0580  -0.0921   0.00    0.0
2026/01/15 00:41:30.000   46.877096316    7.465039837   956.6269   6  15   0.1258   0.2063   0.1851   0.0338  -0.0574  -0.0906   0.00    0.0
2026/01/15 00:42:00.000   46.877096315    7.465039754   956.6246   6  15   0.1238   0.2040   0.1819   0.0333  -0.0568  -0.0891   0.00    0.0
2026/01/15 00:42:30.000   46.877096313    7.465039688   956.6220   6  15   0.1218   0.2018   0.1789   0.0328  -0.0563  -0.0876   0.00    0.0
2026/01/15 00:43:00.000   46.877096314    7.465039632   956.6191   6  15   0.1199   0.1996   0.1759   0.0323  -0.0557  -0.0862   0.00    0.0
2026/01/15 00:43:30.000   46.877096314    7.465039596   956.6161   6  15   0.1180   0.1975   0.1730   0.0319  -0.0552  -0.0848   0.00    0.0
2026/01/15 00:44:00.000   46.877096318    7.465039574   956.6129   6  15   0.1162   0.1953   0.1702   0.0314  -0.0547  -0.0834   0.00    0.0
2026/01/15 00:44:30.000   46.877096321    7.465039531   956.6100   6  15   0.1144   0.1933   0.1674   0.0309  -0.0542  -0.0821   0.00    0.0
2026/01/15 00:45:00.000   46.877096321    7.465039478   956.6068   6  15   0.1127   0.1912   0.1647   0.0305  -0.0537  -0.0808   0.00    0.0
2026/01/15 00:45:30.000   46.877096325    7.465039434   956.6043   6  15   0.1110   0.1892   0.1621   0.0300  -0.0532  -0.0796   0.00    0.0
2026/01/15 00:46:00.000   46.877096327    7.465039394   956.6021   6  15   0.1094   0.1873   0.1596   0.0296  -0.0528  -0.0783   0.00    0.0
2026/01/15 00:46:30.000   46.877096324    7.465039341   956.6002   6  15   0.1077   0.1853   0.1571   0.0292  -0.0523  -0.0771   0.00    0.0
2026/01/15 00:47:00.000   46.877096319    7.465039279   956.5987   6  15   0.1062   0.1834   0.1547   0.0288  -0.0519  -0.0759   0.00    0.0
2026/01/15 00:47:30.000   46.877096318    7.465039230   956.5972   6  15   0.1046   0.1816   0.1524   0.0283  -0.0515  -0.0748   0.00    0.0
2026/01/15 00:48:00.000   46.877096316    7.465039186   956.5954   6  15   0.1031   0.1797   0.1501   0.0279  -0.0511  -0.0737   0.00    0.0
2026/01/15 00:48:30.000   46.877096318    7.465039139   956.5936   6  15   0.1017   0.1779   0.1478   0.0275  -0.0507  -0.0726   0.00    0.0
2026/01/15 00:49:00.000   46.877096322    7.465039092   956.5918   6  15   0.1002   0.1762   0.1457   0.0271  -0.0503  -0.0715   0.00    0.0
2026/01/15 00:49:30.000   46.877096325    7.465039042   956.5901   6  15   0.0988   0.1744   0.1435   0.0267  -0.0499  -0.0704   0.00    0.0
2026/01/15 00:50:00.000   46.877096326    7.465039003   956.5885   6  15   0.0975   0.1727   0.1415   0.0263  -0.0495  -0.0694   0.00    0.0
2026/01/15 00:50:30.000   46.877096328    7.465038961   956.5871   6  15   0.0961   0.1710   0.1394   0.0260  -0.0491  -0.0684   0.00    0.0
2026/01/15 00:51:00.000   46.877096328    7.465038922   956.5858   6  15   0.0948   0.1693   0.1374   0.0256  -0.0487  -0.0674   0.00    0.0
2026/01/15 00:51:30.000   46.877096328    7.465038892   956.5842   6  15   0.0936   0.1677   0.1355   0.0252  -0.0484  -0.0665   0.00    0.0
2026/01/15 00:52:00.000   46.877096330    7.465038866   956.5825   6  15   0.0923   0.1661   0.1336   0.0248  -0.0480  -0.0655   0.00    0.0
2026/01/15 00:52:30.000   46.877096334    7.465038832   956.5808   6  15   0.0911   0.1645   0.1318   0.0245  -0.0477  -0.0646   0.00    0.0
2026/01/15 00:53:00.000   46.877096337    7.465038792   956.5790   6  15   0.0899   0.1630   0.1300   0.0241  -0.0473  -0.0637   0.00    0.0
2026/01/15 00:53:30.000   46.877096341    7.465038745   956.5773   6  15   0.0887   0.1614   0.1282   0.0238  -0.0470  -0.0628   0.00    0.0
2026/01/15 00:54:00.000   46.877096346    7.465038701   956.5754   6  15   0.0876   0.1599   0.1265   0.0234  -0.0467  -0.0619   0.00    0.0
2026/01/15 00:54:30.000   46.877096352    7.465038655   956.5740   6  15   0.0865   0.1584   0.1248   0.0231  -0.0464  -0.0611   0.00    0.0
2026/01/15 00:55:00.000   46.877096353    7.465038611   956.5728   6  15   0.0854   0.1570   0.1232   0.0227  -0.0460  -0.0603   0.00    0.0
2026/01/15 00:55:30.000   46.877096354    7.465038567   956.5715   6  15   0.0843   0.1555   0.1215   0.0224  -0.0457  -0.0595   0.00    0.0
2026/01/15 00:56:00.000   46.877096358    7.465038531   956.5702   6  15   0.0832   0.1541   0.1200   0.0220  -0.0454  -0.0587   0.00    0.0
2026/01/15 00:56:30.000   46.877096364    7.465038491   956.5689   6  15   0.0822   0.1527   0.1184   0.0217  -0.0451  -0.0579   0.00    0.0
2026/01/15 00:57:00.000   46.877096368    7.465038450   956.5675   6  15   0.0812   0.1514   0.1169   0.0214  -0.0448  -0.0571   0.00    0.0
2026/01/15 00:57:30.000   46.877096371    7.465038411   956.5660   6  15   0.0802   0.1500   0.1154   0.0210  -0.0445  -0.0564   0.00    0.0
2026/01/15 00:58:00.000   46.877096374    7.465038375   956.5647   6  15   0.0793   0.1487   0.1140   0.0207  -0.0442  -0.0556   0.00    0.0
2026/01/15 00:58:30.000   46.877096378    7.465038336   956.5633   6  15   0.0783   0.1474   0.1126   0.0204  -0.0440  -0.0549   0.00    0.0
2026/01/15 00:59:00.000   46.877096385    7.465038301   956.5617   6  15   0.0774   0.1461   0.1112   0.0201  -0.0437  -0.0542   0.00    0.0
2026/01/15 00:59:30.000   46.877096390    7.465038276   956.5600   6  15   0.0765   0.1448   0.1098   0.0197  -0.0434  -0.0535   0.00    0.0
2026/01/15 01:00:00.000   46.877096395    7.465038248   956.5587   6  15   0.0756   0.1435   0.1085   0.0194  -0.0431  -0.0528   0.00    0.0
2026/01/15 01:00:30.000   46.877096400    7.465038214   956.5574   6  15   0.0747   0.1423   0.1072   0.0191  -0.0429  -0.0522   0.00    0.0
2026/01/15 01:01:00.000   46.877096404    7.465038175   956.5561   6  15   0.0738   0.1411   0.1059   0.0188  -0.0426  -0.0515   0.00    0.0
2026/01/15 01:01:30.000   46.877096406    7.465038129   956.5545   6  15   0.0730   0.1399   0.1047   0.0185  -0.0423  -0.0509   0.00    0.0
2026/01/15 01:02:00.000   46.877096408    7.465038088   956.5531   6  15   0.0722   0.1387   0.1035   0.0182  -0.0421  -0.0502   0.00    0.0
2026/01/15 01:02:30.000   46.877096414    7.465038046   956.5517   6  15   0.0714   0.1375   0.1023   0.0179  -0.0418  -0.0496   0.00    0.0
2026/01/15 01:03:00.000   46.877096418    7.465038002   956.5501   6  15   0.0706   0.1364   0.1011   0.0176  -0.0416  -0.0490   0.00    0.0
2026/01/15 01:03:30.000   46.877096421    7.465037954   956.5488   6  15   0.0698   0.1353   0.0999   0.0173  -0.0413  -0.0484   0.00    0.0
2026/01/15 01:04:00.000   46.877096423    7.465037913   956.5473   6  15   0.0690   0.1342   0.0988   0.0170  -0.0411  -0.0478   0.00    0.0
2026/01/15 01:04:30.000   46.877096426    7.465037877   956.5462   6  15   0.0683   0.1331   0.0977   0.0167  -0.0408  -0.0473   0.00    0.0
2026/01/15 01:05:00.000   46.877096428    7.465037852   956.5452   6  15   0.0675   0.1320   0.0966   0.0164  -0.0406  -0.0467   0.00    0.0
2026/01/15 01:05:30.000   46.877096432    7.465037823   956.5436   6  15   0.0668   0.1309   0.0955   0.0161  -0.0404  -0.0461   0.00    0.0
2026/01/15 01:06:00.000   46.877096434    7.465037789   956.5420   6  15   0.0661   0.1298   0.0945   0.0158  -0.0401  -0.0456   0.00    0.0
2026/01/15 01:06:30.000   46.877096437    7.465037754   956.5403   6  15   0.0654   0.1288   0.0935   0.0155  -0.0399  -0.0451   0.00    0.0
2026/01/15 01:07:00.000   46.877096439    7.465037719   956.5387   6  15   0.0647   0.1278   0.0925   0.0152  -0.0397  -0.0445   0.00    0.0
2026/01/15 01:07:30.000   46.877096441    7.465037691   956.5371   6  15   0.0640   0.1268   0.0915   0.0149  -0.0394  -0.0440   0.00    0.0
2026/01/15 01:08:00.000   46.877096442    7.465037664   956.5357   6  15   0.0634   0.1258   0.0905   0.0146  -0.0392  -0.0435   0.00    0.0
2026/01/15 01:08:30.000   46.877096445    7.465037633   956.5341   6  15   0.0627   0.1248   0.0895   0.0143  -0.0390  -0.0430   0.00    0.0
2026/01/15 01:09:00.000   46.877096448    7.465037599   956.5328   6  15   0.0621   0.1238   0.0886   0.0140  -0.0388  -0.0425   0.00    0.0
2026/01/15 01:09:30.000   46.877096449    7.465037560   956.5312   6  15   0.0615   0.1229   0.0877   0.0137  -0.0386  -0.0421   0.00    0.0
2026/01/15 01:10:00.000   46.877096451    7.465037513   956.5293   6  15   0.0608   0.1219   0.0868   0.0135  -0.0384  -0.0416   0.00    0.0
2026/01/15 01:10:30.000   46.877096454    7.465037475   956.5285   6  14   0.0602   0.1210   0.0860   0.0132  -0.0380  -0.0411   0.00    0.0
2026/01/15 01:11:00.000   46.877096458    7.465037440   956.5278   6  14   0.0596   0.1201   0.0852   0.0129  -0.0377  -0.0406   0.00    0.0
2026/01/15 01:11:30.000   46.877096461    7.465037407   956.5267   6  14   0.0591   0.1192   0.0844   0.0127  -0.0374  -0.0402   0.00    0.0
2026/01/15 01:12:00.000   46.877096464    7.465037374   956.5258   6  14   0.0585   0.1184   0.0836   0.0124  -0.0371  -0.0397   0.00    0.0
2026/01/15 01:12:30.000   46.877096465    7.465037340   956.5249   6  15   0.0579   0.1175   0.0829   0.0122  -0.0368  -0.0392   0.00    0.0
2026/01/15 01:13:00.000   46.877096466    7.465037302   956.5238   6  15   0.0574   0.1167   0.0821   0.0119  -0.0365  -0.0388   0.00    0.0
2026/01/15 01:13:30.000   46.877096466    7.465037265   956.5229   6  15   0.0568   0.1158   0.0814   0.0117  -0.0362  -0.0384   0.00    0.0
2026/01/15 01:14:00.000   46.877096469    7.465037228   956.5221   6  15   0.0563   0.1150   0.0806   0.0114  -0.0359  -0.0379   0.00    0.0
2026/01/15 01:14:30.000   46.877096469    7.465037196   956.5209   6  15   0.0557   0.1142   0.0799   0.0111  -0.0357  -0.0375   0.00    0.0
2026/01/15 01:15:00.000   46.877096472    7.465037167   956.5198   6  15   0.0552   0.1134   0.0792   0.0109  -0.0354  -0.0371   0.00    0.0
2026/01/15 01:15:30.000   46.877096474    7.465037135   956.5187   6  15   0.0547   0.1126   0.0785   0.0106  -0.0351  -0.0367   0.00    0.0
2026/01/15 01:16:00.000   46.877096475    7.465037098   956.5174   6  15   0.0542   0.1118   0.0778   0.0104  -0.0349  -0.0363   0.00    0.0
2026/01/15 01:16:30.000   46.877096477    7.465037058   956.5162   6  16   0.0537   0.1110   0.0772   0.0101  -0.0346  -0.0359   0.00    0.0
2026/01/15 01:17:00.000   46.877096479    7.465037022   956.5148   6  16   0.0532   0.1102   0.0765   0.0098  -0.0344  -0.0355   0.00    0.0
2026/01/15 01:17:30.000   46.877096483    7.465036993   956.5140   6  15   0.0528   0.1095   0.0759   0.0096  -0.0341  -0.0351   0.00    0.0
2026/01/15 01:18:00.000   46.877096487    7.465036962   956.5131   6  15   0.0523   0.1087   0.0753   0.0094  -0.0338  -0.0347   0.00    0.0
2026/01/15 01:18:30.000   46.877096490    7.465036934   956.5124   6  15   0.0518   0.1080   0.0747   0.0092  -0.0335  -0.0343   0.00    0.0
2026/01/15 01:19:00.000   46.877096494    7.465036903   956.5118   6  15   0.0514   0.1073   0.0741   0.0089  -0.0333  -0.0339   0.00    0.0
2026/01/15 01:19:30.000   46.877096498    7.465036869   956.5109   6  15   0.0510   0.1065   0.0735   0.0087  -0.0330  -0.0335   0.00    0.0
2026/01/15 01:20:00.000   46.877096502    7.465036833   956.5102   6  15   0.0505   0.1058   0.0729   0.0084  -0.0328  -0.0331   0.00    0.0
2026/01/15 01:20:30.000   46.877096506    7.465036791   956.5092   6  15   0.0501   0.1051   0.0723   0.0082  -0.0325  -0.0327   0.00    0.0
2026/01/15 01:21:00.000   46.877096510    7.465036750   956.5081   6  15   0.0497   0.1044   0.0717   0.0079  -0.0323  -0.0323   0.00    0.0
2026/01/15 01:21:30.000   46.877096513    7.465036709   956.5072   6  15   0.0493   0.1037   0.0712   0.0077  -0.0320  -0.0320   0.00    0.0
2026/01/15 01:22:00.000   46.877096516    7.465036671   956.5061   6  15   0.0488   0.1031   0.0706   0.0074  -0.0318  -0.0316   0.00    0.0
2026/01/15 01:22:30.000   46.877096521    7.465036635   956.5050   6  15   0.0484   0.1024   0.0701   0.0071  -0.0315  -0.0313   0.00    0.0
2026/01/15 01:23:00.000   46.877096525    7.465036605   956.5039   6  15   0.0480   0.1017   0.0695   0.0068  -0.0313  -0.0309   0.00    0.0
2026/01/15 01:23:30.000   46.877096529    7.465036572   956.5028   6  15   0.0477   0.1011   0.0690   0.0065  -0.0311  -0.0306   0.00    0.0
2026/01/15 01:24:00.000   46.877096533    7.465036538   956.5016   6  15   0.0473   0.1004   0.0685   0.0062  -0.0309  -0.0302   0.00    0.0
2026/01/15 01:24:30.000   46.877096533    7.465036535   956.5013   6  14   0.0469   0.1000   0.0680   0.0044  -0.0304  -0.0300   0.00    0.0
2026/01/15 01:25:00.000   46.877096530    7.465036527   956.5007   6  14   0.0466   0.0996   0.0675   0.0013  -0.0300  -0.0297   0.00    0.0
2026/01/15 01:25:30.000   46.877096528    7.465036519   956.5002   6  14   0.0463   0.0993   0.0670  -0.0040  -0.0295  -0.0295   0.00    0.0
2026/01/15 01:26:00.000   46.877096528    7.465036513   956.4996   6  14   0.0460   0.0989   0.0665  -0.0057  -0.0291  -0.0292   0.00    0.0
2026/01/15 01:26:30.000   46.877096527    7.465036506   956.4989   6  14   0.0456   0.0985   0.0661  -0.0070  -0.0287  -0.0290   0.00    0.0
2026/01/15 01:27:00.000   46.877096525    7.465036497   956.4984   6  14   0.0453   0.0981   0.0656  -0.0081  -0.0283  -0.0287   0.00    0.0
2026/01/15 01:27:30.000   46.877096524    7.465036488   956.4978   6  14   0.0450   0.0978   0.0651  -0.0090  -0.0279  -0.0285   0.00    0.0
2026/01/15 01:28:00.000   46.877096522    7.465036478   956.4971   6  14   0.0447   0.0974   0.0647  -0.0099  -0.0275  -0.0282   0.00    0.0
2026/01/15 01:28:30.000   46.877096521    7.465036468   956.4964   6  14   0.0444   0.0970   0.0642  -0.0106  -0.0271  -0.0280   0.00    0.0
2026/01/15 01:29:00.000   46.877096520    7.465036461   956.4956   6  14   0.0441   0.0967   0.0638  -0.0113  -0.0267  -0.0278   0.00    0.0
2026/01/15 01:29:30.000   46.877096519    7.465036458   956.4947   6  14   0.0438   0.0963   0.0633  -0.0119  -0.0263  -0.0276   0.00    0.0
2026/01/15 01:30:00.000   46.877096517    7.465036454   956.4938   6  14   0.0435   0.0960   0.0629  -0.0125  -0.0259  -0.0273   0.00    0.0
2026/01/15 01:30:30.000   46.877096516    7.465036453   956.4930   6  14   0.0432   0.0956   0.0625  -0.0130  -0.0255  -0.0271   0.00    0.0
2026/01/15 01:31:00.000   46.877096517    7.465036454   956.4920   6  14   0.0429   0.0953   0.0620  -0.0135  -0.0251  -0.0269   0.00    0.0
2026/01/15 01:31:30.000   46.877096515    7.465036452   956.4909   6  14   0.0427   0.0950   0.0616  -0.0140  -0.0248  -0.0267   0.00    0.0
2026/01/15 01:32:00.000   46.877096515    7.465036448   956.4900   6  14   0.0424   0.0946   0.0612  -0.0145  -0.0244  -0.0265   0.00    0.0
2026/01/15 01:32:30.000   46.877096513    7.465036433   956.4889   6  14   0.0421   0.0943   0.0608  -0.0149  -0.0240  -0.0263   0.00    0.0
2026/01/15 01:33:00.000   46.877096514    7.465036428   956.4884   6  13   0.0419   0.0940   0.0604  -0.0153  -0.0236  -0.0260   0.00    0.0
2026/01/15 01:33:30.000   46.877096515    7.465036424   956.4879   6  13   0.0416   0.0937   0.0600  -0.0156  -0.0231  -0.0258   0.00    0.0
2026/01/15 01:34:00.000   46.877096515    7.465036424   956.4873   6  13   0.0413   0.0934   0.0597  -0.0159  -0.0226  -0.0256   0.00    0.0
2026/01/15 01:34:30.000   46.877096515    7.465036421   956.4865   6  13   0.0411   0.0932   0.0593  -0.0162  -0.0221  -0.0254   0.00    0.0
2026/01/15 01:35:00.000   46.877096516    7.465036419   956.4859   6  13   0.0408   0.0929   0.0589  -0.0165  -0.0216  -0.0252   0.00    0.0
2026/01/15 01:35:30.000   46.877096515    7.465036411   956.4852   6  13   0.0406   0.0926   0.0586  -0.0168  -0.0212  -0.0249   0.00    0.0
2026/01/15 01:36:00.000   46.877096515    7.465036408   956.4846   6  13   0.0403   0.0924   0.0582  -0.0171  -0.0207  -0.0247   0.00    0.0
2026/01/15 01:36:30.000   46.877096514    7.465036400   956.4846   6  12   0.0401   0.0921   0.0579  -0.0173  -0.0202  -0.0246   0.00    0.0
2026/01/15 01:37:00.000   46.877096513    7.465036393   956.4846   6  12   0.0399   0.0919   0.0576  -0.0176  -0.0198  -0.0244   0.00    0.0
2026/01/15 01:37:30.000   46.877096511    7.465036387   956.4845   6  12   0.0396   0.0916   0.0573  -0.0178  -0.0193  -0.0242   0.00    0.0
2026/01/15 01:38:00.000   46.877096509    7.465036381   956.4844   6  12   0.0394   0.0914   0.0570  -0.0180  -0.0189  -0.0240   0.00    0.0
2026/01/15 01:38:30.000   46.877096508    7.465036375   956.4843   6  12   0.0392   0.0911   0.0567  -0.0183  -0.0184  -0.0239   0.00    0.0
2026/01/15 01:39:00.000   46.877096507    7.465036368   956.4843   6  12   0.0389   0.0909   0.0564  -0.0185  -0.0180  -0.0237   0.00    0.0
2026/01/15 01:39:30.000   46.877096506    7.465036361   956.4842   6  12   0.0387   0.0906   0.0562  -0.0187  -0.0175  -0.0236   0.00    0.0
2026/01/15 01:40:00.000   46.877096504    7.465036349   956.4839   6  12   0.0385   0.0904   0.0559  -0.0189  -0.0171  -0.0234   0.00    0.0
2026/01/15 01:40:30.000   46.877096503    7.465036345   956.4838   6  12   0.0383   0.0901   0.0556  -0.0191  -0.0166  -0.0232   0.00    0.0
2026/01/15 01:41:00.000   46.877096502    7.465036340   956.4838   6  12   0.0380   0.0899   0.0553  -0.0193  -0.0161  -0.0231   0.00    0.0
2026/01/15 01:41:30.000   46.877096499    7.465036328   956.4835   6  12   0.0378   0.0897   0.0550  -0.0195  -0.0156  -0.0229   0.00    0.0
2026/01/15 01:42:00.000   46.877096498    7.465036323   956.4835   6  12   0.0376   0.0894   0.0548  -0.0197  -0.0152  -0.0228   0.00    0.0
2026/01/15 01:42:30.000   46.877096495    7.465036307   956.4831   6  12   0.0374   0.0892   0.0545  -0.0199  -0.0147  -0.0226   0.00    0.0
2026/01/15 01:43:00.000   46.877096495    7.465036306   956.4833   6  12   0.0372   0.0890   0.0542  -0.0200  -0.0140  -0.0225   0.00    0.0
2026/01/15 01:43:30.000   46.877096495    7.465036307   956.4835   6  12   0.0370   0.0889   0.0540  -0.0201  -0.0133  -0.0223   0.00    0.0
2026/01/15 01:44:00.000   46.877096495    7.465036307   956.4837   6  11   0.0368   0.0887   0.0537  -0.0202  -0.0126  -0.0221   0.00    0.0
2026/01/15 01:44:30.000   46.877096496    7.465036310   956.4838   6  11   0.0366   0.0885   0.0535  -0.0203  -0.0118  -0.0219   0.00    0.0
2026/01/15 01:45:00.000   46.877096496    7.465036310   956.4840   6  11   0.0364   0.0884   0.0532  -0.0204  -0.0110  -0.0218   0.00    0.0
2026/01/15 01:45:30.000   46.877096497    7.465036312   956.4841   6  11   0.0362   0.0882   0.0530  -0.0205  -0.0101  -0.0216   0.00    0.0
2026/01/15 01:46:00.000   46.877096497    7.465036312   956.4842   6  11   0.0361   0.0880   0.0528  -0.0206  -0.0092  -0.0214   0.00    0.0
2026/01/15 01:46:30.000   46.877096498    7.465036309   956.4842   6  11   0.0359   0.0879   0.0525  -0.0207  -0.0082  -0.0213   0.00    0.0
2026/01/15 01:47:00.000   46.877096498    7.465036308   956.4843   6  11   0.0357   0.0877   0.0523  -0.0208  -0.0071  -0.0211   0.00    0.0
2026/01/15 01:47:30.000   46.877096498    7.465036307   956.4845   6  11   0.0355   0.0876   0.0521  -0.0209  -0.0058  -0.0210   0.00    0.0
2026/01/15 01:48:00.000   46.877096498    7.465036306   956.4846   6  11   0.0353   0.0874   0.0518  -0.0210  -0.0041  -0.0208   0.00    0.0
2026/01/15 01:48:30.000   46.877096498    7.465036303   956.4847   6  11   0.0351   0.0873   0.0516  -0.0212  -0.0009  -0.0207   0.00    0.0
2026/01/15 01:49:00.000   46.877096498    7.465036300   956.4848   6  11   0.0350   0.0871   0.0514  -0.0213   0.0039  -0.0205   0.00    0.0
2026/01/15 01:49:30.000   46.877096499    7.465036298   956.4849   6  11   0.0348   0.0870   0.0511  -0.0214   0.0056  -0.0204   0.00    0.0
2026/01/15 01:50:00.000   46.877096499    7.465036294   956.4850   6  11   0.0346   0.0868   0.0509  -0.0215   0.0068  -0.0202   0.00    0.0
2026/01/15 01:50:30.000   46.877096499    7.465036292   956.4852   6  11   0.0345   0.0867   0.0507  -0.0216   0.0079  -0.0201   0.00    0.0
2026/01/15 01:51:00.000   46.877096499    7.465036289   956.4852   6  11   0.0343   0.0865   0.0505  -0.0217   0.0088  -0.0200   0.00    0.0
2026/01/15 01:51:30.000   46.877096500    7.465036285   956.4853   6  11   0.0341   0.0864   0.0503  -0.0218   0.0096  -0.0198   0.00    0.0
2026/01/15 01:52:00.000   46.877096500    7.465036282   956.4854   6  11   0.0340   0.0862   0.0500  -0.0219   0.0103  -0.0197   0.00    0.0
2026/01/15 01:52:30.000   46.877096501    7.465036279   956.4854   6  11   0.0338   0.0861   0.0498  -0.0220   0.0110  -0.0196   0.00    0.0
2026/01/15 01:53:00.000   46.877096502    7.465036279   956.4855   6  11   0.0336   0.0860   0.0496  -0.0220   0.0116  -0.0194   0.00    0.0
2026/01/15 01:53:30.000   46.877096502    7.465036279   956.4855   6  11   0.0335   0.0858   0.0494  -0.0221   0.0122  -0.0193   0.00    0.0
2026/01/15 01:54:00.000   46.877096503    7.465036277   956.4855   6  11   0.0333   0.0857   0.0492  -0.0222   0.0127  -0.0192   0.00    0.0
2026/01/15 01:54:30.000   46.877096503    7.465036276   956.4855   6  11   0.0331   0.0855   0.0490  -0.0223   0.0132  -0.0191   0.00    0.0
2026/01/15 01:55:00.000   46.877096504    7.465036274   956.4856   6  11   0.0330   0.0854   0.0488  -0.0224   0.0137  -0.0189   0.00    0.0
2026/01/15 01:55:30.000   46.877096504    7.465036274   956.4856   6  11   0.0328   0.0853   0.0486  -0.0225   0.0142  -0.0188   0.00    0.0
2026/01/15 01:56:00.000   46.877096505    7.465036272   956.4856   6  11   0.0327   0.0851   0.0483  -0.0226   0.0146  -0.0187   0.00    0.0
2026/01/15 01:56:30.000   46.877096506    7.465036270   956.4856   6  11   0.0325   0.0850   0.0481  -0.0227   0.0150  -0.0186   0.00    0.0
2026/01/15 01:57:00.000   46.877096507    7.465036269   956.4856   6  11   0.0324   0.0848   0.0479  -0.0228   0.0154  -0.0185   0.00    0.0
2026/01/15 01:57:30.000   46.877096508    7.465036267   956.4856   6  11   0.0322   0.0847   0.0477  -0.0229   0.0158  -0.0184   0.00    0.0
2026/01/15 01:58:00.000   46.877096508    7.465036266   956.4855   6  11   0.0321   0.0846   0.0475  -0.0230   0.0162  -0.0183   0.00    0.0
2026/01/15 01:58:30.000   46.877096509    7.465036262   956.4854   6  11   0.0319   0.0844   0.0473  -0.0231   0.0165  -0.0182   0.00    0.0
2026/01/15 01:59:00.000   46.877096509    7.465036257   956.4854   6  12   0.0318   0.0843   0.0471  -0.0232   0.0168  -0.0181   0.00    0.0
2026/01/15 01:59:30.000   46.877096510    7.465036251   956.4854   6  12   0.0317   0.0842   0.0469  -0.0233   0.0172  -0.0180   0.00    0.0
2026/01/15 02:00:00.000   46.877096511    7.465036246   956.4854   6  12   0.0315   0.0840   0.0468  -0.0234   0.0175  -0.0179   0.00    0.0
2026/01/15 02:00:30.000   46.877096512    7.465036243   956.4854   6  12   0.0314   0.0839   0.0466  -0.0234   0.0178  -0.0178   0.00    0.0
2026/01/15 02:01:00.000   46.877096513    7.465036240   956.4853   6  13   0.0312   0.0838   0.0464  -0.0235   0.0180  -0.0177   0.00    0.0
2026/01/15 02:01:30.000   46.877096514    7.465036237   956.4852   6  13   0.0311   0.0836   0.0462  -0.0236   0.0183  -0.0176   0.00    0.0
2026/01/15 02:02:00.000   46.877096514    7.465036236   956.4851   6  13   0.0310   0.0835   0.0460  -0.0237   0.0186  -0.0175   0.00    0.0
2026/01/15 02:02:30.000   46.877096515    7.465036237   956.4851   6  13   0.0308   0.0833   0.0458  -0.0238   0.0188  -0.0174   0.00    0.0
2026/01/15 02:03:00.000   46.877096515    7.465036239   956.4850   6  13   0.0307   0.0832   0.0456  -0.0239   0.0191  -0.0174   0.00    0.0
2026/01/15 02:03:30.000   46.877096516    7.465036241   956.4849   6  13   0.0306   0.0831   0.0454  -0.0240   0.0193  -0.0173   0.00    0.0
2026/01/15 02:04:00.000   46.877096516    7.465036245   956.4848   6  13   0.0305   0.0829   0.0452  -0.0240   0.0196  -0.0172   0.00    0.0
2026/01/15 02:04:30.000   46.877096517    7.465036244   956.4847   6  13   0.0303   0.0828   0.0451  -0.0241   0.0198  -0.0171   0.00    0.0
2026/01/15 02:05:00.000   46.877096518    7.465036242   956.4845   6  13   0.0302   0.0826   0.0449  -0.0242   0.0200  -0.0170   0.00    0.0
2026/01/15 02:05:30.000   46.877096518    7.465036245   956.4845   6  14   0.0301   0.0825   0.0447  -0.0243   0.0202  -0.0170   0.00    0.0
2026/01/15 02:06:00.000   46.877096518    7.465036245   956.4844   6  14   0.0300   0.0824   0.0445  -0.0244   0.0204  -0.0169   0.00    0.0
2026/01/15 02:06:30.000   46.877096519    7.465036243   956.4842   6  14   0.0298   0.0822   0.0443  -0.0244   0.0206  -0.0168   0.00    0.0
2026/01/15 02:07:00.000   46.877096520    7.465036244   956.4841   6  14   0.0297   0.0821   0.0442  -0.0245   0.0208  -0.0167   0.00    0.0
2026/01/15 02:07:30.000   46.877096520    7.465036244   956.4840   6  14   0.0296   0.0820   0.0440  -0.0246   0.0210  -0.0167   0.00    0.0
2026/01/15 02:08:00.000   46.877096521    7.465036242   956.4838   6  14   0.0295   0.0818   0.0438  -0.0247   0.0211  -0.0166   0.00    0.0
2026/01/15 02:08:30.000   46.877096521    7.465036240   956.4837   6  14   0.0294   0.0817   0.0436  -0.0248   0.0213  -0.0165   0.00    0.0
2026/01/15 02:09:00.000   46.877096522    7.465036234   956.4835   6  14   0.0292   0.0815   0.0435  -0.0248   0.0215  -0.0165   0.00    0.0
2026/01/15 02:09:30.000   46.877096522    7.465036234   956.4833   6  14   0.0291   0.0814   0.0433  -0.0249   0.0216  -0.0164   0.00    0.0
2026/01/15 02:10:00.000   46.877096523    7.465036229   956.4831   6  14   0.0290   0.0813   0.0431  -0.0250   0.0218  -0.0164   0.00    0.0
2026/01/15 02:10:30.000   46.877096524    7.465036225   956.4828   6  14   0.0289   0.0811   0.0430  -0.0251   0.0219  -0.0163   0.00    0.0
2026/01/15 02:11:00.000   46.877096525    7.465036221   956.4825   6  14   0.0288   0.0810   0.0428  -0.0251   0.0221  -0.0162   0.00    0.0
2026/01/15 02:11:30.000   46.877096526    7.465036222   956.4822   6  14   0.0287   0.0808   0.0426  -0.0252   0.0222  -0.0162   0.00    0.0
2026/01/15 02:12:00.000   46.877096526    7.465036221   956.4819   6  15   0.0286   0.0807   0.0425  -0.0253   0.0223  -0.0161   0.00    0.0
2026/01/15 02:12:30.000   46.877096527    7.465036220   956.4816   6  15   0.0285   0.0805   0.0423  -0.0254   0.0225  -0.0161   0.00    0.0
2026/01/15 02:13:00.000   46.877096527    7.465036219   956.4813   6  15   0.0284   0.0804   0.0421  -0.0254   0.0226  -0.0160   0.00    0.0
2026/01/15 02:13:30.000   46.877096527    7.465036220   956.4811   6  15   0.0283   0.0803   0.0420  -0.0255   0.0227  -0.0160   0.00    0.0
2026/01/15 02:14:00.000   46.877096528    7.465036218   956.4808   6  15   0.0282   0.0801   0.0418  -0.0256   0.0228  -0.0159   0.00    0.0
2026/01/15 02:14:30.000   46.877096528    7.465036215   956.4804   6  15   0.0281   0.0800   0.0416  -0.0256   0.0230  -0.0159   0.00    0.0
2026/01/15 02:15:00.000   46.877096528    7.465036212   956.4800   6  15   0.0280   0.0798   0.0415  -0.0257   0.0231  -0.0158   0.00    0.0
2026/01/15 02:15:30.000   46.877096528    7.465036208   956.4796   6  15   0.0279   0.0797   0.0413  -0.0258   0.0232  -0.0158   0.00    0.0
2026/01/15 02:16:00.000   46.877096529    7.465036206   956.4793   6  15   0.0278   0.0795   0.0412  -0.0258   0.0233  -0.0158   0.00    0.0
2026/01/15 02:16:30.000   46.877096529    7.465036203   956.4788   6  15   0.0277   0.0794   0.0410  -0.0259   0.0234  -0.0157   0.00    0.0
2026/01/15 02:17:00.000   46.877096529    7.465036199   956.4783   6  15   0.0276   0.0793   0.0408  -0.0260   0.0235  -0.0157   0.00    0.0
2026/01/15 02:17:30.000   46.877096529    7.465036194   956.4777   6  15   0.0275   0.0791   0.0407  -0.0260   0.0236  -0.0156   0.00    0.0
2026/01/15 02:18:00.000   46.877096530    7.465036189   956.4773   6  15   0.0274   0.0790   0.0405  -0.0261   0.0236  -0.0156   0.00    0.0
2026/01/15 02:18:30.000   46.877096530    7.465036187   956.4767   6  15   0.0273   0.0788   0.0404  -0.0262   0.0237  -0.0156   0.00    0.0
2026/01/15 02:19:00.000   46.877096530    7.465036183   956.4762   6  15   0.0272   0.0787   0.0402  -0.0262   0.0238  -0.0155   0.00    0.0
2026/01/15 02:19:30.000   46.877096529    7.465036181   956.4756   6  15   0.0271   0.0785   0.0401  -0.0263   0.0239  -0.0155   0.00    0.0
2026/01/15 02:20:00.000   46.877096529    7.465036178   956.4748   6  15   0.0270   0.0784   0.0399  -0.0263   0.0240  -0.0155   0.00    0.0
2026/01/15 02:20:30.000   46.877096529    7.465036175   956.4743   6  15   0.0270   0.0782   0.0398  -0.0264   0.0240  -0.0154   0.00    0.0
2026/01/15 02:21:00.000   46.877096529    7.465036172   956.4738   6  15   0.0269   0.0781   0.0396  -0.0265   0.0241  -0.0154   0.00    0.0
2026/01/15 02:21:30.000   46.877096529    7.465036170   956.4731   6  15   0.0268   0.0779   0.0395  -0.0265   0.0242  -0.0154   0.00    0.0
2026/01/15 02:22:00.000   46.877096528    7.465036167   956.4723   6  15   0.0267   0.0778   0.0393  -0.0266   0.0243  -0.0153   0.00    0.0
2026/01/15 02:22:30.000   46.877096528    7.465036164   956.4716   6  15   0.0266   0.0776   0.0392  -0.0266   0.0243  -0.0153   0.00    0.0
2026/01/15 02:23:00.000   46.877096528    7.465036163   956.4710   6  15   0.0265   0.0775   0.0390  -0.0267   0.0244  -0.0153   0.00    0.0
2026/01/15 02:23:30.000   46.877096527    7.465036161   956.4703   6  15   0.0265   0.0773   0.0389  -0.0267   0.0244  -0.0152   0.00    0.0
2026/01/15 02:24:00.000   46.877096527    7.465036159   956.4696   6  15   0.0264   0.0772   0.0387  -0.0268   0.0245  -0.0152   0.00    0.0
2026/01/15 02:24:30.000   46.877096527    7.465036156   956.4688   6  15   0.0263   0.0770   0.0386  -0.0268   0.0245  -0.0152   0.00    0.0
2026/01/15 02:25:00.000   46.877096526    7.465036157   956.4681   6  15   0.0262   0.0769   0.0384  -0.0269   0.0246  -0.0152   0.00    0.0
2026/01/15 02:25:30.000   46.877096525    7.465036154   956.4674   6  15   0.0262   0.0767   0.0383  -0.0269   0.0246  -0.0151   0.00    0.0
2026/01/15 02:26:00.000   46.877096526    7.465036155   956.4672   6  14   0.0261   0.0766   0.0382  -0.0270   0.0247  -0.0151   0.00    0.0
2026/01/15 02:26:30.000   46.877096527    7.465036153   956.4670   6  14   0.0260   0.0764   0.0381  -0.0270   0.0248  -0.0150   0.00    0.0
2026/01/15 02:27:00.000   46.877096528    7.465036152   956.4668   6  14   0.0259   0.0763   0.0380  -0.0271   0.0248  -0.0150   0.00    0.0
2026/01/15 02:27:30.000   46.877096528    7.465036153   956.4667   6  14   0.0259   0.0761   0.0379  -0.0271   0.0249  -0.0150   0.00    0.0
2026/01/15 02:28:00.000   46.877096529    7.465036154   956.4665   6  14   0.0258   0.0760   0.0378  -0.0271   0.0249  -0.0149   0.00    0.0
2026/01/15 02:28:30.000   46.877096530    7.465036152   956.4663   6  14   0.0257   0.0758   0.0377  -0.0272   0.0250  -0.0149   0.00    0.0
2026/01/15 02:29:00.000   46.877096531    7.465036154   956.4661   6  14   0.0257   0.0757   0.0376  -0.0272   0.0251  -0.0148   0.00    0.0
2026/01/15 02:29:30.000   46.877096531    7.465036155   956.4660   6  14   0.0256   0.0755   0.0375  -0.0273   0.0251  -0.0148   0.00    0.0
2026/01/15 02:30:00.000   46.877096532    7.465036157   956.4658   6  14   0.0255   0.0753   0.0374  -0.0273   0.0252  -0.0148   0.00    0.0
2026/01/15 02:30:30.000   46.877096532    7.465036159   956.4655   6  14   0.0255   0.0752   0.0373  -0.0273   0.0252  -0.0147   0.00    0.0
2026/01/15 02:31:00.000   46.877096533    7.465036159   956.4653   6  14   0.0254   0.0750   0.0372  -0.0274   0.0253  -0.0147   0.00    0.0
2026/01/15 02:31:30.000   46.877096534    7.465036157   956.4650   6  14   0.0253   0.0749   0.0371  -0.0274   0.0253  -0.0147   0.00    0.0
2026/01/15 02:32:00.000   46.877096534    7.465036155   956.4648   6  14   0.0253   0.0747   0.0370  -0.0274   0.0253  -0.0146   0.00    0.0
2026/01/15 02:32:30.000   46.877096535    7.465036152   956.4645   6  14   0.0252   0.0746   0.0369  -0.0275   0.0254  -0.0146   0.00    0.0
2026/01/15 02:33:00.000   46.877096536    7.465036152   956.4642   6  14   0.0251   0.0744   0.0368  -0.0275   0.0254  -0.0146   0.00    0.0
2026/01/15 02:33:30.000   46.877096536    7.465036152   956.4641   6  14   0.0251   0.0743   0.0367  -0.0275   0.0255  -0.0145   0.00    0.0
2026/01/15 02:34:00.000   46.877096537    7.465036152   956.4638   6  14   0.0250   0.0741   0.0366  -0.0276   0.0255  -0.0145   0.00    0.0
2026/01/15 02:34:30.000   46.877096538    7.465036151   956.4635   6  14   0.0250   0.0739   0.0365  -0.0276   0.0256  -0.0145   0.00    0.0
2026/01/15 02:35:00.000   46.877096538    7.465036152   956.4633   6  14   0.0249   0.0738   0.0364  -0.0276   0.0256  -0.0145   0.00    0.0
2026/01/15 02:35:30.000   46.877096539    7.465036153   956.4630   6  14   0.0248   0.0736   0.0363  -0.0276   0.0256  -0.0144   0.00    0.0
2026/01/15 02:36:00.000   46.877096539    7.465036156   956.4627   6  14   0.0248   0.0735   0.0362  -0.0277   0.0257  -0.0144   0.00    0.0
2026/01/15 02:36:30.000   46.877096540    7.465036156   956.4624   6  14   0.0247   0.0733   0.0361  -0.0277   0.0257  -0.0144   0.00    0.0
2026/01/15 02:37:00.000   46.877096540    7.465036156   956.4622   6  14   0.0247   0.0731   0.0360  -0.0277   0.0257  -0.0144   0.00    0.0
2026/01/15 02:37:30.000   46.877096541    7.465036156   956.4618   6  14   0.0246   0.0730   0.0359  -0.0277   0.0258  -0.0143   0.00    0.0
2026/01/15 02:38:00.000   46.877096542    7.465036158   956.4616   6  14   0.0246   0.0728   0.0358  -0.0278   0.0258  -0.0143   0.00    0.0
2026/01/15 02:38:30.000   46.877096543    7.465036157   956.4613   6  14   0.0245   0.0727   0.0357  -0.0278   0.0258  -0.0143   0.00    0.0
2026/01/15 02:39:00.000   46.877096543    7.465036155   956.4610   6  14   0.0244   0.0725   0.0356  -0.0278   0.0258  -0.0143   0.00    0.0
2026/01/15 02:39:30.000   46.877096544    7.465036154   956.4607   6  14   0.0244   0.0723   0.0355  -0.0278   0.0259  -0.0143   0.00    0.0
2026/01/15 02:40:00.000   46.877096545    7.465036152   956.4603   6  14   0.0243   0.0722   0.0354  -0.0278   0.0259  -0.0142   0.00    0.0
2026/01/15 02:40:30.000   46.877096546    7.465036152   956.4600   6  14   0.0243   0.0720   0.0353  -0.0279   0.0259  -0.0142   0.00    0.0
2026/01/15 02:41:00.000   46.877096547    7.465036151   956.4597   6  14   0.0242   0.0718   0.0352  -0.0279   0.0259  -0.0142   0.00    0.0
2026/01/15 02:41:30.000   46.877096548    7.465036149   956.4594   6  14   0.0242   0.0717   0.0351  -0.0279   0.0260  -0.0142   0.00    0.0
2026/01/15 02:42:00.000   46.877096548    7.465036147   956.4591   6  14   0.0241   0.0715   0.0350  -0.0279   0.0260  -0.0142   0.00    0.0
2026/01/15 02:42:30.000   46.877096549    7.465036148   956.4587   6  14   0.0241   0.0714   0.0349  -0.0279   0.0260  -0.0142   0.00    0.0
2026/01/15 02:43:00.000   46.877096549    7.465036148   956.4584   6  14   0.0240   0.0712   0.0348  -0.0279   0.0260  -0.0141   0.00    0.0
2026/01/15 02:43:30.000   46.877096550    7.465036145   956.4580   6  14   0.0240   0.0710   0.0347  -0.0279   0.0260  -0.0141   0.00    0.0
2026/01/15 02:44:00.000   46.877096551    7.465036144   956.4576   6  14   0.0239   0.0709   0.0346  -0.0280   0.0260  -0.0141   0.00    0.0
2026/01/15 02:44:30.000   46.877096552    7.465036143   956.4573   6  14   0.0239   0.0707   0.0345  -0.0280   0.0261  -0.0141   0.00    0.0
2026/01/15 02:45:00.000   46.877096553    7.465036142   956.4569   6  14   0.0238   0.0705   0.0344  -0.0280   0.0261  -0.0141   0.00    0.0
2026/01/15 02:45:30.000   46.877096554    7.465036140   956.4564   6  14   0.0238   0.0704   0.0344  -0.0280   0.0261  -0.0141   0.00    0.0
2026/01/15 02:46:00.000   46.877096555    7.465036140   956.4560   6  14   0.0237   0.0702   0.0343  -0.0280   0.0261  -0.0141   0.00    0.0
2026/01/15 02:46:30.000   46.877096555    7.465036140   956.4556   6  14   0.0237   0.0700   0.0342  -0.0280   0.0261  -0.0141   0.00    0.0
2026/01/15 02:47:00.000   46.877096556    7.465036139   956.4552   6  14   0.0236   0.0699   0.0341  -0.0280   0.0261  -0.0141   0.00    0.0
2026/01/15 02:47:30.000   46.877096557    7.465036142   956.4548   6  14   0.0236   0.0697   0.0340  -0.0280   0.0261  -0.0141   0.00    0.0
2026/01/15 02:48:00.000   46.877096557    7.465036145   956.4544   6  14   0.0235   0.0695   0.0339  -0.0280   0.0261  -0.0140   0.00    0.0
2026/01/15 02:48:30.000   46.877096558    7.465036146   956.4540   6  14   0.0235   0.0694   0.0338  -0.0280   0.0261  -0.0140   0.00    0.0
2026/01/15 02:49:00.000   46.877096559    7.465036146   956.4535   6  14   0.0234   0.0692   0.0337  -0.0280   0.0261  -0.0140   0.00    0.0
2026/01/15 02:49:30.000   46.877096560    7.465036144   956.4530   6  14   0.0234   0.0690   0.0336  -0.0280   0.0261  -0.0140   0.00    0.0
2026/01/15 02:50:00.000   46.877096561    7.465036142   956.4525   6  14   0.0234   0.0689   0.0335  -0.0280   0.0261  -0.0140   0.00    0.0
2026/01/15 02:50:30.000   46.877096561    7.465036142   956.4521   6  14   0.0233   0.0687   0.0334  -0.0280   0.0261  -0.0140   0.00    0.0
2026/01/15 02:51:00.000   46.877096562    7.465036141   956.4516   6  14   0.0233   0.0685   0.0333  -0.0280   0.0261  -0.0140   0.00    0.0
2026/01/15 02:51:30.000   46.877096563    7.465036140   956.4511   6  14   0.0232   0.0684   0.0332  -0.0280   0.0261  -0.0140   0.00    0.0
2026/01/15 02:52:00.000   46.877096564    7.465036140   956.4506   6  14   0.0232   0.0682   0.0331  -0.0280   0.0261  -0.0140   0.00    0.0
2026/01/15 02:52:30.000   46.877096564    7.465036143   956.4502   6  14   0.0231   0.0680   0.0330  -0.0280   0.0261  -0.0140   0.00    0.0
2026/01/15 02:53:00.000   46.877096565    7.465036145   956.4498   6  14   0.0231   0.0679   0.0330  -0.0280   0.0261  -0.0140   0.00    0.0
2026/01/15 02:53:30.000   46.877096565    7.465036149   956.4494   6  14   0.0230   0.0677   0.0329  -0.0280   0.0261  -0.0140   0.00    0.0
2026/01/15 02:54:00.000   46.877096566    7.465036150   956.4489   6  14   0.0230   0.0675   0.0328  -0.0280   0.0261  -0.0140   0.00    0.0
2026/01/15 02:54:30.000   46.877096567    7.465036150   956.4484   6  14   0.0230   0.0673   0.0327  -0.0280   0.0261  -0.0140   0.00    0.0
2026/01/15 02:55:00.000   46.877096568    7.465036147   956.4479   6  14   0.0229   0.0672   0.0326  -0.0280   0.0261  -0.0140   0.00    0.0
2026/01/15 02:55:30.000   46.877096569    7.465036146   956.4474   6  14   0.0229   0.0670   0.0325  -0.0280   0.0261  -0.0140   0.00    0.0
2026/01/15 02:56:00.000   46.877096570    7.465036145   956.4468   6  14   0.0228   0.0668   0.0324  -0.0280   0.0261  -0.0140   0.00    0.0
2026/01/15 02:56:30.000   46.877096570    7.465036143   956.4466   6  13   0.0228   0.0667   0.0323  -0.0280   0.0261  -0.0140   0.00    0.0
2026/01/15 02:57:00.000   46.877096571    7.465036139   956.4464   6  13   0.0227   0.0665   0.0323  -0.0280   0.0260  -0.0140   0.00    0.0
2026/01/15 02:57:30.000   46.877096571    7.465036136   956.4462   6  13   0.0227   0.0663   0.0322  -0.0280   0.0260  -0.0140   0.00    0.0
2026/01/15 02:58:00.000   46.877096572    7.465036131   956.4460   6  13   0.0227   0.0662   0.0321  -0.0280   0.0260  -0.0140   0.00    0.0
2026/01/15 02:58:30.000   46.877096573    7.465036127   956.4458   6  13   0.0226   0.0660   0.0320  -0.0279   0.0260  -0.0140   0.00    0.0
2026/01/15 02:59:00.000   46.877096573    7.465036124   956.4456   6  13   0.0226   0.0658   0.0320  -0.0279   0.0260  -0.0140   0.00    0.0
2026/01/15 02:59:30.000   46.877096573    7.465036120   956.4453   6  13   0.0225   0.0656   0.0319  -0.0279   0.0259  -0.0140   0.00    0.0
2026/01/15 03:00:00.000   46.877096574    7.465036114   956.4451   6  13   0.0225   0.0655   0.0318  -0.0279   0.0259  -0.0140   0.00    0.0
2026/01/15 03:00:30.000   46.877096575    7.465036110   956.4448   6  13   0.0225   0.0653   0.0317  -0.0279   0.0259  -0.0140   0.00    0.0
2026/01/15 03:01:00.000   46.877096575    7.465036105   956.4445   6  13   0.0224   0.0651   0.0316  -0.0279   0.0259  -0.0140   0.00    0.0
2026/01/15 03:01:30.000   46.877096576    7.465036100   956.4443   6  13   0.0224   0.0650   0.0316  -0.0279   0.0258  -0.0140   0.00    0.0
2026/01/15 03:02:00.000   46.877096577    7.465036095   956.4440   6  13   0.0223   0.0648   0.0315  -0.0279   0.0258  -0.0140   0.00    0.0
2026/01/15 03:02:30.000   46.877096577    7.465036088   956.4437   6  13   0.0223   0.0646   0.0314  -0.0278   0.0258  -0.0140   0.00    0.0
2026/01/15 03:03:00.000   46.877096578    7.465036082   956.4434   6  13   0.0223   0.0645   0.0313  -0.0278   0.0258  -0.0140   0.00    0.0
2026/01/15 03:03:30.000   46.877096579    7.465036077   956.4431   6  13   0.0222   0.0643   0.0313  -0.0278   0.0257  -0.0140   0.00    0.0
2026/01/15 03:04:00.000   46.877096579    7.465036071   956.4428   6  13   0.0222   0.0641   0.0312  -0.0278   0.0257  -0.0140   0.00    0.0
2026/01/15 03:04:30.000   46.877096580    7.465036066   956.4425   6  13   0.0222   0.0639   0.0311  -0.0278   0.0257  -0.0140   0.00    0.0
2026/01/15 03:05:00.000   46.877096581    7.465036060   956.4422   6  14   0.0221   0.0638   0.0310  -0.0277   0.0257  -0.0140   0.00    0.0
2026/01/15 03:05:30.000   46.877096581    7.465036057   956.4419   6  14   0.0221   0.0636   0.0310  -0.0277   0.0256  -0.0140   0.00    0.0
2026/01/15 03:06:00.000   46.877096582    7.465036052   956.4416   6  14   0.0220   0.0634   0.0309  -0.0277   0.0256  -0.0140   0.00    0.0
2026/01/15 03:06:30.000   46.877096582    7.465036049   956.4413   6  14   0.0220   0.0633   0.0308  -0.0277   0.0256  -0.0140   0.00    0.0
2026/01/15 03:07:00.000   46.877096583    7.465036044   956.4410   6  14   0.0220   0.0631   0.0307  -0.0277   0.0255  -0.0140   0.00    0.0
2026/01/15 03:07:30.000   46.877096583    7.465036040   956.4407   6  14   0.0219   0.0629   0.0307  -0.0276   0.0255  -0.0140   0.00    0.0
2026/01/15 03:08:00.000   46.877096584    7.465036036   956.4404   6  14   0.0219   0.0627   0.0306  -0.0276   0.0255  -0.0140   0.00    0.0
2026/01/15 03:08:30.000   46.877096585    7.465036034   956.4400   6  14   0.0219   0.0626   0.0305  -0.0276   0.0254  -0.0140   0.00    0.0
2026/01/15 03:09:00.000   46.877096585    7.465036032   956.4397   6  14   0.0218   0.0624   0.0304  -0.0276   0.0254  -0.0140   0.00    0.0
2026/01/15 03:09:30.000   46.877096585    7.465036030   956.4394   6  14   0.0218   0.0622   0.0304  -0.0276   0.0254  -0.0140   0.00    0.0
2026/01/15 03:10:00.000   46.877096586    7.465036029   956.4391   6  14   0.0217   0.0620   0.0303  -0.0275   0.0253  -0.0140   0.00    0.0
2026/01/15 03:10:30.000   46.877096586    7.465036030   956.4387   6  14   0.0217   0.0619   0.0302  -0.0275   0.0253  -0.0140   0.00    0.0
2026/01/15 03:11:00.000   46.877096586    7.465036032   956.4384   6  14   0.0217   0.0617   0.0301  -0.0275   0.0253  -0.0140   0.00    0.0
2026/01/15 03:11:30.000   46.877096586    7.465036031   956.4381   6  14   0.0216   0.0615   0.0300  -0.0274   0.0252  -0.0140   0.00    0.0
2026/01/15 03:12:00.000   46.877096586    7.465036032   956.4378   6  14   0.0216   0.0614   0.0300  -0.0274   0.0252  -0.0140   0.00    0.0
2026/01/15 03:12:30.000   46.877096586    7.465036031   956.4375   6  14   0.0216   0.0612   0.0299  -0.0274   0.0251  -0.0140   0.00    0.0
2026/01/15 03:13:00.000   46.877096587    7.465036029   956.4372   6  14   0.0215   0.0610   0.0298  -0.0274   0.0251  -0.0140   0.00    0.0
2026/01/15 03:13:30.000   46.877096587    7.465036025   956.4368   6  14   0.0215   0.0608   0.0297  -0.0273   0.0251  -0.0140   0.00    0.0
2026/01/15 03:14:00.000   46.877096588    7.465036023   956.4364   6  14   0.0215   0.0607   0.0297  -0.0273   0.0250  -0.0140   0.00    0.0
2026/01/15 03:14:30.000   46.877096588    7.465036021   956.4361   6  14   0.0214   0.0605   0.0296  -0.0273   0.0250  -0.0140   0.00    0.0
2026/01/15 03:15:00.000   46.877096588    7.465036024   956.4358   6  14   0.0214   0.0603   0.0295  -0.0272   0.0249  -0.0140   0.00    0.0
2026/01/15 03:15:30.000   46.877096588    7.465036025   956.4355   6  15   0.0213   0.0601   0.0294  -0.0272   0.0249  -0.0140   0.00    0.0
2026/01/15 03:16:00.000   46.877096588    7.465036024   956.4351   6  15   0.0213   0.0600   0.0294  -0.0272   0.0249  -0.0139   0.00    0.0
2026/01/15 03:16:30.000   46.877096589    7.465036021   956.4348   6  15   0.0213   0.0598   0.0293  -0.0272   0.0248  -0.0139   0.00    0.0
2026/01/15 03:17:00.000   46.877096589    7.465036019   956.4344   6  15   0.0212   0.0596   0.0292  -0.0271   0.0248  -0.0139   0.00    0.0
2026/01/15 03:17:30.000   46.877096590    7.465036016   956.4340   6  15   0.0212   0.0595   0.0291  -0.0271   0.0247  -0.0139   0.00    0.0
2026/01/15 03:18:00.000   46.877096590    7.465036014   956.4336   6  15   0.0212   0.0593   0.0291  -0.0271   0.0247  -0.0139   0.00    0.0
2026/01/15 03:18:30.000   46.877096590    7.465036012   956.4332   6  15   0.0211   0.0591   0.0290  -0.0270   0.0246  -0.0139   0.00    0.0
2026/01/15 03:19:00.000   46.877096591    7.465036010   956.4327   6  15   0.0211   0.0589   0.0289  -0.0270   0.0246  -0.0139   0.00    0.0
2026/01/15 03:19:30.000   46.877096591    7.465036009   956.4323   6  15   0.0211   0.0588   0.0288  -0.0269   0.0245  -0.0139   0.00    0.0
2026/01/15 03:20:00.000   46.877096592    7.465036005   956.4318   6  15   0.0210   0.0586   0.0288  -0.0269   0.0245  -0.0139   0.00    0.0
2026/01/15 03:20:30.000   46.877096592    7.465036001   956.4314   6  15   0.0210   0.0584   0.0287  -0.0269   0.0245  -0.0139   0.00    0.0
2026/01/15 03:21:00.000   46.877096593    7.465035998   956.4309   6  15   0.0210   0.0582   0.0286  -0.0268   0.0244  -0.0139   0.00    0.0
2026/01/15 03:21:30.000   46.877096594    7.465035996   956.4304   6  15   0.0209   0.0581   0.0285  -0.0268   0.0244  -0.0139   0.00    0.0
2026/01/15 03:22:00.000   46.877096594    7.465035994   956.4299   6  15   0.0209   0.0579   0.0285  -0.0268   0.0243  -0.0139   0.00    0.0
2026/01/15 03:22:30.000   46.877096594    7.465035992   956.4294   6  15   0.0208   0.0577   0.0284  -0.0267   0.0243  -0.0139   0.00    0.0
2026/01/15 03:23:00.000   46.877096595    7.465035992   956.4290   6  15   0.0208   0.0575   0.0283  -0.0267   0.0242  -0.0139   0.00    0.0
2026/01/15 03:23:30.000   46.877096595    7.465035989   956.4285   6  15   0.0208   0.0574   0.0282  -0.0266   0.0242  -0.0139   0.00    0.0
2026/01/15 03:24:00.000   46.877096596    7.465035986   956.4280   6  15   0.0207   0.0572   0.0282  -0.0266   0.0241  -0.0139   0.00    0.0
2026/01/15 03:24:30.000   46.877096596    7.465035983   956.4275   6  15   0.0207   0.0570   0.0281  -0.0266   0.0241  -0.0139   0.00    0.0
2026/01/15 03:25:00.000   46.877096597    7.465035979   956.4269   6  15   0.0207   0.0569   0.0280  -0.0265   0.0240  -0.0138   0.00    0.0
2026/01/15 03:25:30.000   46.877096598    7.465035974   956.4264   6  15   0.0206   0.0567   0.0279  -0.0265   0.0240  -0.0138   0.00    0.0
2026/01/15 03:26:00.000   46.877096599    7.465035968   956.4257   6  15   0.0206   0.0565   0.0279  -0.0264   0.0239  -0.0138   0.00    0.0
2026/01/15 03:26:30.000   46.877096600    7.465035962   956.4251   6  15   0.0206   0.0563   0.0278  -0.0264   0.0238  -0.0138   0.00    0.0
2026/01/15 03:27:00.000   46.877096601    7.465035958   956.4245   6  15   0.0205   0.0562   0.0277  -0.0264   0.0238  -0.0138   0.00    0.0
2026/01/15 03:27:30.000   46.877096601    7.465035952   956.4239   6  15   0.0205   0.0560   0.0276  -0.0263   0.0237  -0.0138   0.00    0.0
