% program   : RTKPOST ver.demo5 b34d
% inp file  : C:\Users\tevin\Desktop\GNSS - MASTA\SPRING SEM\4.SAT NAV DATA PROCESSING\TEAM PROJECT\SNDP-PROJECT\DATA(Tevin USE)\obs\RNXDATA\WUH200CHN_R_20260150000_01D_30S_MO.obs
% inp file  : C:\Users\tevin\Desktop\GNSS - MASTA\SPRING SEM\4.SAT NAV DATA PROCESSING\TEAM PROJECT\SNDP-PROJECT\DATA(Tevin USE)\nav\BRDC00IGS_R_20260150000_01D_MN.nav
% inp file  : C:\Users\tevin\Desktop\GNSS - MASTA\SPRING SEM\4.SAT NAV DATA PROCESSING\TEAM PROJECT\SNDP-PROJECT\DATA(Tevin USE)\DATA_FINAL_ANT_EXTRA\COD0MGXFIN_20260150000_01D_30S_CLK.CLK
% inp file  : C:\Users\tevin\Desktop\GNSS - MASTA\SPRING SEM\4.SAT NAV DATA PROCESSING\TEAM PROJECT\SNDP-PROJECT\DATA(Tevin USE)\DATA_FINAL_ANT_EXTRA\COD0MGXFIN_20260150000_01D_05M_ORB.SP3
% obs start : 2026/01/15 00:00:00.0 GPST (week2401 345600.0s)
% obs end   : 2026/01/15 23:59:30.0 GPST (week2401 431970.0s)
% pos mode  : PPP Static
% solution  : Forward
% elev mask : 15.0 deg
% dynamics  : on
% tidecorr  : off
% tropo opt : Saastamoinen
% ephemeris : Precise
% navi sys  : BDS
% antenna1  :                       ( 0.0000  0.0000  0.0000)
%
% (lat/lon/height=WGS84/ellipsoidal,Q=1:fix,2:float,3:sbas,4:dgps,5:single,6:ppp,ns=# of satellites)
%  GPST                  latitude(deg) longitude(deg)  height(m)   Q  ns   sdn(m)   sde(m)   sdu(m)  sdne(m)  sdeu(m)  sdun(m) age(s)  ratio
2026/01/15 00:00:00.000   30.531738894  114.357062837    48.8424   6   8   1.8240   2.4715   5.6693  -1.0799   1.6362  -1.9400   0.00    0.0
2026/01/15 00:00:30.000   30.531741658  114.357062225    48.7128   6   8   1.2903   1.7493   4.0096  -0.7650   1.1570  -1.3708   0.00    0.0
2026/01/15 00:01:00.000   30.531740997  114.357067442    49.0760   6   8   1.0535   1.4288   3.2681  -0.6251   0.9419  -1.1163   0.00    0.0
2026/01/15 00:01:30.000   30.531740672  114.357069413    49.2005   6   8   0.9122   1.2377   2.8240  -0.5416   0.8128  -0.9637   0.00    0.0
2026/01/15 00:02:00.000   30.531741032  114.357071022    49.3054   6   8   0.8161   1.1089   2.5215  -0.4831   0.7204  -0.8604   0.00    0.0
2026/01/15 00:02:30.000   30.531741474  114.357071978    49.0694   6   8   0.7452   1.0138   2.2990  -0.4403   0.6535  -0.7842   0.00    0.0
2026/01/15 00:03:00.000   30.531741968  114.357073174    49.1651   6   8   0.6899   0.9396   2.1249  -0.4070   0.6012  -0.7243   0.00    0.0
2026/01/15 00:03:30.000   30.531742640  114.357072967    49.1060   6   8   0.6451   0.8795   1.9838  -0.3802   0.5589  -0.6757   0.00    0.0
2026/01/15 00:04:00.000   30.531743164  114.357073793    49.1127   6   8   0.6080   0.8297   1.8664  -0.3579   0.5236  -0.6352   0.00    0.0
2026/01/15 00:04:30.000   30.531743467  114.357073930    49.1585   6   8   0.5765   0.7875   1.7667  -0.3390   0.4935  -0.6007   0.00    0.0
2026/01/15 00:05:00.000   30.531743476  114.357074275    49.3353   6   8   0.5494   0.7512   1.6807  -0.3228   0.4675  -0.5708   0.00    0.0
2026/01/15 00:05:30.000   30.531743419  114.357074947    49.4809   6   8   0.5257   0.7196   1.6055  -0.3086   0.4447  -0.5447   0.00    0.0
2026/01/15 00:06:00.000   30.531743277  114.357075506    49.5489   6   8   0.5048   0.6916   1.5390  -0.2961   0.4245  -0.5215   0.00    0.0
2026/01/15 00:06:30.000   30.531743112  114.357076266    49.5606   6   8   0.4862   0.6667   1.4797  -0.2849   0.4064  -0.5009   0.00    0.0
2026/01/15 00:07:00.000   30.531743164  114.357076694    49.5367   6   8   0.4695   0.6444   1.4264  -0.2749   0.3900  -0.4822   0.00    0.0
2026/01/15 00:07:30.000   30.531743107  114.357077401    49.6596   6   8   0.4543   0.6243   1.3781  -0.2658   0.3751  -0.4653   0.00    0.0
2026/01/15 00:08:00.000   30.531743290  114.357077808    49.6677   6   8   0.4406   0.6059   1.3340  -0.2576   0.3614  -0.4498   0.00    0.0
2026/01/15 00:08:30.000   30.531743164  114.357078424    49.6832   6   8   0.4280   0.5892   1.2943  -0.2500   0.3495  -0.4356   0.00    0.0
2026/01/15 00:09:00.000   30.531743011  114.357079154    49.7454   6   8   0.4164   0.5737   1.2575  -0.2431   0.3385  -0.4225   0.00    0.0
2026/01/15 00:09:30.000   30.531742753  114.357080268    49.8577   6   8   0.4056   0.5595   1.2235  -0.2366   0.3282  -0.4103   0.00    0.0
2026/01/15 00:10:00.000   30.531742675  114.357081006    49.9687   6   8   0.3957   0.5464   1.1920  -0.2308   0.3188  -0.3990   0.00    0.0
2026/01/15 00:10:30.000   30.531742511  114.357081725    49.9902   6   8   0.3864   0.5343   1.1626  -0.2253   0.3099  -0.3885   0.00    0.0
2026/01/15 00:11:00.000   30.531749335  114.357082003    41.8285   6   8   0.3648   0.5229   0.4000  -0.2190   0.2926  -0.1985   0.00    0.0
2026/01/15 00:11:30.000   30.531749061  114.357083206    41.9111   6   8   0.3572   0.5123   0.3972  -0.2144   0.2866  -0.1953   0.00    0.0
2026/01/15 00:12:00.000   30.531748820  114.357084099    41.9804   6   8   0.3500   0.5023   0.3946  -0.2101   0.2809  -0.1922   0.00    0.0
2026/01/15 00:12:30.000   30.531748617  114.357084594    42.0432   6   8   0.3433   0.4929   0.3922  -0.2061   0.2756  -0.1893   0.00    0.0
2026/01/15 00:13:00.000   30.531748463  114.357085221    42.1102   6   8   0.3369   0.4841   0.3898  -0.2022   0.2705  -0.1866   0.00    0.0
2026/01/15 00:13:30.000   30.531748453  114.357085649    42.1667   6   8   0.3308   0.4757   0.3876  -0.1986   0.2657  -0.1840   0.00    0.0
2026/01/15 00:14:00.000   30.531748269  114.357086164    42.2280   6   8   0.3251   0.4677   0.3854  -0.1951   0.2611  -0.1815   0.00    0.0
2026/01/15 00:14:30.000   30.531748015  114.357086586    42.2841   6   8   0.3196   0.4602   0.3833  -0.1917   0.2568  -0.1791   0.00    0.0
2026/01/15 00:15:00.000   30.531747876  114.357087073    42.3360   6   8   0.3144   0.4530   0.3813  -0.1886   0.2526  -0.1768   0.00    0.0
2026/01/15 00:15:30.000   30.531747689  114.357087726    42.3962   6   8   0.3095   0.4462   0.3794  -0.1855   0.2486  -0.1746   0.00    0.0
2026/01/15 00:16:00.000   30.531747576  114.357088348    42.4611   6   8   0.3047   0.4396   0.3775  -0.1826   0.2448  -0.1725   0.00    0.0
2026/01/15 00:16:30.000   30.531747447  114.357088876    42.5172   6   8   0.3002   0.4334   0.3757  -0.1799   0.2411  -0.1705   0.00    0.0
2026/01/15 00:17:00.000   30.531747319  114.357089541    42.5813   6   8   0.2959   0.4275   0.3739  -0.1772   0.2376  -0.1686   0.00    0.0
2026/01/15 00:17:30.000   30.531747121  114.357090328    42.6459   6   8   0.2917   0.4218   0.3722  -0.1747   0.2342  -0.1667   0.00    0.0
2026/01/15 00:18:00.000   30.531747435  114.357091186    42.1076   6   8   0.2870   0.4163   0.2981  -0.1722   0.2314  -0.1513   0.00    0.0
2026/01/15 00:18:30.000   30.531747292  114.357092007    42.1589   6   8   0.2832   0.4111   0.2968  -0.1699   0.2283  -0.1496   0.00    0.0
2026/01/15 00:19:00.000   30.531747092  114.357092823    42.2103   6   8   0.2795   0.4060   0.2954  -0.1676   0.2254  -0.1480   0.00    0.0
2026/01/15 00:19:30.000   30.531746942  114.357093530    42.2591   6   8   0.2759   0.4012   0.2941  -0.1654   0.2226  -0.1464   0.00    0.0
2026/01/15 00:20:00.000   30.531746817  114.357094289    42.3067   6   8   0.2725   0.3965   0.2929  -0.1633   0.2199  -0.1449   0.00    0.0
2026/01/15 00:20:30.000   30.531746741  114.357094987    42.3494   6   8   0.2692   0.3920   0.2917  -0.1612   0.2172  -0.1434   0.00    0.0
2026/01/15 00:21:00.000   30.531746550  114.357095661    42.3980   6   8   0.2660   0.3876   0.2905  -0.1592   0.2147  -0.1419   0.00    0.0
2026/01/15 00:21:30.000   30.531746441  114.357096452    42.2885   6   8   0.2626   0.3834   0.2564  -0.1573   0.2126  -0.1348   0.00    0.0
2026/01/15 00:22:00.000   30.531746277  114.357097050    42.3280   6   8   0.2596   0.3794   0.2554  -0.1555   0.2102  -0.1335   0.00    0.0
2026/01/15 00:22:30.000   30.531746038  114.357097689    42.3658   6   8   0.2567   0.3755   0.2543  -0.1537   0.2080  -0.1322   0.00    0.0
2026/01/15 00:23:00.000   30.531745766  114.357098455    42.4063   6   8   0.2539   0.3717   0.2533  -0.1519   0.2058  -0.1309   0.00    0.0
2026/01/15 00:23:30.000   30.531745622  114.357099287    42.4491   6   8   0.2512   0.3680   0.2524  -0.1502   0.2036  -0.1297   0.00    0.0
2026/01/15 00:24:00.000   30.531745494  114.357099965    42.4859   6   8   0.2485   0.3645   0.2514  -0.1485   0.2016  -0.1285   0.00    0.0
2026/01/15 00:24:30.000   30.531745372  114.357100624    42.5240   6   8   0.2460   0.3610   0.2505  -0.1469   0.1995  -0.1273   0.00    0.0
2026/01/15 00:25:00.000   30.531745259  114.357101448    42.4547   6   8   0.2433   0.3577   0.2301  -0.1453   0.1979  -0.1229   0.00    0.0
2026/01/15 00:25:30.000   30.531745108  114.357102263    42.4921   6   8   0.2409   0.3544   0.2293  -0.1438   0.1960  -0.1218   0.00    0.0
2026/01/15 00:26:00.000   30.531744865  114.357102989    42.5287   6   8   0.2385   0.3513   0.2284  -0.1423   0.1942  -0.1208   0.00    0.0
2026/01/15 00:26:30.000   30.531744472  114.357103988    42.5714   6   9   0.2361   0.3481   0.2276  -0.1407   0.1924  -0.1197   0.00    0.0
2026/01/15 00:27:00.000   30.531744103  114.357104923    42.6119   6   9   0.2338   0.3451   0.2268  -0.1391   0.1906  -0.1186   0.00    0.0
2026/01/15 00:27:30.000   30.531743735  114.357105790    42.6509   6   9   0.2315   0.3421   0.2260  -0.1375   0.1889  -0.1176   0.00    0.0
2026/01/15 00:28:00.000   30.531743338  114.357106731    42.7533   6   9   0.2292   0.3393   0.2122  -0.1360   0.1874  -0.1144   0.00    0.0
2026/01/15 00:28:30.000   30.531742997  114.357107751    42.7913   6   9   0.2270   0.3364   0.2114  -0.1345   0.1858  -0.1134   0.00    0.0
2026/01/15 00:29:00.000   30.531742734  114.357108642    42.8293   6   9   0.2249   0.3337   0.2107  -0.1331   0.1842  -0.1124   0.00    0.0
2026/01/15 00:29:30.000   30.531742412  114.357109567    42.8676   6   9   0.2229   0.3310   0.2100  -0.1317   0.1827  -0.1115   0.00    0.0
2026/01/15 00:30:00.000   30.531742149  114.357110418    42.9011   6   9   0.2209   0.3285   0.2093  -0.1303   0.1812  -0.1106   0.00    0.0
2026/01/15 00:30:30.000   30.531741903  114.357111248    42.9353   6   9   0.2189   0.3259   0.2087  -0.1290   0.1798  -0.1097   0.00    0.0
2026/01/15 00:31:00.000   30.531741624  114.357112115    42.9719   6   9   0.2170   0.3235   0.2080  -0.1276   0.1783  -0.1089   0.00    0.0
2026/01/15 00:31:30.000   30.531741321  114.357112959    43.0080   6   9   0.2152   0.3211   0.2074  -0.1264   0.1770  -0.1080   0.00    0.0
2026/01/15 00:32:00.000   30.531741042  114.357113919    43.0445   6   9   0.2133   0.3187   0.2068  -0.1251   0.1756  -0.1072   0.00    0.0
2026/01/15 00:32:30.000   30.531740746  114.357114765    43.0793   6   9   0.2116   0.3164   0.2062  -0.1239   0.1743  -0.1064   0.00    0.0
2026/01/15 00:33:00.000   30.531740414  114.357115614    43.1167   6   9   0.2098   0.3142   0.2056  -0.1227   0.1730  -0.1056   0.00    0.0
2026/01/15 00:33:30.000   30.531740082  114.357116609    43.1579   6   9   0.2081   0.3120   0.2050  -0.1215   0.1717  -0.1049   0.00    0.0
2026/01/15 00:34:00.000   30.531739760  114.357117483    43.1947   6   9   0.2065   0.3099   0.2044  -0.1203   0.1705  -0.1041   0.00    0.0
2026/01/15 00:34:30.000   30.531739507  114.357118304    43.2314   6   9   0.2048   0.3078   0.2039  -0.1192   0.1693  -0.1034   0.00    0.0
2026/01/15 00:35:00.000   30.531739245  114.357119105    43.2645   6   9   0.2032   0.3058   0.2033  -0.1181   0.1681  -0.1027   0.00    0.0
2026/01/15 00:35:30.000   30.531738952  114.357119945    43.2986   6   9   0.2017   0.3038   0.2028  -0.1170   0.1669  -0.1020   0.00    0.0
2026/01/15 00:36:00.000   30.531738558  114.357120855    43.4241   6   9   0.2001   0.3018   0.1932  -0.1160   0.1659  -0.0996   0.00    0.0
2026/01/15 00:36:30.000   30.531738287  114.357121694    43.4570   6   9   0.1986   0.2999   0.1927  -0.1149   0.1648  -0.0989   0.00    0.0
2026/01/15 00:37:00.000   30.531738010  114.357122510    43.4894   6   9   0.1971   0.2980   0.1922  -0.1139   0.1637  -0.0983   0.00    0.0
2026/01/15 00:37:30.000   30.531737740  114.357123303    43.5205   6   9   0.1956   0.2962   0.1918  -0.1129   0.1626  -0.0976   0.00    0.0
2026/01/15 00:38:00.000   30.531737463  114.357124144    43.5557   6   9   0.1942   0.2944   0.1913  -0.1119   0.1616  -0.0970   0.00    0.0
2026/01/15 00:38:30.000   30.531737276  114.357124961    43.5091   6   9   0.1928   0.2927   0.1838  -0.1110   0.1607  -0.0950   0.00    0.0
2026/01/15 00:39:00.000   30.531737037  114.357125754    43.5409   6   9   0.1914   0.2910   0.1833  -0.1100   0.1597  -0.0944   0.00    0.0
2026/01/15 00:39:30.000   30.531736711  114.357126497    43.5708   6   9   0.1901   0.2893   0.1829  -0.1091   0.1587  -0.0938   0.00    0.0
2026/01/15 00:40:00.000   30.531736410  114.357127259    43.6026   6   9   0.1888   0.2876   0.1824  -0.1082   0.1577  -0.0932   0.00    0.0
2026/01/15 00:40:30.000   30.531736103  114.357128027    43.6657   6   9   0.1874   0.2860   0.1763  -0.1073   0.1569  -0.0916   0.00    0.0
2026/01/15 00:41:00.000   30.531735854  114.357128779    43.6935   6   9   0.1861   0.2844   0.1758  -0.1064   0.1560  -0.0910   0.00    0.0
2026/01/15 00:41:30.000   30.531735605  114.357129635    43.7275   6   9   0.1849   0.2829   0.1754  -0.1055   0.1551  -0.0905   0.00    0.0
2026/01/15 00:42:00.000   30.531735346  114.357130380    43.7583   6   9   0.1837   0.2813   0.1750  -0.1047   0.1542  -0.0899   0.00    0.0
2026/01/15 00:42:30.000   30.531735075  114.357131154    43.7899   6   9   0.1825   0.2798   0.1746  -0.1039   0.1533  -0.0894   0.00    0.0
2026/01/15 00:43:00.000   30.531734817  114.357131954    43.8212   6   9   0.1813   0.2784   0.1742  -0.1030   0.1525  -0.0889   0.00    0.0
2026/01/15 00:43:30.000   30.531734536  114.357132702    43.8522   6   9   0.1801   0.2769   0.1739  -0.1022   0.1516  -0.0884   0.00    0.0
2026/01/15 00:44:00.000   30.531734250  114.357133482    43.8827   6   9   0.1790   0.2755   0.1735  -0.1014   0.1508  -0.0879   0.00    0.0
2026/01/15 00:44:30.000   30.531733988  114.357134204    43.9106   6   9   0.1779   0.2741   0.1731  -0.1006   0.1500  -0.0874   0.00    0.0
2026/01/15 00:45:00.000   30.531733741  114.357134985    43.9407   6   9   0.1768   0.2727   0.1728  -0.0999   0.1492  -0.0869   0.00    0.0
2026/01/15 00:45:30.000   30.531733519  114.357135741    43.9693   6   9   0.1757   0.2714   0.1724  -0.0991   0.1484  -0.0864   0.00    0.0
2026/01/15 00:46:00.000   30.531733244  114.357136469    43.9976   6   9   0.1746   0.2701   0.1721  -0.0984   0.1476  -0.0859   0.00    0.0
2026/01/15 00:46:30.000   30.531733024  114.357137162    44.0243   6   9   0.1735   0.2688   0.1717  -0.0976   0.1469  -0.0855   0.00    0.0
2026/01/15 00:47:00.000   30.531732776  114.357137933    44.0550   6   9   0.1725   0.2675   0.1714  -0.0969   0.1461  -0.0850   0.00    0.0
2026/01/15 00:47:30.000   30.531732506  114.357138629    44.0827   6   9   0.1715   0.2663   0.1710  -0.0962   0.1454  -0.0846   0.00    0.0
2026/01/15 00:48:00.000   30.531732241  114.357139374    44.1120   6   9   0.1705   0.2650   0.1707  -0.0955   0.1447  -0.0842   0.00    0.0
2026/01/15 00:48:30.000   30.531731993  114.357140112    44.1408   6   9   0.1695   0.2638   0.1704  -0.0948   0.1440  -0.0837   0.00    0.0
2026/01/15 00:49:00.000   30.531731752  114.357140826    44.1686   6   9   0.1685   0.2626   0.1701  -0.0941   0.1433  -0.0833   0.00    0.0
2026/01/15 00:49:30.000   30.531731495  114.357141581    44.1989   6   9   0.1676   0.2615   0.1698  -0.0935   0.1426  -0.0829   0.00    0.0
2026/01/15 00:50:00.000   30.531731214  114.357142280    44.2274   6   9   0.1666   0.2603   0.1695  -0.0928   0.1419  -0.0825   0.00    0.0
2026/01/15 00:50:30.000   30.531730950  114.357143004    44.2556   6   9   0.1657   0.2592   0.1692  -0.0922   0.1412  -0.0821   0.00    0.0
2026/01/15 00:51:00.000   30.531730687  114.357143726    44.2844   6   9   0.1648   0.2581   0.1689  -0.0915   0.1406  -0.0817   0.00    0.0
2026/01/15 00:51:30.000   30.531730420  114.357144451    44.3116   6   9   0.1639   0.2570   0.1686  -0.0909   0.1399  -0.0813   0.00    0.0
2026/01/15 00:52:00.000   30.531730166  114.357145105    44.3379   6   9   0.1630   0.2559   0.1683  -0.0903   0.1393  -0.0810   0.00    0.0
2026/01/15 00:52:30.000   30.531729942  114.357145779    44.3635   6   9   0.1621   0.2549   0.1680  -0.0897   0.1387  -0.0806   0.00    0.0
2026/01/15 00:53:00.000   30.531729722  114.357145928    44.3720   6   8   0.1612   0.2541   0.1678  -0.0891   0.1383  -0.0802   0.00    0.0
2026/01/15 00:53:30.000   30.531729466  114.357146616    44.4132   6   9   0.1603   0.2531   0.1634  -0.0885   0.1377  -0.0791   0.00    0.0
2026/01/15 00:54:00.000   30.531729213  114.357147303    44.4396   6   9   0.1595   0.2521   0.1632  -0.0879   0.1371  -0.0787   0.00    0.0
2026/01/15 00:54:30.000   30.531728958  114.357147923    44.4629   6   9   0.1587   0.2511   0.1629  -0.0873   0.1366  -0.0784   0.00    0.0
2026/01/15 00:55:00.000   30.531728681  114.357148539    44.5370   6   9   0.1578   0.2501   0.1591  -0.0868   0.1360  -0.0774   0.00    0.0
2026/01/15 00:55:30.000   30.531728502  114.357148635    44.5422   6   8   0.1570   0.2494   0.1589  -0.0862   0.1357  -0.0770   0.00    0.0
2026/01/15 00:56:00.000   30.531728274  114.357148773    44.5503   6   8   0.1562   0.2487   0.1587  -0.0857   0.1353  -0.0767   0.00    0.0
2026/01/15 00:56:30.000   30.531728057  114.357148904    44.5584   6   8   0.1554   0.2481   0.1585  -0.0852   0.1349  -0.0764   0.00    0.0
2026/01/15 00:57:00.000   30.531727867  114.357149046    44.5677   6   8   0.1547   0.2474   0.1583  -0.0846   0.1345  -0.0761   0.00    0.0
2026/01/15 00:57:30.000   30.531727648  114.357149219    44.5791   6   8   0.1539   0.2468   0.1581  -0.0841   0.1342  -0.0758   0.00    0.0
2026/01/15 00:58:00.000   30.531727426  114.357149910    44.6059   6   9   0.1532   0.2459   0.1579  -0.0836   0.1337  -0.0755   0.00    0.0
2026/01/15 00:58:30.000   30.531727217  114.357150118    44.6180   6   8   0.1524   0.2452   0.1577  -0.0831   0.1333  -0.0752   0.00    0.0
2026/01/15 00:59:00.000   30.531727006  114.357150308    44.6284   6   8   0.1517   0.2446   0.1575  -0.0826   0.1330  -0.0749   0.00    0.0
2026/01/15 00:59:30.000   30.531726814  114.357150447    44.6360   6   8   0.1510   0.2440   0.1574  -0.0821   0.1326  -0.0747   0.00    0.0
2026/01/15 01:00:00.000   30.531726584  114.357150618    44.6452   6   8   0.1503   0.2434   0.1572  -0.0817   0.1323  -0.0744   0.00    0.0
2026/01/15 01:00:30.000   30.531726360  114.357150771    44.6531   6   8   0.1496   0.2428   0.1570  -0.0812   0.1320  -0.0741   0.00    0.0
2026/01/15 01:01:00.000   30.531726130  114.357150929    44.6606   6   8   0.1489   0.2423   0.1568  -0.0807   0.1316  -0.0739   0.00    0.0
2026/01/15 01:01:30.000   30.531725935  114.357151086    44.6668   6   8   0.1482   0.2417   0.1567  -0.0803   0.1313  -0.0736   0.00    0.0
2026/01/15 01:02:00.000   30.531725736  114.357151217    44.6727   6   8   0.1475   0.2411   0.1565  -0.0799   0.1310  -0.0734   0.00    0.0
2026/01/15 01:02:30.000   30.531725503  114.357151389    44.6803   6   8   0.1469   0.2406   0.1564  -0.0794   0.1307  -0.0731   0.00    0.0
2026/01/15 01:03:00.000   30.531725290  114.357151541    44.6868   6   8   0.1462   0.2400   0.1562  -0.0790   0.1304  -0.0729   0.00    0.0
2026/01/15 01:03:30.000   30.531725084  114.357151661    44.6932   6   8   0.1456   0.2395   0.1561  -0.0786   0.1301  -0.0726   0.00    0.0
2026/01/15 01:04:00.000   30.531724860  114.357151789    44.7006   6   8   0.1449   0.2389   0.1559  -0.0782   0.1298  -0.0724   0.00    0.0
2026/01/15 01:04:30.000   30.531724659  114.357151898    44.7074   6   8   0.1443   0.2384   0.1558  -0.0778   0.1295  -0.0722   0.00    0.0
2026/01/15 01:05:00.000   30.531724436  114.357152055    44.7152   6   8   0.1437   0.2379   0.1556  -0.0774   0.1292  -0.0720   0.00    0.0
2026/01/15 01:05:30.000   30.531724225  114.357152178    44.7221   6   8   0.1431   0.2374   0.1555  -0.0770   0.1289  -0.0718   0.00    0.0
2026/01/15 01:06:00.000   30.531724011  114.357152311    44.7293   6   8   0.1424   0.2369   0.1553  -0.0766   0.1286  -0.0716   0.00    0.0
2026/01/15 01:06:30.000   30.531723816  114.357152446    44.7368   6   8   0.1418   0.2364   0.1552  -0.0762   0.1283  -0.0714   0.00    0.0
2026/01/15 01:07:00.000   30.531723634  114.357152560    44.7438   6   8   0.1413   0.2359   0.1550  -0.0758   0.1281  -0.0712   0.00    0.0
2026/01/15 01:07:30.000   30.531723415  114.357152667    44.7506   6   8   0.1407   0.2354   0.1549  -0.0755   0.1278  -0.0710   0.00    0.0
2026/01/15 01:08:00.000   30.531723228  114.357152759    44.7562   6   8   0.1401   0.2349   0.1548  -0.0751   0.1275  -0.0708   0.00    0.0
2026/01/15 01:08:30.000   30.531723017  114.357152890    44.7629   6   8   0.1395   0.2344   0.1546  -0.0747   0.1272  -0.0706   0.00    0.0
2026/01/15 01:09:00.000   30.531722827  114.357153004    44.7687   6   8   0.1390   0.2339   0.1545  -0.0744   0.1270  -0.0704   0.00    0.0
2026/01/15 01:09:30.000   30.531722635  114.357153114    44.7752   6   8   0.1384   0.2335   0.1544  -0.0740   0.1267  -0.0702   0.00    0.0
2026/01/15 01:10:00.000   30.531722432  114.357153227    44.7824   6   8   0.1379   0.2330   0.1542  -0.0737   0.1265  -0.0701   0.00    0.0
2026/01/15 01:10:30.000   30.531722241  114.357153337    44.7878   6   8   0.1373   0.2326   0.1541  -0.0734   0.1262  -0.0699   0.00    0.0
2026/01/15 01:11:00.000   30.531722053  114.357153420    44.7926   6   8   0.1368   0.2321   0.1540  -0.0731   0.1259  -0.0697   0.00    0.0
2026/01/15 01:11:30.000   30.531721607  114.357153485    44.8732   6  11   0.1362   0.2312   0.1508  -0.0729   0.1250  -0.0693   0.00    0.0
2026/01/15 01:12:00.000   30.531721432  114.357153583    44.8784   6   8   0.1357   0.2307   0.1506  -0.0726   0.1247  -0.0692   0.00    0.0
2026/01/15 01:12:30.000   30.531721248  114.357153675    44.8837   6   8   0.1352   0.2303   0.1505  -0.0723   0.1245  -0.0690   0.00    0.0
2026/01/15 01:13:00.000   30.531721053  114.357153794    44.8900   6   8   0.1347   0.2299   0.1504  -0.0720   0.1242  -0.0689   0.00    0.0
2026/01/15 01:13:30.000   30.531720875  114.357153875    44.8948   6   8   0.1342   0.2295   0.1503  -0.0717   0.1240  -0.0687   0.00    0.0
2026/01/15 01:14:00.000   30.531720435  114.357153562    44.9779   6  10   0.1336   0.2288   0.1474  -0.0715   0.1230  -0.0683   0.00    0.0
2026/01/15 01:14:30.000   30.531720243  114.357153670    44.9840   6   8   0.1331   0.2284   0.1473  -0.0712   0.1228  -0.0682   0.00    0.0
2026/01/15 01:15:00.000   30.531720051  114.357153783    44.9898   6   8   0.1326   0.2280   0.1472  -0.0710   0.1226  -0.0681   0.00    0.0
2026/01/15 01:15:30.000   30.531719867  114.357153893    44.9958   6   8   0.1322   0.2276   0.1471  -0.0707   0.1224  -0.0679   0.00    0.0
2026/01/15 01:16:00.000   30.531719678  114.357154031    45.0029   6   8   0.1317   0.2272   0.1470  -0.0704   0.1221  -0.0678   0.00    0.0
2026/01/15 01:16:30.000   30.531719424  114.357153936    45.0782   6  12   0.1311   0.2263   0.1443  -0.0701   0.1212  -0.0673   0.00    0.0
2026/01/15 01:17:00.000   30.531719246  114.357154140    45.0853   6   9   0.1306   0.2258   0.1442  -0.0698   0.1209  -0.0672   0.00    0.0
2026/01/15 01:17:30.000   30.531718869  114.357153808    45.0840   6  11   0.1301   0.2252   0.1438  -0.0697   0.1205  -0.0671   0.00    0.0
2026/01/15 01:18:00.000   30.531718514  114.357153448    45.0779   6  11   0.1296   0.2245   0.1435  -0.0696   0.1201  -0.0670   0.00    0.0
2026/01/15 01:18:30.000   30.531718229  114.357153395    45.0785   6  10   0.1292   0.2240   0.1433  -0.0694   0.1198  -0.0669   0.00    0.0
2026/01/15 01:19:00.000   30.531717951  114.357153145    45.1942   6  12   0.1286   0.2233   0.1408  -0.0691   0.1188  -0.0665   0.00    0.0
2026/01/15 01:19:30.000   30.531717610  114.357152784    45.1862   6  11   0.1282   0.2227   0.1406  -0.0690   0.1185  -0.0665   0.00    0.0
2026/01/15 01:20:00.000   30.531717271  114.357152461    45.1773   6  11   0.1277   0.2221   0.1403  -0.0689   0.1181  -0.0664   0.00    0.0
2026/01/15 01:20:30.000   30.531717005  114.357152223    45.2733   6  12   0.1272   0.2214   0.1381  -0.0687   0.1171  -0.0660   0.00    0.0
2026/01/15 01:21:00.000   30.531716668  114.357151888    45.2651   6  11   0.1267   0.2208   0.1378  -0.0686   0.1168  -0.0660   0.00    0.0
2026/01/15 01:21:30.000   30.531716307  114.357151303    45.2510   6  13   0.1262   0.2202   0.1376  -0.0684   0.1164  -0.0659   0.00    0.0
2026/01/15 01:22:00.000   30.531715965  114.357150710    45.2360   6  13   0.1256   0.2196   0.1374  -0.0683   0.1160  -0.0658   0.00    0.0
2026/01/15 01:22:30.000   30.531715644  114.357150099    45.2195   6  13   0.1251   0.2189   0.1372  -0.0682   0.1157  -0.0657   0.00    0.0
2026/01/15 01:23:00.000   30.531715314  114.357149542    45.2043   6  13   0.1246   0.2183   0.1370  -0.0680   0.1153  -0.0657   0.00    0.0
2026/01/15 01:23:30.000   30.531714983  114.357148998    45.1886   6  13   0.1241   0.2177   0.1368  -0.0679   0.1150  -0.0656   0.00    0.0
2026/01/15 01:24:00.000   30.531714657  114.357148443    45.1729   6  13   0.1236   0.2171   0.1367  -0.0678   0.1147  -0.0655   0.00    0.0
2026/01/15 01:24:30.000   30.531714345  114.357147892    45.1569   6  13   0.1231   0.2166   0.1365  -0.0677   0.1143  -0.0655   0.00    0.0
2026/01/15 01:25:00.000   30.531714019  114.357147338    45.1410   6  13   0.1226   0.2160   0.1364  -0.0675   0.1140  -0.0654   0.00    0.0
2026/01/15 01:25:30.000   30.531713707  114.357146823    45.1258   6  13   0.1222   0.2154   0.1362  -0.0674   0.1137  -0.0654   0.00    0.0
2026/01/15 01:26:00.000   30.531713387  114.357146337    45.1118   6  13   0.1217   0.2148   0.1361  -0.0673   0.1133  -0.0654   0.00    0.0
2026/01/15 01:26:30.000   30.531713051  114.357145848    45.0975   6  13   0.1212   0.2143   0.1359  -0.0672   0.1130  -0.0653   0.00    0.0
2026/01/15 01:27:00.000   30.531712726  114.357145403    45.0843   6  13   0.1208   0.2137   0.1358  -0.0671   0.1127  -0.0653   0.00    0.0
2026/01/15 01:27:30.000   30.531712434  114.357144955    45.0708   6  13   0.1204   0.2132   0.1357  -0.0670   0.1124  -0.0652   0.00    0.0
2026/01/15 01:28:00.000   30.531712141  114.357144548    45.0583   6  13   0.1199   0.2126   0.1355  -0.0669   0.1121  -0.0652   0.00    0.0
2026/01/15 01:28:30.000   30.531711843  114.357144109    45.0455   6  13   0.1195   0.2121   0.1354  -0.0668   0.1118  -0.0652   0.00    0.0
2026/01/15 01:29:00.000   30.531711539  114.357143663    45.0319   6  13   0.1191   0.2115   0.1353  -0.0667   0.1115  -0.0651   0.00    0.0
2026/01/15 01:29:30.000   30.531711238  114.357143228    45.0190   6  13   0.1187   0.2110   0.1352  -0.0666   0.1112  -0.0651   0.00    0.0
2026/01/15 01:30:00.000   30.531710952  114.357142802    45.0059   6  13   0.1183   0.2105   0.1350  -0.0665   0.1109  -0.0651   0.00    0.0
2026/01/15 01:30:30.000   30.531710683  114.357142385    44.9931   6  13   0.1179   0.2100   0.1349  -0.0664   0.1106  -0.0651   0.00    0.0
2026/01/15 01:31:00.000   30.531710399  114.357141969    44.9808   6  13   0.1175   0.2094   0.1348  -0.0663   0.1103  -0.0650   0.00    0.0
2026/01/15 01:31:30.000   30.531710145  114.357141522    44.9676   6  13   0.1171   0.2089   0.1347  -0.0663   0.1101  -0.0650   0.00    0.0
2026/01/15 01:32:00.000   30.531709900  114.357141130    44.9556   6  13   0.1167   0.2084   0.1346  -0.0662   0.1098  -0.0650   0.00    0.0
2026/01/15 01:32:30.000   30.531709638  114.357140728    44.9437   6  13   0.1164   0.2079   0.1345  -0.0661   0.1095  -0.0650   0.00    0.0
2026/01/15 01:33:00.000   30.531709313  114.357140389    44.9320   6  14   0.1160   0.2074   0.1344  -0.0660   0.1092  -0.0650   0.00    0.0
2026/01/15 01:33:30.000   30.531709013  114.357140262    44.9956   6  13   0.1156   0.2068   0.1324  -0.0658   0.1083  -0.0646   0.00    0.0
2026/01/15 01:34:00.000   30.531708765  114.357139906    44.9855   6  13   0.1152   0.2063   0.1323  -0.0657   0.1081  -0.0646   0.00    0.0
2026/01/15 01:34:30.000   30.531708520  114.357139539    44.9743   6  13   0.1149   0.2059   0.1322  -0.0657   0.1078  -0.0646   0.00    0.0
2026/01/15 01:35:00.000   30.531708284  114.357139187    44.9639   6  13   0.1146   0.2054   0.1321  -0.0656   0.1075  -0.0646   0.00    0.0
2026/01/15 01:35:30.000   30.531708046  114.357138857    44.9538   6  13   0.1142   0.2049   0.1320  -0.0655   0.1073  -0.0646   0.00    0.0
2026/01/15 01:36:00.000   30.531707802  114.357138537    44.9442   6  13   0.1139   0.2044   0.1319  -0.0654   0.1070  -0.0645   0.00    0.0
2026/01/15 01:36:30.000   30.531707571  114.357138221    44.9346   6  13   0.1136   0.2040   0.1318  -0.0654   0.1068  -0.0645   0.00    0.0
2026/01/15 01:37:00.000   30.531707333  114.357137924    44.9256   6  13   0.1132   0.2035   0.1318  -0.0653   0.1065  -0.0645   0.00    0.0
2026/01/15 01:37:30.000   30.531707104  114.357137626    44.9163   6  13   0.1129   0.2031   0.1317  -0.0652   0.1063  -0.0645   0.00    0.0
2026/01/15 01:38:00.000   30.531706965  114.357137392    44.9093   6  12   0.1126   0.2026   0.1316  -0.0651   0.1060  -0.0645   0.00    0.0
2026/01/15 01:38:30.000   30.531706656  114.357137394    45.0000   6  13   0.1123   0.2021   0.1299  -0.0650   0.1052  -0.0642   0.00    0.0
2026/01/15 01:39:00.000   30.531706528  114.357137167    44.9942   6  12   0.1120   0.2016   0.1298  -0.0649   0.1049  -0.0642   0.00    0.0
2026/01/15 01:39:30.000   30.531706313  114.357136904    44.9879   6  12   0.1117   0.2012   0.1297  -0.0647   0.1047  -0.0642   0.00    0.0
2026/01/15 01:40:00.000   30.531706185  114.357136667    44.9829   6  11   0.1115   0.2008   0.1296  -0.0646   0.1045  -0.0642   0.00    0.0
2026/01/15 01:40:30.000   30.531705909  114.357136336    44.9741   6  13   0.1112   0.2004   0.1295  -0.0646   0.1043  -0.0641   0.00    0.0
2026/01/15 01:41:00.000   30.531705705  114.357136103    44.9686   6  12   0.1109   0.2000   0.1294  -0.0645   0.1040  -0.0641   0.00    0.0
2026/01/15 01:41:30.000   30.531705429  114.357135761    44.9598   6  13   0.1106   0.1996   0.1293  -0.0644   0.1038  -0.0641   0.00    0.0
2026/01/15 01:42:00.000   30.531705161  114.357135432    44.9511   6  13   0.1103   0.1992   0.1293  -0.0643   0.1036  -0.0641   0.00    0.0
2026/01/15 01:42:30.000   30.531704887  114.357135129    44.9433   6  13   0.1100   0.1988   0.1292  -0.0643   0.1034  -0.0641   0.00    0.0
2026/01/15 01:43:00.000   30.531704702  114.357134885    44.9373   6  12   0.1097   0.1984   0.1291  -0.0642   0.1031  -0.0641   0.00    0.0
2026/01/15 01:43:30.000   30.531704578  114.357134645    44.9318   6  11   0.1095   0.1980   0.1290  -0.0641   0.1029  -0.0641   0.00    0.0
2026/01/15 01:44:00.000   30.531704307  114.357134352    44.9244   6  13   0.1092   0.1976   0.1289  -0.0640   0.1027  -0.0641   0.00    0.0
2026/01/15 01:44:30.000   30.531704046  114.357134049    44.9163   6  13   0.1089   0.1972   0.1289  -0.0639   0.1025  -0.0641   0.00    0.0
2026/01/15 01:45:00.000   30.531703797  114.357134087    44.9867   6  12   0.1087   0.1968   0.1274  -0.0638   0.1017  -0.0639   0.00    0.0
2026/01/15 01:45:30.000   30.531703608  114.357133861    44.9819   6  12   0.1084   0.1964   0.1273  -0.0637   0.1015  -0.0639   0.00    0.0
2026/01/15 01:46:00.000   30.531703429  114.357133660    44.9773   6  12   0.1082   0.1960   0.1272  -0.0636   0.1013  -0.0638   0.00    0.0
2026/01/15 01:46:30.000   30.531703241  114.357133472    44.9727   6  12   0.1079   0.1956   0.1271  -0.0635   0.1011  -0.0638   0.00    0.0
2026/01/15 01:47:00.000   30.531703069  114.357133270    44.9682   6  12   0.1077   0.1953   0.1271  -0.0634   0.1009  -0.0638   0.00    0.0
2026/01/15 01:47:30.000   30.531702902  114.357133066    44.9634   6  12   0.1075   0.1949   0.1270  -0.0633   0.1007  -0.0638   0.00    0.0
2026/01/15 01:48:00.000   30.531702723  114.357132843    44.9582   6  12   0.1072   0.1946   0.1269  -0.0633   0.1005  -0.0638   0.00    0.0
2026/01/15 01:48:30.000   30.531702467  114.357132984    45.0470   6  12   0.1070   0.1941   0.1255  -0.0631   0.0997  -0.0636   0.00    0.0
2026/01/15 01:49:00.000   30.531702293  114.357132772    45.0424   6  12   0.1068   0.1937   0.1255  -0.0630   0.0995  -0.0636   0.00    0.0
2026/01/15 01:49:30.000   30.531702121  114.357132550    45.0371   6  12   0.1066   0.1934   0.1254  -0.0629   0.0993  -0.0636   0.00    0.0
2026/01/15 01:50:00.000   30.531701880  114.357132656    45.1151   6  12   0.1063   0.1929   0.1241  -0.0628   0.0985  -0.0634   0.00    0.0
2026/01/15 01:50:30.000   30.531701706  114.357132489    45.1111   6  12   0.1061   0.1926   0.1240  -0.0627   0.0983  -0.0634   0.00    0.0
2026/01/15 01:51:00.000   30.531701539  114.357132310    45.1073   6  12   0.1059   0.1922   0.1239  -0.0626   0.0982  -0.0634   0.00    0.0
2026/01/15 01:51:30.000   30.531701375  114.357132143    45.1037   6  12   0.1057   0.1919   0.1239  -0.0625   0.0980  -0.0634   0.00    0.0
2026/01/15 01:52:00.000   30.531701214  114.357131942    45.0992   6  12   0.1055   0.1915   0.1238  -0.0625   0.0978  -0.0633   0.00    0.0
2026/01/15 01:52:30.000   30.531701052  114.357131744    45.0948   6  12   0.1053   0.1912   0.1237  -0.0624   0.0976  -0.0633   0.00    0.0
2026/01/15 01:53:00.000   30.531700887  114.357131568    45.0908   6  12   0.1051   0.1909   0.1237  -0.0623   0.0974  -0.0633   0.00    0.0
2026/01/15 01:53:30.000   30.531700730  114.357131391    45.0869   6  11   0.1049   0.1905   0.1236  -0.0622   0.0973  -0.0633   0.00    0.0
2026/01/15 01:54:00.000   30.531700579  114.357131205    45.0826   6  11   0.1047   0.1902   0.1236  -0.0621   0.0971  -0.0633   0.00    0.0
2026/01/15 01:54:30.000   30.531700418  114.357131047    45.0791   6  11   0.1045   0.1899   0.1235  -0.0621   0.0969  -0.0633   0.00    0.0
2026/01/15 01:55:00.000   30.531700204  114.357131178    45.1398   6  12   0.1043   0.1894   0.1223  -0.0619   0.0961  -0.0631   0.00    0.0
2026/01/15 01:55:30.000   30.531700005  114.357131218    45.1784   6  12   0.1041   0.1890   0.1211  -0.0617   0.0954  -0.0629   0.00    0.0
2026/01/15 01:56:00.000   30.531699843  114.357131083    45.1758   6  12   0.1039   0.1886   0.1210  -0.0616   0.0952  -0.0629   0.00    0.0
2026/01/15 01:56:30.000   30.531699678  114.357130965    45.1736   6  12   0.1037   0.1883   0.1210  -0.0615   0.0951  -0.0629   0.00    0.0
2026/01/15 01:57:00.000   30.531699512  114.357130831    45.1708   6  12   0.1035   0.1880   0.1209  -0.0614   0.0949  -0.0629   0.00    0.0
2026/01/15 01:57:30.000   30.531699358  114.357130697    45.1681   6  12   0.1033   0.1876   0.1209  -0.0613   0.0947  -0.0629   0.00    0.0
2026/01/15 01:58:00.000   30.531699209  114.357130534    45.1646   6  12   0.1031   0.1873   0.1208  -0.0612   0.0946  -0.0629   0.00    0.0
2026/01/15 01:58:30.000   30.531699059  114.357130402    45.1618   6  12   0.1030   0.1870   0.1208  -0.0611   0.0944  -0.0629   0.00    0.0
2026/01/15 01:59:00.000   30.531698905  114.357130283    45.1594   6  12   0.1028   0.1867   0.1207  -0.0610   0.0942  -0.0629   0.00    0.0
2026/01/15 01:59:30.000   30.531698756  114.357130154    45.1566   6  12   0.1026   0.1863   0.1207  -0.0609   0.0941  -0.0628   0.00    0.0
2026/01/15 02:00:00.000   30.531698615  114.357130042    45.1540   6  12   0.1024   0.1860   0.1206  -0.0609   0.0939  -0.0628   0.00    0.0
2026/01/15 02:00:30.000   30.531698475  114.357129916    45.1512   6  12   0.1023   0.1857   0.1205  -0.0608   0.0938  -0.0628   0.00    0.0
2026/01/15 02:01:00.000   30.531698331  114.357129804    45.1486   6  12   0.1021   0.1854   0.1205  -0.0607   0.0936  -0.0628   0.00    0.0
2026/01/15 02:01:30.000   30.531698189  114.357129703    45.1461   6  12   0.1019   0.1851   0.1204  -0.0606   0.0934  -0.0628   0.00    0.0
2026/01/15 02:02:00.000   30.531698043  114.357129604    45.1438   6  12   0.1018   0.1848   0.1204  -0.0605   0.0933  -0.0628   0.00    0.0
2026/01/15 02:02:30.000   30.531697906  114.357129496    45.1414   6  12   0.1016   0.1844   0.1203  -0.0604   0.0931  -0.0628   0.00    0.0
2026/01/15 02:03:00.000   30.531697761  114.357129404    45.1393   6  12   0.1015   0.1841   0.1203  -0.0603   0.0930  -0.0628   0.00    0.0
2026/01/15 02:03:30.000   30.531697624  114.357129311    45.1372   6  12   0.1013   0.1838   0.1202  -0.0602   0.0928  -0.0628   0.00    0.0
2026/01/15 02:04:00.000   30.531697485  114.357129210    45.1348   6  12   0.1011   0.1835   0.1202  -0.0601   0.0927  -0.0628   0.00    0.0
2026/01/15 02:04:30.000   30.531697342  114.357129116    45.1325   6  12   0.1010   0.1832   0.1201  -0.0600   0.0925  -0.0628   0.00    0.0
2026/01/15 02:05:00.000   30.531697195  114.357129018    45.1299   6  12   0.1008   0.1829   0.1201  -0.0599   0.0924  -0.0628   0.00    0.0
2026/01/15 02:05:30.000   30.531697055  114.357128917    45.1273   6  12   0.1007   0.1826   0.1201  -0.0598   0.0922  -0.0627   0.00    0.0
2026/01/15 02:06:00.000   30.531696927  114.357128802    45.1244   6  12   0.1005   0.1823   0.1200  -0.0597   0.0921  -0.0627   0.00    0.0
2026/01/15 02:06:30.000   30.531696794  114.357128704    45.1218   6  12   0.1004   0.1820   0.1200  -0.0596   0.0919  -0.0627   0.00    0.0
2026/01/15 02:07:00.000   30.531696660  114.357128608    45.1191   6  11   0.1002   0.1817   0.1199  -0.0596   0.0918  -0.0627   0.00    0.0
2026/01/15 02:07:30.000   30.531696525  114.357128530    45.1166   6  11   0.1001   0.1814   0.1199  -0.0595   0.0916  -0.0627   0.00    0.0
2026/01/15 02:08:00.000   30.531696395  114.357128435    45.1140   6  11   0.0999   0.1812   0.1198  -0.0594   0.0915  -0.0627   0.00    0.0
2026/01/15 02:08:30.000   30.531696271  114.357128332    45.1108   6  11   0.0998   0.1809   0.1198  -0.0593   0.0913  -0.0627   0.00    0.0
2026/01/15 02:09:00.000   30.531696145  114.357128234    45.1077   6  11   0.0997   0.1806   0.1197  -0.0592   0.0912  -0.0627   0.00    0.0
2026/01/15 02:09:30.000   30.531695933  114.357128678    45.2160   6  11   0.0995   0.1802   0.1187  -0.0590   0.0904  -0.0625   0.00    0.0
2026/01/15 02:10:00.000   30.531695818  114.357128579    45.2128   6  11   0.0994   0.1799   0.1186  -0.0589   0.0903  -0.0625   0.00    0.0
2026/01/15 02:10:30.000   30.531695702  114.357128498    45.2103   6  11   0.0993   0.1796   0.1186  -0.0589   0.0902  -0.0625   0.00    0.0
2026/01/15 02:11:00.000   30.531695491  114.357128934    45.3089   6  11   0.0991   0.1792   0.1176  -0.0587   0.0894  -0.0623   0.00    0.0
2026/01/15 02:11:30.000   30.531695367  114.357128854    45.3064   6  11   0.0990   0.1789   0.1175  -0.0586   0.0893  -0.0623   0.00    0.0
2026/01/15 02:12:00.000   30.531695247  114.357128754    45.3033   6  11   0.0989   0.1786   0.1175  -0.0585   0.0891  -0.0623   0.00    0.0
2026/01/15 02:12:30.000   30.531695134  114.357128667    45.3003   6  11   0.0987   0.1783   0.1174  -0.0584   0.0890  -0.0623   0.00    0.0
2026/01/15 02:13:00.000   30.531695025  114.357128578    45.2973   6  11   0.0986   0.1781   0.1174  -0.0583   0.0889  -0.0623   0.00    0.0
2026/01/15 02:13:30.000   30.531694917  114.357128491    45.2943   6  11   0.0985   0.1778   0.1174  -0.0582   0.0887  -0.0623   0.00    0.0
2026/01/15 02:14:00.000   30.531694798  114.357128404    45.2916   6  11   0.0983   0.1775   0.1173  -0.0582   0.0886  -0.0622   0.00    0.0
2026/01/15 02:14:30.000   30.531694590  114.357128912    45.4063   6  11   0.0982   0.1771   0.1164  -0.0580   0.0879  -0.0621   0.00    0.0
2026/01/15 02:15:00.000   30.531694485  114.357128824    45.4034   6  11   0.0981   0.1768   0.1163  -0.0579   0.0877  -0.0621   0.00    0.0
2026/01/15 02:15:30.000   30.531694377  114.357128739    45.4007   6  11   0.0980   0.1766   0.1163  -0.0578   0.0876  -0.0621   0.00    0.0
2026/01/15 02:16:00.000   30.531694261  114.357128672    45.3982   6  11   0.0978   0.1763   0.1162  -0.0577   0.0875  -0.0620   0.00    0.0
2026/01/15 02:16:30.000   30.531694154  114.357128600    45.3958   6  11   0.0977   0.1761   0.1162  -0.0576   0.0874  -0.0620   0.00    0.0
2026/01/15 02:17:00.000   30.531694051  114.357128531    45.3933   6  11   0.0976   0.1758   0.1162  -0.0575   0.0872  -0.0620   0.00    0.0
2026/01/15 02:17:30.000   30.531693951  114.357128462    45.3907   6  11   0.0975   0.1755   0.1161  -0.0574   0.0871  -0.0620   0.00    0.0
2026/01/15 02:18:00.000   30.531693853  114.357128381    45.3879   6  11   0.0974   0.1753   0.1161  -0.0573   0.0870  -0.0620   0.00    0.0
2026/01/15 02:18:30.000   30.531693750  114.357128320    45.3856   6  11   0.0973   0.1750   0.1160  -0.0573   0.0869  -0.0620   0.00    0.0
2026/01/15 02:19:00.000   30.531693646  114.357128255    45.3831   6  11   0.0971   0.1748   0.1160  -0.0572   0.0867  -0.0620   0.00    0.0
2026/01/15 02:19:30.000   30.531693551  114.357128192    45.3805   6  11   0.0970   0.1745   0.1160  -0.0571   0.0866  -0.0619   0.00    0.0
2026/01/15 02:20:00.000   30.531693453  114.357128136    45.3780   6  11   0.0969   0.1743   0.1159  -0.0570   0.0865  -0.0619   0.00    0.0
2026/01/15 02:20:30.000   30.531693265  114.357128601    45.4750   6  11   0.0968   0.1739   0.1150  -0.0568   0.0858  -0.0618   0.00    0.0
2026/01/15 02:21:00.000   30.531693170  114.357128520    45.4719   6  11   0.0967   0.1736   0.1150  -0.0567   0.0856  -0.0617   0.00    0.0
2026/01/15 02:21:30.000   30.531693073  114.357128459    45.4692   6  11   0.0966   0.1734   0.1149  -0.0566   0.0855  -0.0617   0.00    0.0
2026/01/15 02:22:00.000   30.531692985  114.357128404    45.4664   6  11   0.0965   0.1731   0.1149  -0.0565   0.0854  -0.0617   0.00    0.0
2026/01/15 02:22:30.000   30.531692900  114.357128346    45.4638   6  11   0.0963   0.1729   0.1148  -0.0564   0.0853  -0.0617   0.00    0.0
2026/01/15 02:23:00.000   30.531692812  114.357128268    45.4608   6  11   0.0962   0.1726   0.1148  -0.0564   0.0852  -0.0617   0.00    0.0
2026/01/15 02:23:30.000   30.531692730  114.357128194    45.4576   6  11   0.0961   0.1724   0.1148  -0.0563   0.0851  -0.0617   0.00    0.0
2026/01/15 02:24:00.000   30.531692563  114.357128601    45.5434   6  11   0.0960   0.1720   0.1139  -0.0561   0.0843  -0.0615   0.00    0.0
2026/01/15 02:24:30.000   30.531692479  114.357128526    45.5406   6  11   0.0959   0.1717   0.1138  -0.0560   0.0842  -0.0615   0.00    0.0
2026/01/15 02:25:00.000   30.531692394  114.357128471    45.5379   6  11   0.0958   0.1715   0.1138  -0.0559   0.0841  -0.0615   0.00    0.0
2026/01/15 02:25:30.000   30.531692308  114.357128412    45.5350   6  11   0.0957   0.1713   0.1138  -0.0558   0.0840  -0.0614   0.00    0.0
2026/01/15 02:26:00.000   30.531692224  114.357128353    45.5321   6  11   0.0956   0.1710   0.1137  -0.0557   0.0839  -0.0614   0.00    0.0
2026/01/15 02:26:30.000   30.531692144  114.357128291    45.5292   6  11   0.0955   0.1708   0.1137  -0.0556   0.0838  -0.0614   0.00    0.0
2026/01/15 02:27:00.000   30.531692065  114.357128232    45.5262   6  11   0.0954   0.1706   0.1137  -0.0555   0.0837  -0.0614   0.00    0.0
2026/01/15 02:27:30.000   30.531691991  114.357128160    45.5231   6  11   0.0953   0.1703   0.1136  -0.0554   0.0835  -0.0614   0.00    0.0
2026/01/15 02:28:00.000   30.531691916  114.357128084    45.5199   6  11   0.0952   0.1701   0.1136  -0.0553   0.0834  -0.0614   0.00    0.0
2026/01/15 02:28:30.000   30.531691758  114.357128520    45.6075   6  11   0.0951   0.1697   0.1127  -0.0552   0.0827  -0.0612   0.00    0.0
2026/01/15 02:29:00.000   30.531691692  114.357128444    45.6045   6  11   0.0950   0.1695   0.1127  -0.0551   0.0826  -0.0612   0.00    0.0
2026/01/15 02:29:30.000   30.531691534  114.357128911    45.6973   6  11   0.0949   0.1691   0.1119  -0.0549   0.0819  -0.0610   0.00    0.0
2026/01/15 02:30:00.000   30.531691364  114.357129432    45.7989   6  11   0.0948   0.1687   0.1110  -0.0547   0.0812  -0.0608   0.00    0.0
2026/01/15 02:30:30.000   30.531691301  114.357129351    45.7959   6  11   0.0947   0.1685   0.1110  -0.0546   0.0811  -0.0608   0.00    0.0
2026/01/15 02:31:00.000   30.531691233  114.357129271    45.7930   6  11   0.0946   0.1683   0.1110  -0.0545   0.0810  -0.0608   0.00    0.0
2026/01/15 02:31:30.000   30.531691171  114.357129175    45.7891   6  12   0.0945   0.1680   0.1109  -0.0544   0.0809  -0.0607   0.00    0.0
2026/01/15 02:32:00.000   30.531691027  114.357129557    45.8681   6  12   0.0944   0.1676   0.1101  -0.0542   0.0802  -0.0606   0.00    0.0
2026/01/15 02:32:30.000   30.531690966  114.357129466    45.8642   6  12   0.0943   0.1674   0.1101  -0.0541   0.0801  -0.0605   0.00    0.0
2026/01/15 02:33:00.000   30.531690903  114.357129378    45.8604   6  12   0.0942   0.1671   0.1101  -0.0540   0.0799  -0.0605   0.00    0.0
2026/01/15 02:33:30.000   30.531690842  114.357129300    45.8568   6  12   0.0941   0.1669   0.1100  -0.0539   0.0798  -0.0605   0.00    0.0
2026/01/15 02:34:00.000   30.531690783  114.357129222    45.8534   6  12   0.0940   0.1666   0.1100  -0.0538   0.0797  -0.0605   0.00    0.0
2026/01/15 02:34:30.000   30.531690730  114.357129124    45.8492   6  12   0.0939   0.1664   0.1099  -0.0537   0.0796  -0.0604   0.00    0.0
2026/01/15 02:35:00.000   30.531690680  114.357129032    45.8452   6  12   0.0938   0.1662   0.1099  -0.0536   0.0794  -0.0604   0.00    0.0
2026/01/15 02:35:30.000   30.531690542  114.357129405    45.9228   6  12   0.0937   0.1658   0.1091  -0.0534   0.0788  -0.0602   0.00    0.0
2026/01/15 02:36:00.000   30.531690491  114.357129306    45.9187   6  12   0.0936   0.1655   0.1091  -0.0533   0.0786  -0.0602   0.00    0.0
2026/01/15 02:36:30.000   30.531690442  114.357129209    45.9145   6  12   0.0935   0.1653   0.1091  -0.0532   0.0785  -0.0602   0.00    0.0
2026/01/15 02:37:00.000   30.531690394  114.357129106    45.9099   6  12   0.0934   0.1651   0.1090  -0.0531   0.0784  -0.0602   0.00    0.0
2026/01/15 02:37:30.000   30.531690347  114.357129007    45.9055   6  12   0.0933   0.1648   0.1090  -0.0530   0.0783  -0.0601   0.00    0.0
2026/01/15 02:38:00.000   30.531690294  114.357128912    45.9013   6  12   0.0932   0.1646   0.1089  -0.0529   0.0782  -0.0601   0.00    0.0
2026/01/15 02:38:30.000   30.531690249  114.357128817    45.8969   6  12   0.0932   0.1643   0.1089  -0.0528   0.0780  -0.0601   0.00    0.0
2026/01/15 02:39:00.000   30.531690201  114.357128721    45.8927   6  12   0.0931   0.1641   0.1089  -0.0527   0.0779  -0.0601   0.00    0.0
2026/01/15 02:39:30.000   30.531690157  114.357128630    45.8887   6  12   0.0930   0.1639   0.1088  -0.0526   0.0778  -0.0600   0.00    0.0
2026/01/15 02:40:00.000   30.531690114  114.357128541    45.8845   6  12   0.0929   0.1636   0.1088  -0.0525   0.0777  -0.0600   0.00    0.0
2026/01/15 02:40:30.000   30.531690074  114.357128454    45.8802   6  12   0.0928   0.1634   0.1088  -0.0524   0.0776  -0.0600   0.00    0.0
2026/01/15 02:41:00.000   30.531690037  114.357128368    45.8760   6  12   0.0927   0.1632   0.1087  -0.0523   0.0775  -0.0599   0.00    0.0
2026/01/15 02:41:30.000   30.531689996  114.357128291    45.8719   6  12   0.0926   0.1630   0.1087  -0.0522   0.0773  -0.0599   0.00    0.0
2026/01/15 02:42:00.000   30.531689959  114.357128217    45.8676   6  12   0.0925   0.1627   0.1086  -0.0521   0.0772  -0.0599   0.00    0.0
2026/01/15 02:42:30.000   30.531689919  114.357128125    45.8630   6  12   0.0925   0.1625   0.1086  -0.0520   0.0771  -0.0599   0.00    0.0
2026/01/15 02:43:00.000   30.531689884  114.357128029    45.8582   6  12   0.0924   0.1623   0.1086  -0.0519   0.0770  -0.0598   0.00    0.0
2026/01/15 02:43:30.000   30.531689871  114.357127951    45.8538   6  11   0.0923   0.1621   0.1085  -0.0518   0.0769  -0.0598   0.00    0.0
2026/01/15 02:44:00.000   30.531689836  114.357127857    45.8492   6  12   0.0922   0.1618   0.1085  -0.0516   0.0768  -0.0598   0.00    0.0
2026/01/15 02:44:30.000   30.531689756  114.357128180    45.9134   6  11   0.0921   0.1615   0.1077  -0.0514   0.0761  -0.0596   0.00    0.0
2026/01/15 02:45:00.000   30.531689749  114.357128096    45.9087   6  11   0.0920   0.1612   0.1077  -0.0513   0.0760  -0.0596   0.00    0.0
2026/01/15 02:45:30.000   30.531689737  114.357128007    45.9042   6  11   0.0920   0.1610   0.1077  -0.0512   0.0759  -0.0595   0.00    0.0
2026/01/15 02:46:00.000   30.531689728  114.357127910    45.8992   6  11   0.0919   0.1608   0.1076  -0.0511   0.0758  -0.0595   0.00    0.0
2026/01/15 02:46:30.000   30.531689721  114.357127813    45.8944   6  11   0.0918   0.1606   0.1076  -0.0510   0.0756  -0.0595   0.00    0.0
2026/01/15 02:47:00.000   30.531689715  114.357127735    45.8899   6  11   0.0917   0.1604   0.1076  -0.0509   0.0755  -0.0594   0.00    0.0
2026/01/15 02:47:30.000   30.531689707  114.357127643    45.8852   6  11   0.0917   0.1602   0.1075  -0.0508   0.0754  -0.0594   0.00    0.0
2026/01/15 02:48:00.000   30.531689695  114.357127558    45.8806   6  11   0.0916   0.1599   0.1075  -0.0507   0.0753  -0.0594   0.00    0.0
2026/01/15 02:48:30.000   30.531689687  114.357127482    45.8759   6  11   0.0915   0.1597   0.1075  -0.0506   0.0752  -0.0593   0.00    0.0
2026/01/15 02:49:00.000   30.531689605  114.357127826    45.9411   6  11   0.0914   0.1594   0.1067  -0.0504   0.0745  -0.0591   0.00    0.0
2026/01/15 02:49:30.000   30.531689527  114.357128149    46.0041   6  11   0.0914   0.1590   0.1060  -0.0502   0.0739  -0.0590   0.00    0.0
2026/01/15 02:50:00.000   30.531689520  114.357128066    45.9997   6  11   0.0913   0.1588   0.1060  -0.0501   0.0738  -0.0589   0.00    0.0
2026/01/15 02:50:30.000   30.531689510  114.357128005    45.9956   6  11   0.0912   0.1586   0.1059  -0.0500   0.0736  -0.0589   0.00    0.0
2026/01/15 02:51:00.000   30.531689512  114.357127934    45.9908   6  10   0.0911   0.1584   0.1059  -0.0498   0.0736  -0.0589   0.00    0.0
2026/01/15 02:51:30.000   30.531689515  114.357127861    45.9860   6  10   0.0911   0.1582   0.1059  -0.0497   0.0735  -0.0588   0.00    0.0
2026/01/15 02:52:00.000   30.531689523  114.357127786    45.9810   6  10   0.0910   0.1580   0.1059  -0.0496   0.0734  -0.0588   0.00    0.0
2026/01/15 02:52:30.000   30.531689533  114.357127706    45.9760   6  10   0.0909   0.1578   0.1058  -0.0495   0.0733  -0.0587   0.00    0.0
2026/01/15 02:53:00.000   30.531689539  114.357127623    45.9710   6  10   0.0908   0.1576   0.1058  -0.0494   0.0732  -0.0587   0.00    0.0
2026/01/15 02:53:30.000   30.531689549  114.357127525    45.9657   6  10   0.0908   0.1574   0.1058  -0.0493   0.0731  -0.0587   0.00    0.0
2026/01/15 02:54:00.000   30.531689556  114.357127440    45.9607   6  10   0.0907   0.1572   0.1057  -0.0492   0.0730  -0.0586   0.00    0.0
2026/01/15 02:54:30.000   30.531689564  114.357127367    45.9556   6  10   0.0906   0.1570   0.1057  -0.0490   0.0729  -0.0586   0.00    0.0
2026/01/15 02:55:00.000   30.531689570  114.357127283    45.9505   6  10   0.0906   0.1568   0.1057  -0.0489   0.0728  -0.0586   0.00    0.0
2026/01/15 02:55:30.000   30.531689547  114.357127404    45.9483   6  11   0.0905   0.1566   0.1057  -0.0488   0.0727  -0.0585   0.00    0.0
2026/01/15 02:56:00.000   30.531689527  114.357127519    45.9462   6  11   0.0904   0.1564   0.1056  -0.0487   0.0726  -0.0585   0.00    0.0
2026/01/15 02:56:30.000   30.531689509  114.357127638    45.9438   6  11   0.0903   0.1561   0.1056  -0.0485   0.0725  -0.0584   0.00    0.0
2026/01/15 02:57:00.000   30.531689470  114.357127850    45.9567   6  11   0.0903   0.1557   0.1048  -0.0483   0.0717  -0.0582   0.00    0.0
2026/01/15 02:57:30.000   30.531689454  114.357127963    45.9543   6  11   0.0902   0.1554   0.1048  -0.0481   0.0716  -0.0582   0.00    0.0
2026/01/15 02:58:00.000   30.531689411  114.357128230    45.9739   6  11   0.0901   0.1550   0.1041  -0.0478   0.0709  -0.0580   0.00    0.0
2026/01/15 02:58:30.000   30.531689400  114.357128338    45.9712   6  11   0.0900   0.1548   0.1041  -0.0477   0.0708  -0.0579   0.00    0.0
2026/01/15 02:59:00.000   30.531689282  114.357128430    45.9732   6  12   0.0899   0.1545   0.1040  -0.0476   0.0707  -0.0579   0.00    0.0
2026/01/15 02:59:30.000   30.531689270  114.357128533    45.9705   6  11   0.0899   0.1543   0.1040  -0.0475   0.0706  -0.0578   0.00    0.0
2026/01/15 03:00:00.000   30.531689156  114.357128611    45.9719   6  12   0.0898   0.1541   0.1040  -0.0473   0.0705  -0.0578   0.00    0.0
2026/01/15 03:00:30.000   30.531689107  114.357128924    46.0015   6  11   0.0897   0.1537   0.1032  -0.0471   0.0697  -0.0576   0.00    0.0
2026/01/15 03:01:00.000   30.531689100  114.357129030    45.9988   6  11   0.0896   0.1534   0.1032  -0.0469   0.0696  -0.0575   0.00    0.0
2026/01/15 03:01:30.000   30.531689095  114.357129127    45.9957   6  11   0.0895   0.1532   0.1032  -0.0468   0.0695  -0.0575   0.00    0.0
2026/01/15 03:02:00.000   30.531689114  114.357129051    45.9904   6  10   0.0895   0.1530   0.1032  -0.0467   0.0694  -0.0574   0.00    0.0
2026/01/15 03:02:30.000   30.531689043  114.357129524    46.0432   6  11   0.0894   0.1526   0.1025  -0.0465   0.0687  -0.0572   0.00    0.0
2026/01/15 03:03:00.000   30.531689044  114.357129615    46.0401   6  11   0.0893   0.1524   0.1024  -0.0463   0.0686  -0.0572   0.00    0.0
2026/01/15 03:03:30.000   30.531689048  114.357129712    46.0371   6  11   0.0892   0.1522   0.1024  -0.0462   0.0685  -0.0571   0.00    0.0
2026/01/15 03:04:00.000   30.531689052  114.357129813    46.0342   6  11   0.0892   0.1519   0.1024  -0.0461   0.0684  -0.0571   0.00    0.0
2026/01/15 03:04:30.000   30.531689058  114.357129914    46.0312   6  11   0.0891   0.1517   0.1023  -0.0460   0.0683  -0.0571   0.00    0.0
2026/01/15 03:05:00.000   30.531689066  114.357130004    46.0278   6  11   0.0890   0.1515   0.1023  -0.0458   0.0682  -0.0570   0.00    0.0
2026/01/15 03:05:30.000   30.531689033  114.357130204    46.0682   6  10   0.0889   0.1512   0.1016  -0.0456   0.0676  -0.0568   0.00    0.0
2026/01/15 03:06:00.000   30.531689037  114.357130302    46.0650   6  11   0.0889   0.1510   0.1016  -0.0455   0.0675  -0.0568   0.00    0.0
2026/01/15 03:06:30.000   30.531688980  114.357130728    46.1098   6  11   0.0888   0.1506   0.1009  -0.0452   0.0668  -0.0566   0.00    0.0
2026/01/15 03:07:00.000   30.531688853  114.357130837    46.1119   6  13   0.0887   0.1503   0.1009  -0.0451   0.0667  -0.0565   0.00    0.0
2026/01/15 03:07:30.000   30.531688859  114.357130927    46.1088   6  11   0.0886   0.1501   0.1009  -0.0450   0.0666  -0.0565   0.00    0.0
2026/01/15 03:08:00.000   30.531688884  114.357130846    46.1036   6  10   0.0886   0.1499   0.1009  -0.0449   0.0665  -0.0565   0.00    0.0
2026/01/15 03:08:30.000   30.531688895  114.357130936    46.1000   6  11   0.0885   0.1497   0.1008  -0.0448   0.0664  -0.0564   0.00    0.0
2026/01/15 03:09:00.000   30.531688868  114.357131074    46.0976   6  12   0.0884   0.1495   0.1008  -0.0446   0.0663  -0.0564   0.00    0.0
2026/01/15 03:09:30.000   30.531688838  114.357131223    46.0955   6  12   0.0883   0.1493   0.1008  -0.0445   0.0662  -0.0563   0.00    0.0
2026/01/15 03:10:00.000   30.531688854  114.357131305    46.0918   6  11   0.0883   0.1491   0.1007  -0.0444   0.0661  -0.0563   0.00    0.0
2026/01/15 03:10:30.000   30.531688754  114.357131806    46.1441   6  12   0.0882   0.1487   0.1000  -0.0441   0.0654  -0.0561   0.00    0.0
2026/01/15 03:11:00.000   30.531688734  114.357131938    46.1418   6  12   0.0881   0.1485   0.1000  -0.0440   0.0653  -0.0560   0.00    0.0
2026/01/15 03:11:30.000   30.531688706  114.357132075    46.1393   6  13   0.0880   0.1482   0.1000  -0.0438   0.0652  -0.0560   0.00    0.0
2026/01/15 03:12:00.000   30.531688677  114.357132210    46.1367   6  13   0.0880   0.1480   0.1000  -0.0437   0.0651  -0.0559   0.00    0.0
2026/01/15 03:12:30.000   30.531688655  114.357132355    46.1342   6  13   0.0879   0.1478   0.0999  -0.0436   0.0650  -0.0559   0.00    0.0
2026/01/15 03:13:00.000   30.531688643  114.357132343    46.1301   6  12   0.0878   0.1476   0.0999  -0.0434   0.0649  -0.0558   0.00    0.0
2026/01/15 03:13:30.000   30.531688621  114.357132474    46.1273   6  13   0.0877   0.1474   0.0999  -0.0433   0.0648  -0.0558   0.00    0.0
2026/01/15 03:14:00.000   30.531688596  114.357132602    46.1243   6  13   0.0877   0.1472   0.0999  -0.0432   0.0647  -0.0558   0.00    0.0
2026/01/15 03:14:30.000   30.531688571  114.357132734    46.1217   6  13   0.0876   0.1470   0.0998  -0.0430   0.0646  -0.0557   0.00    0.0
2026/01/15 03:15:00.000   30.531688550  114.357132861    46.1191   6  13   0.0875   0.1468   0.0998  -0.0429   0.0645  -0.0557   0.00    0.0
2026/01/15 03:15:30.000   30.531688441  114.357132952    46.1202   6  14   0.0874   0.1466   0.0998  -0.0428   0.0645  -0.0556   0.00    0.0
2026/01/15 03:16:00.000   30.531688421  114.357133074    46.1172   6  13   0.0873   0.1464   0.0997  -0.0427   0.0644  -0.0556   0.00    0.0
2026/01/15 03:16:30.000   30.531688320  114.357133151    46.1177   6  14   0.0872   0.1462   0.0997  -0.0426   0.0643  -0.0555   0.00    0.0
2026/01/15 03:17:00.000   30.531688216  114.357133223    46.1180   6  14   0.0871   0.1459   0.0997  -0.0425   0.0642  -0.0555   0.00    0.0
2026/01/15 03:17:30.000   30.531688199  114.357133353    46.1149   6  13   0.0870   0.1457   0.0997  -0.0423   0.0641  -0.0554   0.00    0.0
2026/01/15 03:18:00.000   30.531688179  114.357133475    46.1119   6  13   0.0870   0.1455   0.0996  -0.0422   0.0640  -0.0554   0.00    0.0
2026/01/15 03:18:30.000   30.531688162  114.357133596    46.1089   6  13   0.0869   0.1453   0.0996  -0.0421   0.0639  -0.0553   0.00    0.0
2026/01/15 03:19:00.000   30.531688063  114.357133679    46.1093   6  14   0.0868   0.1451   0.0996  -0.0420   0.0639  -0.0553   0.00    0.0
2026/01/15 03:19:30.000   30.531688041  114.357133805    46.1064   6  13   0.0867   0.1449   0.0995  -0.0418   0.0638  -0.0552   0.00    0.0
2026/01/15 03:20:00.000   30.531688026  114.357133922    46.1029   6  13   0.0867   0.1447   0.0995  -0.0417   0.0637  -0.0552   0.00    0.0
2026/01/15 03:20:30.000   30.531688010  114.357134040    46.0993   6  13   0.0866   0.1445   0.0995  -0.0416   0.0636  -0.0552   0.00    0.0
2026/01/15 03:21:00.000   30.531688000  114.357134156    46.0956   6  13   0.0865   0.1443   0.0995  -0.0415   0.0635  -0.0551   0.00    0.0
2026/01/15 03:21:30.000   30.531687992  114.357134270    46.0919   6  13   0.0864   0.1441   0.0994  -0.0413   0.0634  -0.0551   0.00    0.0
2026/01/15 03:22:00.000   30.531687984  114.357134376    46.0881   6  13   0.0864   0.1439   0.0994  -0.0412   0.0633  -0.0550   0.00    0.0
2026/01/15 03:22:30.000   30.531687899  114.357134446    46.0881   6  14   0.0863   0.1437   0.0994  -0.0411   0.0633  -0.0550   0.00    0.0
2026/01/15 03:23:00.000   30.531687892  114.357134573    46.0848   6  13   0.0862   0.1435   0.0994  -0.0410   0.0632  -0.0549   0.00    0.0
2026/01/15 03:23:30.000   30.531687809  114.357134653    46.0846   6  14   0.0861   0.1433   0.0993  -0.0409   0.0631  -0.0549   0.00    0.0
2026/01/15 03:24:00.000   30.531687726  114.357134732    46.0845   6  14   0.0860   0.1431   0.0993  -0.0408   0.0630  -0.0548   0.00    0.0
2026/01/15 03:24:30.000   30.531687607  114.357135252    46.1335   6  14   0.0859   0.1427   0.0985  -0.0405   0.0622  -0.0546   0.00    0.0
2026/01/15 03:25:00.000   30.531687524  114.357135317    46.1331   6  14   0.0858   0.1425   0.0985  -0.0404   0.0621  -0.0545   0.00    0.0
2026/01/15 03:25:30.000   30.531687522  114.357135431    46.1292   6  13   0.0857   0.1423   0.0985  -0.0403   0.0621  -0.0545   0.00    0.0
2026/01/15 03:26:00.000   30.531687518  114.357135553    46.1258   6  13   0.0857   0.1421   0.0985  -0.0402   0.0620  -0.0544   0.00    0.0
2026/01/15 03:26:30.000   30.531687441  114.357135627    46.1255   6  14   0.0856   0.1419   0.0984  -0.0401   0.0619  -0.0544   0.00    0.0
2026/01/15 03:27:00.000   30.531687361  114.357135700    46.1250   6  14   0.0855   0.1417   0.0984  -0.0400   0.0618  -0.0543   0.00    0.0
