% program   : RTKLIB ver.EX 2.5.0
% inp file  : C:\PPP_PROJECT\New_Data\obs\RNXDATA\KIRU00SWE_R_20260150000_01D_30S_MO.rnx
% inp file  : C:\PPP_PROJECT\New_Data\nav\BRDC00IGS_R_20260150000_01D_MN.rnx
% inp file  : C:\PPP_PROJECT\New_Data\DATA_FINAL_ANT_EXTRA\COD0MGXFIN_20260150000_01D_05M_ORB.SP3
% inp file  : C:\PPP_PROJECT\New_Data\DATA_FINAL_ANT_EXTRA\COD0MGXFIN_20260150000_01D_30S_CLK.CLK
% inp file  : .
% inp file  : .
% obs start : 2026/01/15 00:00:00.0 GPST (week2401 345600.0s)
% obs end   : 2026/01/15 23:59:30.0 GPST (week2401 431970.0s)
% pos mode  : PPP Static
% freqs     : L1+L2/E5b
% solution  : Forward
% elev mask : 15.0 deg
% dynamics  : on
% tidecorr  :
% ionos opt : Iono-Free LC
% tropo opt : Saastamoinen
% ephemeris : Precise
% navi sys  : GPS Galileo BDS
% antenna1  : SEPCHOKE_B3E6   SPKE  ( 0.0000  0.0000  0.0620)
%
% (lat/lon/height=WGS84/ellipsoidal,Q=1:fix,2:float,3:sbas,4:dgps,5:single,6:ppp,ns=# of satellites)
%  GPST                  latitude(deg) longitude(deg)  height(m)   Q  ns   sdn(m)   sde(m)   sdu(m)  sdne(m)  sdeu(m)  sdun(m) age(s)  ratio
2026/01/15 00:00:00.000   67.857347835   20.968477933   392.0471   6   9   2.9458   2.7869   7.0697  -0.7086  -1.2424   2.5553   0.00    0.0
2026/01/15 00:46:30.000   67.857350238   20.968466476   391.9649   6   4   0.3120   0.2698   0.7581  -0.0932  -0.2329   0.3041   0.00    0.0
2026/01/15 00:47:00.000   67.857350274   20.968466533   391.9782   6   9   0.3110   0.2685   0.7556  -0.0936  -0.2321   0.3041   0.00    0.0
2026/01/15 00:47:30.000   67.857350260   20.968466493   391.9781   6   8   0.3099   0.2672   0.7534  -0.0938  -0.2311   0.3042   0.00    0.0
2026/01/15 00:51:00.000   67.857350279   20.968466724   391.9606   6   8   0.3020   0.2585   0.7332  -0.0956  -0.2240   0.2998   0.00    0.0
2026/01/15 00:51:30.000   67.857350318   20.968466781   391.9583   6  15   0.3008   0.2573   0.7291  -0.0956  -0.2225   0.2985   0.00    0.0
2026/01/15 00:52:00.000   67.857350299   20.968466792   391.9569   6   7   0.2996   0.2561   0.7252  -0.0956  -0.2211   0.2972   0.00    0.0
2026/01/15 00:52:30.000   67.857350257   20.968466776   391.9506   6   7   0.2984   0.2549   0.7214  -0.0955  -0.2197   0.2960   0.00    0.0
2026/01/15 00:53:00.000   67.857350226   20.968466837   391.9355   6  13   0.2972   0.2537   0.7173  -0.0955  -0.2182   0.2947   0.00    0.0
2026/01/15 00:53:30.000   67.857350187   20.968466935   391.9241   6   7   0.2960   0.2525   0.7132  -0.0954  -0.2168   0.2933   0.00    0.0
2026/01/15 00:54:00.000   67.857350197   20.968467009   391.9206   6  14   0.2947   0.2514   0.7091  -0.0952  -0.2151   0.2918   0.00    0.0
2026/01/15 00:54:30.000   67.857350194   20.968466951   391.9150   6  13   0.2935   0.2502   0.7049  -0.0950  -0.2134   0.2901   0.00    0.0
2026/01/15 00:55:00.000   67.857350165   20.968466988   391.9086   6  14   0.2922   0.2490   0.7004  -0.0948  -0.2116   0.2883   0.00    0.0
2026/01/15 00:55:30.000   67.857350177   20.968466955   391.9055   6  14   0.2908   0.2478   0.6957  -0.0944  -0.2098   0.2864   0.00    0.0
2026/01/15 00:56:00.000   67.857350176   20.968466914   391.8990   6  15   0.2894   0.2467   0.6906  -0.0941  -0.2078   0.2842   0.00    0.0
2026/01/15 00:56:30.000   67.857350154   20.968466756   391.8897   6  14   0.2880   0.2455   0.6852  -0.0936  -0.2056   0.2819   0.00    0.0
2026/01/15 00:57:00.000   67.857350142   20.968466781   391.8703   6  14   0.2866   0.2443   0.6795  -0.0931  -0.2034   0.2792   0.00    0.0
2026/01/15 00:57:30.000   67.857350131   20.968466800   391.8504   6  13   0.2851   0.2432   0.6737  -0.0924  -0.2009   0.2765   0.00    0.0
2026/01/15 00:58:00.000   67.857350128   20.968466965   391.8272   6  14   0.2836   0.2420   0.6674  -0.0917  -0.1983   0.2735   0.00    0.0
2026/01/15 00:58:30.000   67.857350090   20.968466942   391.8242   6  14   0.2821   0.2409   0.6615  -0.0910  -0.1960   0.2703   0.00    0.0
2026/01/15 00:59:00.000   67.857350097   20.968466968   391.8129   6  14   0.2805   0.2399   0.6555  -0.0902  -0.1936   0.2670   0.00    0.0
2026/01/15 00:59:30.000   67.857350046   20.968466985   391.8029   6  14   0.2788   0.2388   0.6491  -0.0893  -0.1911   0.2634   0.00    0.0
2026/01/15 01:00:00.000   67.857350019   20.968466940   391.7820   6  14   0.2773   0.2377   0.6426  -0.0884  -0.1884   0.2599   0.00    0.0
2026/01/15 01:00:30.000   67.857349993   20.968466960   391.7626   6  14   0.2757   0.2366   0.6359  -0.0875  -0.1857   0.2562   0.00    0.0
2026/01/15 01:01:00.000   67.857349962   20.968467047   391.7454   6  14   0.2740   0.2356   0.6289  -0.0865  -0.1829   0.2523   0.00    0.0
2026/01/15 01:01:30.000   67.857349946   20.968467046   391.7252   6  14   0.2724   0.2345   0.6216  -0.0854  -0.1800   0.2482   0.00    0.0
2026/01/15 01:02:00.000   67.857349929   20.968467058   391.7107   6  14   0.2706   0.2335   0.6141  -0.0843  -0.1770   0.2439   0.00    0.0
2026/01/15 01:02:30.000   67.857349925   20.968467048   391.6978   6  14   0.2689   0.2324   0.6063  -0.0832  -0.1740   0.2394   0.00    0.0
2026/01/15 01:03:00.000   67.857349922   20.968467019   391.6891   6  15   0.2671   0.2313   0.5981  -0.0819  -0.1706   0.2346   0.00    0.0
2026/01/15 01:03:30.000   67.857349938   20.968466930   391.6806   6  15   0.2654   0.2302   0.5897  -0.0806  -0.1672   0.2297   0.00    0.0
2026/01/15 01:04:00.000   67.857349912   20.968466971   391.6677   6  15   0.2636   0.2291   0.5812  -0.0793  -0.1637   0.2247   0.00    0.0
2026/01/15 01:04:30.000   67.857349857   20.968466929   391.6628   6  15   0.2618   0.2281   0.5725  -0.0780  -0.1602   0.2195   0.00    0.0
2026/01/15 01:05:00.000   67.857349848   20.968466935   391.6483   6  15   0.2600   0.2270   0.5637  -0.0767  -0.1567   0.2141   0.00    0.0
2026/01/15 01:05:30.000   67.857349832   20.968466938   391.6352   6  15   0.2581   0.2260   0.5548  -0.0753  -0.1531   0.2087   0.00    0.0
2026/01/15 01:06:00.000   67.857349822   20.968467047   391.6207   6  15   0.2563   0.2249   0.5459  -0.0740  -0.1496   0.2031   0.00    0.0
2026/01/15 01:06:30.000   67.857349792   20.968467048   391.6064   6  15   0.2545   0.2239   0.5369  -0.0727  -0.1460   0.1974   0.00    0.0
2026/01/15 01:07:00.000   67.857349792   20.968466964   391.5961   6  15   0.2527   0.2229   0.5278  -0.0714  -0.1424   0.1916   0.00    0.0
2026/01/15 01:07:30.000   67.857349744   20.968466969   391.5872   6  15   0.2508   0.2219   0.5188  -0.0700  -0.1389   0.1857   0.00    0.0
2026/01/15 01:08:00.000   67.857349705   20.968466928   391.5792   6  15   0.2490   0.2209   0.5097  -0.0687  -0.1353   0.1797   0.00    0.0
2026/01/15 01:08:30.000   67.857349698   20.968466936   391.5677   6  15   0.2472   0.2199   0.5007  -0.0675  -0.1318   0.1736   0.00    0.0
2026/01/15 01:09:00.000   67.857349654   20.968466967   391.5580   6  15   0.2454   0.2190   0.4918  -0.0662  -0.1282   0.1674   0.00    0.0
2026/01/15 01:09:30.000   67.857349605   20.968467011   391.5458   6  15   0.2436   0.2180   0.4829  -0.0650  -0.1247   0.1612   0.00    0.0
2026/01/15 01:10:00.000   67.857349581   20.968467004   391.5391   6  15   0.2418   0.2171   0.4741  -0.0638  -0.1213   0.1549   0.00    0.0
2026/01/15 01:10:30.000   67.857349547   20.968466935   391.5349   6  15   0.2400   0.2161   0.4654  -0.0627  -0.1179   0.1485   0.00    0.0
2026/01/15 01:11:00.000   67.857349508   20.968466964   391.5238   6  15   0.2382   0.2152   0.4568  -0.0616  -0.1145   0.1421   0.00    0.0
2026/01/15 01:11:30.000   67.857349488   20.968466945   391.5128   6  15   0.2364   0.2143   0.4483  -0.0605  -0.1111   0.1356   0.00    0.0
2026/01/15 01:12:00.000   67.857349490   20.968466985   391.4955   6  15   0.2347   0.2134   0.4400  -0.0595  -0.1079   0.1290   0.00    0.0
2026/01/15 01:12:30.000   67.857349432   20.968466978   391.4861   6  15   0.2330   0.2125   0.4320  -0.0587  -0.1049   0.1225   0.00    0.0
2026/01/15 01:13:00.000   67.857349427   20.968467030   391.4708   6  15   0.2313   0.2117   0.4241  -0.0580  -0.1019   0.1160   0.00    0.0
2026/01/15 01:13:30.000   67.857349399   20.968466984   391.4640   6  15   0.2296   0.2108   0.4164  -0.0573  -0.0991   0.1094   0.00    0.0
2026/01/15 01:14:00.000   67.857349402   20.968467036   391.4546   6  15   0.2280   0.2100   0.4088  -0.0566  -0.0963   0.1027   0.00    0.0
2026/01/15 01:14:30.000   67.857349409   20.968466995   391.4457   6  15   0.2263   0.2092   0.4014  -0.0561  -0.0936   0.0959   0.00    0.0
2026/01/15 01:15:00.000   67.857349414   20.968467011   391.4367   6  15   0.2247   0.2084   0.3941  -0.0555  -0.0910   0.0888   0.00    0.0
2026/01/15 01:15:30.000   67.857349410   20.968467004   391.4255   6  15   0.2231   0.2076   0.3870  -0.0550  -0.0884   0.0816   0.00    0.0
2026/01/15 01:16:00.000   67.857349406   20.968467034   391.4189   6  15   0.2215   0.2068   0.3800  -0.0546  -0.0859   0.0740   0.00    0.0
2026/01/15 01:16:30.000   67.857349396   20.968467084   391.4114   6  15   0.2199   0.2060   0.3731  -0.0542  -0.0834   0.0661   0.00    0.0
2026/01/15 01:17:00.000   67.857349406   20.968467063   391.4019   6  15   0.2183   0.2052   0.3664  -0.0539  -0.0810   0.0576   0.00    0.0
2026/01/15 01:17:30.000   67.857349391   20.968467082   391.3923   6  15   0.2167   0.2044   0.3599  -0.0536  -0.0786   0.0481   0.00    0.0
2026/01/15 01:18:00.000   67.857349403   20.968467082   391.3873   6  15   0.2151   0.2036   0.3535  -0.0534  -0.0763   0.0371   0.00    0.0
2026/01/15 01:18:30.000   67.857349400   20.968467142   391.3801   6  15   0.2135   0.2028   0.3472  -0.0532  -0.0741   0.0223   0.00    0.0
2026/01/15 01:19:00.000   67.857349393   20.968467058   391.3743   6  15   0.2120   0.2020   0.3411  -0.0530  -0.0719  -0.0182   0.00    0.0
2026/01/15 01:19:30.000   67.857349413   20.968467118   391.3665   6  15   0.2104   0.2012   0.3351  -0.0529  -0.0698  -0.0333   0.00    0.0
2026/01/15 01:20:00.000   67.857349431   20.968467113   391.3580   6  15   0.2088   0.2005   0.3292  -0.0528  -0.0677  -0.0428   0.00    0.0
2026/01/15 01:20:30.000   67.857349441   20.968467053   391.3492   6  17   0.2072   0.1996   0.3234  -0.0528  -0.0657  -0.0496   0.00    0.0
2026/01/15 01:21:00.000   67.857349448   20.968467085   391.3407   6  17   0.2056   0.1988   0.3178  -0.0528  -0.0638  -0.0551   0.00    0.0
2026/01/15 01:21:30.000   67.857349476   20.968467060   391.3346   6  17   0.2040   0.1980   0.3124  -0.0528  -0.0621  -0.0600   0.00    0.0
2026/01/15 01:22:00.000   67.857349508   20.968466971   391.3269   6  17   0.2024   0.1972   0.3071  -0.0528  -0.0604  -0.0641   0.00    0.0
2026/01/15 01:22:30.000   67.857349550   20.968466892   391.3181   6  17   0.2008   0.1964   0.3020  -0.0529  -0.0588  -0.0677   0.00    0.0
2026/01/15 01:23:00.000   67.857349572   20.968466830   391.3104   6  17   0.1992   0.1955   0.2970  -0.0529  -0.0573  -0.0708   0.00    0.0
2026/01/15 01:23:30.000   67.857349602   20.968466824   391.3030   6  17   0.1976   0.1947   0.2921  -0.0530  -0.0558  -0.0735   0.00    0.0
2026/01/15 01:24:00.000   67.857349643   20.968466732   391.2965   6  17   0.1960   0.1939   0.2872  -0.0531  -0.0544  -0.0759   0.00    0.0
2026/01/15 01:24:30.000   67.857349680   20.968466650   391.2902   6  15   0.1946   0.1931   0.2836  -0.0533  -0.0536  -0.0776   0.00    0.0
2026/01/15 01:25:00.000   67.857349706   20.968466554   391.2881   6   7   0.1935   0.1923   0.2807  -0.0534  -0.0528  -0.0784   0.00    0.0
2026/01/15 01:26:00.000   67.857349701   20.968466385   391.2851   6  14   0.1914   0.1910   0.2756  -0.0538  -0.0509  -0.0799   0.00    0.0
2026/01/15 01:26:30.000   67.857349708   20.968466353   391.2821   6   7   0.1903   0.1902   0.2726  -0.0539  -0.0502  -0.0804   0.00    0.0
2026/01/15 01:27:00.000   67.857349733   20.968466310   391.2783   6  13   0.1888   0.1895   0.2692  -0.0542  -0.0498  -0.0819   0.00    0.0
2026/01/15 01:27:30.000   67.857349764   20.968466330   391.2713   6  14   0.1871   0.1886   0.2644  -0.0545  -0.0483  -0.0834   0.00    0.0
2026/01/15 01:28:00.000   67.857349808   20.968466257   391.2644   6  14   0.1853   0.1878   0.2598  -0.0548  -0.0469  -0.0848   0.00    0.0
2026/01/15 01:28:30.000   67.857349850   20.968466225   391.2564   6  15   0.1836   0.1870   0.2554  -0.0552  -0.0456  -0.0859   0.00    0.0
2026/01/15 01:29:00.000   67.857349869   20.968466154   391.2523   6  16   0.1819   0.1862   0.2511  -0.0555  -0.0443  -0.0869   0.00    0.0
2026/01/15 01:29:30.000   67.857349890   20.968466106   391.2474   6  15   0.1802   0.1854   0.2469  -0.0558  -0.0431  -0.0877   0.00    0.0
2026/01/15 01:30:00.000   67.857349925   20.968466071   391.2410   6  14   0.1785   0.1846   0.2429  -0.0562  -0.0419  -0.0884   0.00    0.0
2026/01/15 01:30:30.000   67.857349984   20.968466017   391.2323   6  15   0.1768   0.1838   0.2389  -0.0565  -0.0407  -0.0889   0.00    0.0
2026/01/15 01:31:00.000   67.857350027   20.968466039   391.2228   6  15   0.1751   0.1830   0.2351  -0.0568  -0.0395  -0.0893   0.00    0.0
2026/01/15 01:31:30.000   67.857350068   20.968465972   391.2171   6  16   0.1734   0.1821   0.2314  -0.0571  -0.0384  -0.0897   0.00    0.0
2026/01/15 01:32:00.000   67.857350097   20.968465922   391.2119   6  15   0.1718   0.1813   0.2277  -0.0575  -0.0374  -0.0899   0.00    0.0
2026/01/15 01:32:30.000   67.857350133   20.968465920   391.2045   6  14   0.1702   0.1805   0.2242  -0.0578  -0.0364  -0.0900   0.00    0.0
2026/01/15 01:33:00.000   67.857350180   20.968465886   391.1964   6  15   0.1685   0.1797   0.2208  -0.0582  -0.0355  -0.0901   0.00    0.0
2026/01/15 01:33:30.000   67.857350230   20.968465837   391.1899   6  15   0.1669   0.1789   0.2174  -0.0585  -0.0346  -0.0900   0.00    0.0
2026/01/15 01:34:00.000   67.857350265   20.968465770   391.1843   6  15   0.1653   0.1781   0.2141  -0.0588  -0.0337  -0.0899   0.00    0.0
2026/01/15 01:34:30.000   67.857350304   20.968465818   391.1780   6  15   0.1637   0.1773   0.2109  -0.0591  -0.0328  -0.0898   0.00    0.0
2026/01/15 01:35:00.000   67.857350328   20.968465757   391.1734   6  15   0.1621   0.1764   0.2078  -0.0594  -0.0320  -0.0896   0.00    0.0
2026/01/15 01:35:30.000   67.857350360   20.968465819   391.1678   6  16   0.1606   0.1756   0.2048  -0.0597  -0.0312  -0.0893   0.00    0.0
2026/01/15 01:36:00.000   67.857350400   20.968465734   391.1625   6  16   0.1590   0.1748   0.2018  -0.0600  -0.0305  -0.0890   0.00    0.0
2026/01/15 01:36:30.000   67.857350408   20.968465715   391.1595   6  16   0.1578   0.1741   0.1991  -0.0609  -0.0287  -0.0892   0.00    0.0
2026/01/15 01:37:00.000   67.857350432   20.968465728   391.1544   6  16   0.1566   0.1734   0.1965  -0.0617  -0.0269  -0.0893   0.00    0.0
2026/01/15 01:37:30.000   67.857350435   20.968465702   391.1524   6  16   0.1555   0.1727   0.1939  -0.0626  -0.0250  -0.0894   0.00    0.0
2026/01/15 01:38:00.000   67.857350441   20.968465755   391.1503   6  16   0.1543   0.1721   0.1913  -0.0634  -0.0230  -0.0895   0.00    0.0
2026/01/15 01:38:30.000   67.857350451   20.968465755   391.1466   6  16   0.1532   0.1714   0.1889  -0.0641  -0.0209  -0.0895   0.00    0.0
2026/01/15 01:39:00.000   67.857350461   20.968465715   391.1432   6  16   0.1520   0.1707   0.1865  -0.0649  -0.0186  -0.0894   0.00    0.0
2026/01/15 01:39:30.000   67.857350479   20.968465656   391.1393   6  16   0.1509   0.1700   0.1841  -0.0656  -0.0161  -0.0894   0.00    0.0
2026/01/15 01:40:00.000   67.857350499   20.968465698   391.1349   6  16   0.1498   0.1693   0.1818  -0.0663  -0.0132  -0.0892   0.00    0.0
2026/01/15 01:40:30.000   67.857350518   20.968465646   391.1317   6  16   0.1487   0.1687   0.1795  -0.0670  -0.0097  -0.0891   0.00    0.0
2026/01/15 01:41:00.000   67.857350518   20.968465652   391.1289   6  16   0.1476   0.1680   0.1772  -0.0677  -0.0038  -0.0889   0.00    0.0
2026/01/15 01:41:30.000   67.857350521   20.968465636   391.1266   6  16   0.1465   0.1673   0.1750  -0.0683   0.0079  -0.0887   0.00    0.0
2026/01/15 01:42:00.000   67.857350545   20.968465646   391.1221   6  16   0.1454   0.1666   0.1729  -0.0690   0.0116  -0.0884   0.00    0.0
2026/01/15 01:42:30.000   67.857350564   20.968465667   391.1185   6  16   0.1443   0.1659   0.1707  -0.0696   0.0143  -0.0881   0.00    0.0
2026/01/15 01:43:00.000   67.857350582   20.968465675   391.1158   6  16   0.1433   0.1653   0.1687  -0.0702   0.0164  -0.0878   0.00    0.0
2026/01/15 01:43:30.000   67.857350594   20.968465720   391.1122   6  16   0.1422   0.1646   0.1666  -0.0707   0.0183  -0.0875   0.00    0.0
2026/01/15 01:44:00.000   67.857350603   20.968465747   391.1092   6  16   0.1411   0.1639   0.1646  -0.0712   0.0199  -0.0871   0.00    0.0
2026/01/15 01:44:30.000   67.857350632   20.968465747   391.1052   6  16   0.1401   0.1632   0.1626  -0.0717   0.0213  -0.0868   0.00    0.0
2026/01/15 01:45:00.000   67.857350657   20.968465728   391.1005   6  16   0.1391   0.1625   0.1607  -0.0722   0.0226  -0.0864   0.00    0.0
2026/01/15 01:45:30.000   67.857350674   20.968465705   391.0969   6  16   0.1380   0.1619   0.1588  -0.0727   0.0238  -0.0860   0.00    0.0
2026/01/15 01:46:00.000   67.857350696   20.968465663   391.0939   6  16   0.1370   0.1612   0.1569  -0.0732   0.0249  -0.0855   0.00    0.0
2026/01/15 01:46:30.000   67.857350713   20.968465627   391.0905   6  16   0.1360   0.1606   0.1551  -0.0736   0.0260  -0.0851   0.00    0.0
2026/01/15 01:47:00.000   67.857350724   20.968465653   391.0869   6  16   0.1350   0.1599   0.1533  -0.0741   0.0270  -0.0847   0.00    0.0
2026/01/15 01:47:30.000   67.857350739   20.968465660   391.0832   6  16   0.1341   0.1593   0.1515  -0.0746   0.0279  -0.0843   0.00    0.0
2026/01/15 01:48:00.000   67.857350751   20.968465662   391.0805   6  16   0.1332   0.1587   0.1498  -0.0751   0.0287  -0.0838   0.00    0.0
2026/01/15 01:48:30.000   67.857350774   20.968465618   391.0764   6  16   0.1323   0.1581   0.1481  -0.0756   0.0295  -0.0834   0.00    0.0
2026/01/15 01:49:00.000   67.857350787   20.968465606   391.0728   6  16   0.1314   0.1575   0.1464  -0.0760   0.0302  -0.0829   0.00    0.0
2026/01/15 01:49:30.000   67.857350797   20.968465619   391.0694   6  17   0.1305   0.1569   0.1447  -0.0764   0.0309  -0.0824   0.00    0.0
2026/01/15 01:50:00.000   67.857350815   20.968465608   391.0661   6  17   0.1296   0.1563   0.1431  -0.0768   0.0315  -0.0819   0.00    0.0
2026/01/15 01:50:30.000   67.857350831   20.968465617   391.0625   6  17   0.1287   0.1557   0.1415  -0.0772   0.0321  -0.0814   0.00    0.0
2026/01/15 01:51:00.000   67.857350853   20.968465601   391.0593   6  17   0.1278   0.1551   0.1399  -0.0776   0.0326  -0.0809   0.00    0.0
2026/01/15 01:51:30.000   67.857350872   20.968465581   391.0562   6  17   0.1269   0.1545   0.1384  -0.0780   0.0331  -0.0804   0.00    0.0
2026/01/15 01:52:00.000   67.857350894   20.968465530   391.0525   6  17   0.1260   0.1540   0.1368  -0.0783   0.0336  -0.0799   0.00    0.0
2026/01/15 01:52:30.000   67.857350902   20.968465506   391.0502   6  17   0.1252   0.1534   0.1353  -0.0786   0.0341  -0.0794   0.00    0.0
2026/01/15 01:53:00.000   67.857350921   20.968465501   391.0466   6  17   0.1244   0.1528   0.1338  -0.0789   0.0345  -0.0789   0.00    0.0
2026/01/15 01:53:30.000   67.857350937   20.968465470   391.0427   6  17   0.1235   0.1522   0.1324  -0.0792   0.0349  -0.0783   0.00    0.0
2026/01/15 01:54:00.000   67.857350958   20.968465464   391.0387   6  17   0.1227   0.1516   0.1309  -0.0795   0.0353  -0.0778   0.00    0.0
2026/01/15 01:54:30.000   67.857350980   20.968465397   391.0344   6  17   0.1219   0.1510   0.1295  -0.0797   0.0356  -0.0773   0.00    0.0
2026/01/15 01:55:00.000   67.857350997   20.968465413   391.0309   6  17   0.1211   0.1504   0.1281  -0.0800   0.0359  -0.0767   0.00    0.0
2026/01/15 01:55:30.000   67.857351015   20.968465386   391.0278   6  17   0.1203   0.1498   0.1267  -0.0802   0.0362  -0.0762   0.00    0.0
2026/01/15 01:56:00.000   67.857351033   20.968465356   391.0246   6  17   0.1195   0.1492   0.1254  -0.0804   0.0365  -0.0757   0.00    0.0
2026/01/15 01:56:30.000   67.857351045   20.968465354   391.0221   6  17   0.1187   0.1486   0.1240  -0.0806   0.0368  -0.0751   0.00    0.0
2026/01/15 01:57:00.000   67.857351068   20.968465328   391.0186   6  17   0.1179   0.1480   0.1227  -0.0808   0.0370  -0.0746   0.00    0.0
2026/01/15 01:57:30.000   67.857351083   20.968465305   391.0149   6  18   0.1171   0.1474   0.1214  -0.0809   0.0372  -0.0741   0.00    0.0
2026/01/15 01:58:00.000   67.857351100   20.968465270   391.0116   6  18   0.1164   0.1468   0.1201  -0.0810   0.0373  -0.0735   0.00    0.0
2026/01/15 01:58:30.000   67.857351116   20.968465237   391.0086   6  18   0.1156   0.1461   0.1189  -0.0811   0.0374  -0.0730   0.00    0.0
2026/01/15 01:59:00.000   67.857351127   20.968465212   391.0054   6  18   0.1148   0.1455   0.1176  -0.0812   0.0375  -0.0724   0.00    0.0
2026/01/15 01:59:30.000   67.857351141   20.968465198   391.0016   6  18   0.1141   0.1449   0.1164  -0.0813   0.0376  -0.0719   0.00    0.0
2026/01/15 02:00:00.000   67.857351153   20.968465176   390.9989   6  18   0.1134   0.1442   0.1152  -0.0813   0.0377  -0.0713   0.00    0.0
2026/01/15 02:00:30.000   67.857351186   20.968465093   390.9949   6  18   0.1126   0.1436   0.1140  -0.0814   0.0378  -0.0708   0.00    0.0
2026/01/15 02:01:00.000   67.857351214   20.968465024   390.9911   6  18   0.1119   0.1430   0.1128  -0.0814   0.0378  -0.0702   0.00    0.0
2026/01/15 02:01:30.000   67.857351237   20.968464987   390.9874   6  18   0.1112   0.1423   0.1117  -0.0814   0.0379  -0.0697   0.00    0.0
2026/01/15 02:02:00.000   67.857351258   20.968464935   390.9839   6  18   0.1104   0.1417   0.1105  -0.0814   0.0379  -0.0692   0.00    0.0
2026/01/15 02:02:30.000   67.857351278   20.968464896   390.9800   6  19   0.1097   0.1410   0.1095  -0.0814   0.0379  -0.0687   0.00    0.0
2026/01/15 02:03:00.000   67.857351298   20.968464850   390.9766   6  19   0.1091   0.1403   0.1084  -0.0813   0.0379  -0.0682   0.00    0.0
2026/01/15 02:03:30.000   67.857351316   20.968464802   390.9732   6  19   0.1084   0.1397   0.1074  -0.0813   0.0378  -0.0678   0.00    0.0
2026/01/15 02:04:00.000   67.857351333   20.968464764   390.9698   6  19   0.1077   0.1390   0.1064  -0.0812   0.0378  -0.0673   0.00    0.0
2026/01/15 02:04:30.000   67.857351362   20.968464687   390.9662   6  19   0.1070   0.1383   0.1054  -0.0811   0.0377  -0.0668   0.00    0.0
2026/01/15 02:05:00.000   67.857351372   20.968464659   390.9634   6  19   0.1064   0.1376   0.1044  -0.0810   0.0376  -0.0664   0.00    0.0
2026/01/15 02:05:30.000   67.857351387   20.968464622   390.9606   6  19   0.1057   0.1370   0.1034  -0.0809   0.0376  -0.0659   0.00    0.0
2026/01/15 02:06:00.000   67.857351401   20.968464585   390.9580   6  19   0.1051   0.1363   0.1025  -0.0808   0.0375  -0.0654   0.00    0.0
2026/01/15 02:06:30.000   67.857351416   20.968464537   390.9548   6  19   0.1044   0.1356   0.1015  -0.0806   0.0374  -0.0650   0.00    0.0
2026/01/15 02:07:00.000   67.857351433   20.968464471   390.9518   6  19   0.1038   0.1349   0.1006  -0.0805   0.0372  -0.0645   0.00    0.0
2026/01/15 02:07:30.000   67.857351456   20.968464382   390.9485   6  19   0.1031   0.1342   0.0997  -0.0803   0.0371  -0.0640   0.00    0.0
2026/01/15 02:08:00.000   67.857351479   20.968464294   390.9448   6  19   0.1025   0.1335   0.0987  -0.0802   0.0370  -0.0636   0.00    0.0
2026/01/15 02:08:30.000   67.857351500   20.968464217   390.9412   6  20   0.1019   0.1328   0.0979  -0.0800   0.0369  -0.0632   0.00    0.0
2026/01/15 02:09:00.000   67.857351516   20.968464160   390.9380   6  20   0.1013   0.1321   0.0970  -0.0799   0.0369  -0.0627   0.00    0.0
2026/01/15 02:22:30.000   67.857351500   20.968463861   390.9419   6   4   0.0990   0.1267   0.0962  -0.0762   0.0347  -0.0610   0.00    0.0
2026/01/15 02:33:00.000   67.857351477   20.968463663   390.9450   6   5   0.0974   0.1228   0.0957  -0.0736   0.0330  -0.0598   0.00    0.0
2026/01/15 02:33:30.000   67.857351478   20.968463634   390.9452   6   6   0.0973   0.1226   0.0957  -0.0735   0.0330  -0.0598   0.00    0.0
2026/01/15 02:34:00.000   67.857351474   20.968463638   390.9456   6  15   0.0973   0.1224   0.0957  -0.0734   0.0329  -0.0597   0.00    0.0
2026/01/15 02:35:00.000   67.857351484   20.968463569   390.9455   6  16   0.0971   0.1221   0.0956  -0.0731   0.0328  -0.0596   0.00    0.0
2026/01/15 02:35:30.000   67.857351486   20.968463554   390.9455   6  16   0.0971   0.1219   0.0956  -0.0730   0.0327  -0.0596   0.00    0.0
2026/01/15 02:36:00.000   67.857351486   20.968463553   390.9455   6  16   0.0970   0.1217   0.0956  -0.0729   0.0326  -0.0595   0.00    0.0
2026/01/15 02:36:30.000   67.857351484   20.968463533   390.9458   6  10   0.0969   0.1215   0.0956  -0.0727   0.0326  -0.0595   0.00    0.0
2026/01/15 02:37:30.000   67.857351490   20.968463505   390.9458   6  16   0.0968   0.1212   0.0955  -0.0725   0.0324  -0.0594   0.00    0.0
2026/01/15 02:38:00.000   67.857351497   20.968463475   390.9458   6  16   0.0967   0.1210   0.0955  -0.0724   0.0323  -0.0593   0.00    0.0
2026/01/15 02:38:30.000   67.857351499   20.968463451   390.9459   6  16   0.0966   0.1208   0.0955  -0.0722   0.0323  -0.0592   0.00    0.0
2026/01/15 02:39:00.000   67.857351499   20.968463439   390.9460   6  16   0.0965   0.1206   0.0954  -0.0721   0.0322  -0.0592   0.00    0.0
2026/01/15 02:39:30.000   67.857351504   20.968463411   390.9459   6  16   0.0965   0.1204   0.0954  -0.0720   0.0321  -0.0591   0.00    0.0
2026/01/15 02:40:00.000   67.857351505   20.968463370   390.9461   6  16   0.0964   0.1202   0.0954  -0.0718   0.0321  -0.0591   0.00    0.0
2026/01/15 02:40:30.000   67.857351509   20.968463344   390.9461   6  16   0.0963   0.1200   0.0954  -0.0717   0.0320  -0.0590   0.00    0.0
2026/01/15 02:41:00.000   67.857351510   20.968463344   390.9461   6  16   0.0962   0.1198   0.0953  -0.0715   0.0320  -0.0590   0.00    0.0
2026/01/15 02:41:30.000   67.857351510   20.968463324   390.9461   6  16   0.0961   0.1196   0.0953  -0.0714   0.0319  -0.0589   0.00    0.0
2026/01/15 02:42:00.000   67.857351509   20.968463320   390.9462   6  16   0.0960   0.1194   0.0953  -0.0712   0.0318  -0.0589   0.00    0.0
2026/01/15 02:42:30.000   67.857351516   20.968463285   390.9458   6  16   0.0959   0.1192   0.0952  -0.0711   0.0318  -0.0588   0.00    0.0
2026/01/15 02:43:00.000   67.857351517   20.968463254   390.9458   6  16   0.0958   0.1189   0.0952  -0.0709   0.0317  -0.0587   0.00    0.0
2026/01/15 02:43:30.000   67.857351518   20.968463230   390.9459   6  16   0.0957   0.1187   0.0951  -0.0708   0.0316  -0.0587   0.00    0.0
2026/01/15 02:44:00.000   67.857351522   20.968463219   390.9456   6  16   0.0956   0.1185   0.0951  -0.0706   0.0316  -0.0586   0.00    0.0
2026/01/15 02:44:30.000   67.857351520   20.968463206   390.9457   6  16   0.0955   0.1183   0.0950  -0.0704   0.0315  -0.0586   0.00    0.0
2026/01/15 02:45:00.000   67.857351516   20.968463208   390.9459   6  16   0.0954   0.1180   0.0950  -0.0703   0.0314  -0.0585   0.00    0.0
2026/01/15 02:45:30.000   67.857351520   20.968463181   390.9460   6  16   0.0953   0.1178   0.0949  -0.0701   0.0314  -0.0584   0.00    0.0
2026/01/15 02:46:00.000   67.857351526   20.968463166   390.9458   6  16   0.0952   0.1176   0.0949  -0.0699   0.0313  -0.0584   0.00    0.0
2026/01/15 02:46:30.000   67.857351537   20.968463097   390.9457   6  16   0.0951   0.1173   0.0948  -0.0697   0.0312  -0.0583   0.00    0.0
2026/01/15 02:47:00.000   67.857351543   20.968463079   390.9454   6  16   0.0950   0.1171   0.0948  -0.0695   0.0312  -0.0582   0.00    0.0
2026/01/15 02:47:30.000   67.857351552   20.968463040   390.9451   6  16   0.0949   0.1168   0.0947  -0.0694   0.0311  -0.0581   0.00    0.0
2026/01/15 02:48:00.000   67.857351556   20.968463003   390.9449   6  16   0.0947   0.1166   0.0946  -0.0692   0.0310  -0.0581   0.00    0.0
2026/01/15 02:48:30.000   67.857351561   20.968462947   390.9449   6  16   0.0946   0.1163   0.0946  -0.0689   0.0310  -0.0580   0.00    0.0
2026/01/15 02:49:00.000   67.857351568   20.968462914   390.9445   6  16   0.0945   0.1160   0.0945  -0.0687   0.0309  -0.0579   0.00    0.0
2026/01/15 02:49:30.000   67.857351578   20.968462859   390.9442   6  16   0.0943   0.1158   0.0944  -0.0685   0.0308  -0.0578   0.00    0.0
2026/01/15 02:50:00.000   67.857351583   20.968462823   390.9440   6  16   0.0942   0.1155   0.0943  -0.0683   0.0308  -0.0578   0.00    0.0
2026/01/15 02:50:30.000   67.857351582   20.968462806   390.9439   6  16   0.0940   0.1152   0.0942  -0.0681   0.0307  -0.0577   0.00    0.0
2026/01/15 02:51:00.000   67.857351586   20.968462770   390.9438   6  16   0.0939   0.1149   0.0942  -0.0678   0.0306  -0.0576   0.00    0.0
2026/01/15 02:51:30.000   67.857351591   20.968462736   390.9437   6  16   0.0937   0.1146   0.0941  -0.0676   0.0306  -0.0575   0.00    0.0
2026/01/15 02:52:00.000   67.857351598   20.968462685   390.9435   6  16   0.0935   0.1143   0.0940  -0.0673   0.0305  -0.0574   0.00    0.0
2026/01/15 02:52:30.000   67.857351609   20.968462618   390.9430   6  16   0.0934   0.1140   0.0939  -0.0671   0.0304  -0.0573   0.00    0.0
2026/01/15 02:53:00.000   67.857351612   20.968462585   390.9430   6  16   0.0932   0.1137   0.0938  -0.0669   0.0304  -0.0572   0.00    0.0
2026/01/15 02:53:30.000   67.857351624   20.968462540   390.9424   6  16   0.0931   0.1134   0.0937  -0.0667   0.0304  -0.0572   0.00    0.0
2026/01/15 02:54:00.000   67.857351635   20.968462497   390.9421   6  16   0.0929   0.1131   0.0936  -0.0665   0.0304  -0.0571   0.00    0.0
2026/01/15 02:54:30.000   67.857351643   20.968462478   390.9415   6  16   0.0928   0.1128   0.0934  -0.0662   0.0304  -0.0570   0.00    0.0
2026/01/15 02:55:00.000   67.857351646   20.968462465   390.9411   6  16   0.0926   0.1125   0.0933  -0.0660   0.0304  -0.0569   0.00    0.0
2026/01/15 02:55:30.000   67.857351655   20.968462429   390.9407   6  16   0.0925   0.1122   0.0932  -0.0658   0.0304  -0.0569   0.00    0.0
2026/01/15 02:56:00.000   67.857351663   20.968462390   390.9403   6  16   0.0923   0.1119   0.0931  -0.0656   0.0304  -0.0568   0.00    0.0
2026/01/15 02:56:30.000   67.857351671   20.968462345   390.9397   6  16   0.0921   0.1116   0.0930  -0.0653   0.0304  -0.0567   0.00    0.0
2026/01/15 02:57:00.000   67.857351680   20.968462301   390.9392   6  16   0.0919   0.1113   0.0928  -0.0651   0.0304  -0.0566   0.00    0.0
2026/01/15 02:57:30.000   67.857351684   20.968462290   390.9387   6  17   0.0918   0.1110   0.0927  -0.0648   0.0304  -0.0565   0.00    0.0
2026/01/15 02:58:00.000   67.857351694   20.968462241   390.9382   6  17   0.0916   0.1106   0.0925  -0.0646   0.0304  -0.0564   0.00    0.0
2026/01/15 02:58:30.000   67.857351701   20.968462230   390.9378   6  18   0.0914   0.1103   0.0924  -0.0643   0.0304  -0.0563   0.00    0.0
2026/01/15 02:59:00.000   67.857351705   20.968462217   390.9376   6  18   0.0912   0.1099   0.0922  -0.0640   0.0304  -0.0562   0.00    0.0
2026/01/15 02:59:30.000   67.857351719   20.968462159   390.9370   6  18   0.0910   0.1096   0.0921  -0.0637   0.0303  -0.0561   0.00    0.0
2026/01/15 03:00:00.000   67.857351723   20.968462124   390.9369   6  18   0.0908   0.1092   0.0919  -0.0634   0.0303  -0.0560   0.00    0.0
2026/01/15 03:00:30.000   67.857351733   20.968462069   390.9364   6  18   0.0906   0.1088   0.0918  -0.0632   0.0303  -0.0559   0.00    0.0
2026/01/15 03:01:00.000   67.857351742   20.968462009   390.9358   6  18   0.0904   0.1085   0.0916  -0.0629   0.0303  -0.0558   0.00    0.0
2026/01/15 03:01:30.000   67.857351746   20.968461983   390.9351   6  18   0.0901   0.1081   0.0914  -0.0626   0.0303  -0.0557   0.00    0.0
2026/01/15 03:02:00.000   67.857351760   20.968461924   390.9343   6  18   0.0899   0.1077   0.0912  -0.0623   0.0303  -0.0556   0.00    0.0
2026/01/15 03:02:30.000   67.857351773   20.968461886   390.9335   6  18   0.0897   0.1073   0.0910  -0.0619   0.0303  -0.0555   0.00    0.0
2026/01/15 03:03:00.000   67.857351782   20.968461864   390.9327   6  18   0.0895   0.1069   0.0909  -0.0616   0.0303  -0.0554   0.00    0.0
2026/01/15 03:03:30.000   67.857351792   20.968461808   390.9320   6  18   0.0892   0.1065   0.0907  -0.0613   0.0302  -0.0553   0.00    0.0
2026/01/15 03:04:00.000   67.857351797   20.968461769   390.9314   6  18   0.0890   0.1061   0.0905  -0.0610   0.0302  -0.0552   0.00    0.0
2026/01/15 03:04:30.000   67.857351808   20.968461729   390.9305   6  18   0.0887   0.1057   0.0903  -0.0607   0.0302  -0.0550   0.00    0.0
2026/01/15 03:05:00.000   67.857351817   20.968461691   390.9297   6  18   0.0885   0.1053   0.0900  -0.0603   0.0302  -0.0549   0.00    0.0
2026/01/15 03:05:30.000   67.857351832   20.968461625   390.9285   6  18   0.0882   0.1049   0.0898  -0.0600   0.0302  -0.0548   0.00    0.0
2026/01/15 03:06:00.000   67.857351842   20.968461590   390.9275   6  18   0.0880   0.1045   0.0896  -0.0596   0.0301  -0.0547   0.00    0.0
2026/01/15 03:06:30.000   67.857351851   20.968461561   390.9265   6  19   0.0877   0.1041   0.0894  -0.0593   0.0301  -0.0545   0.00    0.0
2026/01/15 03:07:00.000   67.857351866   20.968461502   390.9254   6  19   0.0874   0.1036   0.0891  -0.0589   0.0301  -0.0544   0.00    0.0
2026/01/15 03:07:30.000   67.857351880   20.968461450   390.9244   6  19   0.0872   0.1032   0.0889  -0.0586   0.0301  -0.0543   0.00    0.0
2026/01/15 03:08:00.000   67.857351887   20.968461408   390.9238   6  19   0.0869   0.1029   0.0887  -0.0583   0.0301  -0.0542   0.00    0.0
2026/01/15 03:08:30.000   67.857351891   20.968461388   390.9230   6  19   0.0867   0.1025   0.0884  -0.0580   0.0301  -0.0540   0.00    0.0
2026/01/15 03:09:00.000   67.857351903   20.968461346   390.9217   6  19   0.0865   0.1021   0.0882  -0.0578   0.0301  -0.0539   0.00    0.0
2026/01/15 03:09:30.000   67.857351916   20.968461295   390.9206   6  19   0.0862   0.1018   0.0879  -0.0575   0.0302  -0.0538   0.00    0.0
2026/01/15 03:10:00.000   67.857351927   20.968461251   390.9192   6  19   0.0860   0.1014   0.0877  -0.0572   0.0302  -0.0537   0.00    0.0
2026/01/15 03:10:30.000   67.857351939   20.968461211   390.9187   6  18   0.0857   0.1010   0.0875  -0.0569   0.0302  -0.0536   0.00    0.0
2026/01/15 03:11:00.000   67.857351951   20.968461163   390.9181   6  18   0.0855   0.1006   0.0872  -0.0566   0.0303  -0.0534   0.00    0.0
2026/01/15 03:11:30.000   67.857351959   20.968461128   390.9179   6  18   0.0852   0.1003   0.0870  -0.0563   0.0303  -0.0533   0.00    0.0
2026/01/15 03:12:00.000   67.857351969   20.968461089   390.9175   6  18   0.0849   0.0999   0.0868  -0.0560   0.0303  -0.0532   0.00    0.0
2026/01/15 03:12:30.000   67.857351983   20.968461041   390.9170   6  18   0.0847   0.0995   0.0865  -0.0557   0.0304  -0.0530   0.00    0.0
2026/01/15 03:13:00.000   67.857351994   20.968461005   390.9165   6  18   0.0844   0.0991   0.0863  -0.0554   0.0304  -0.0529   0.00    0.0
2026/01/15 03:13:30.000   67.857352004   20.968460964   390.9161   6  18   0.0841   0.0987   0.0860  -0.0551   0.0304  -0.0528   0.00    0.0
2026/01/15 03:14:00.000   67.857352016   20.968460905   390.9155   6  18   0.0839   0.0983   0.0858  -0.0548   0.0305  -0.0526   0.00    0.0
2026/01/15 03:14:30.000   67.857352032   20.968460858   390.9146   6  18   0.0836   0.0979   0.0855  -0.0545   0.0305  -0.0525   0.00    0.0
2026/01/15 03:15:00.000   67.857352047   20.968460806   390.9137   6  18   0.0833   0.0975   0.0853  -0.0542   0.0305  -0.0523   0.00    0.0
2026/01/15 03:15:30.000   67.857352059   20.968460766   390.9129   6  18   0.0830   0.0971   0.0850  -0.0538   0.0305  -0.0522   0.00    0.0
2026/01/15 03:16:00.000   67.857352071   20.968460708   390.9122   6  18   0.0827   0.0967   0.0847  -0.0535   0.0305  -0.0520   0.00    0.0
2026/01/15 03:16:30.000   67.857352088   20.968460643   390.9113   6  18   0.0824   0.0963   0.0845  -0.0532   0.0305  -0.0519   0.00    0.0
2026/01/15 03:17:00.000   67.857352105   20.968460580   390.9102   6  18   0.0821   0.0958   0.0842  -0.0529   0.0305  -0.0517   0.00    0.0
2026/01/15 03:17:30.000   67.857352123   20.968460519   390.9091   6  18   0.0818   0.0954   0.0839  -0.0525   0.0305  -0.0516   0.00    0.0
2026/01/15 03:18:00.000   67.857352137   20.968460480   390.9081   6  18   0.0815   0.0950   0.0836  -0.0522   0.0305  -0.0514   0.00    0.0
2026/01/15 03:28:30.000   67.857352136   20.968460343   390.9105   6   5   0.0807   0.0931   0.0833  -0.0509   0.0297  -0.0507   0.00    0.0
2026/01/15 03:29:30.000   67.857352133   20.968460327   390.9113   6   5   0.0807   0.0929   0.0833  -0.0508   0.0296  -0.0507   0.00    0.0
2026/01/15 03:30:30.000   67.857352135   20.968460298   390.9117   6   7   0.0806   0.0928   0.0832  -0.0507   0.0295  -0.0506   0.00    0.0
2026/01/15 03:31:00.000   67.857352136   20.968460280   390.9118   6   9   0.0805   0.0927   0.0832  -0.0506   0.0295  -0.0506   0.00    0.0
2026/01/15 03:31:30.000   67.857352140   20.968460276   390.9117   6   5   0.0805   0.0926   0.0832  -0.0506   0.0294  -0.0505   0.00    0.0
2026/01/15 03:32:30.000   67.857352138   20.968460287   390.9119   6  13   0.0804   0.0924   0.0832  -0.0505   0.0294  -0.0505   0.00    0.0
2026/01/15 03:33:30.000   67.857352136   20.968460283   390.9122   6  13   0.0804   0.0923   0.0832  -0.0504   0.0293  -0.0504   0.00    0.0
2026/01/15 03:34:00.000   67.857352138   20.968460275   390.9122   6  17   0.0803   0.0922   0.0832  -0.0503   0.0292  -0.0504   0.00    0.0
2026/01/15 03:34:30.000   67.857352135   20.968460281   390.9125   6  17   0.0803   0.0921   0.0831  -0.0503   0.0292  -0.0504   0.00    0.0
2026/01/15 03:35:00.000   67.857352136   20.968460275   390.9125   6  17   0.0803   0.0920   0.0831  -0.0502   0.0292  -0.0503   0.00    0.0
2026/01/15 03:35:30.000   67.857352136   20.968460274   390.9126   6  16   0.0802   0.0919   0.0831  -0.0501   0.0291  -0.0503   0.00    0.0
2026/01/15 03:36:00.000   67.857352133   20.968460275   390.9129   6  16   0.0802   0.0919   0.0831  -0.0501   0.0291  -0.0503   0.00    0.0
2026/01/15 03:36:30.000   67.857352127   20.968460270   390.9133   6  16   0.0802   0.0918   0.0831  -0.0500   0.0291  -0.0502   0.00    0.0
2026/01/15 03:37:00.000   67.857352124   20.968460278   390.9136   6  16   0.0801   0.0917   0.0831  -0.0500   0.0290  -0.0502   0.00    0.0
2026/01/15 03:37:30.000   67.857352125   20.968460281   390.9136   6  16   0.0801   0.0916   0.0830  -0.0499   0.0290  -0.0502   0.00    0.0
2026/01/15 03:38:00.000   67.857352125   20.968460271   390.9137   6  16   0.0800   0.0915   0.0830  -0.0499   0.0289  -0.0501   0.00    0.0
2026/01/15 03:38:30.000   67.857352126   20.968460266   390.9138   6  16   0.0800   0.0914   0.0830  -0.0498   0.0289  -0.0501   0.00    0.0
2026/01/15 03:39:00.000   67.857352123   20.968460276   390.9141   6  16   0.0800   0.0914   0.0830  -0.0497   0.0289  -0.0501   0.00    0.0
2026/01/15 03:39:30.000   67.857352126   20.968460257   390.9139   6  16   0.0799   0.0913   0.0829  -0.0497   0.0288  -0.0500   0.00    0.0
2026/01/15 03:40:00.000   67.857352122   20.968460262   390.9142   6  16   0.0799   0.0912   0.0829  -0.0496   0.0288  -0.0500   0.00    0.0
2026/01/15 03:40:30.000   67.857352116   20.968460266   390.9146   6  16   0.0798   0.0911   0.0829  -0.0496   0.0287  -0.0500   0.00    0.0
2026/01/15 03:41:00.000   67.857352118   20.968460258   390.9144   6  16   0.0798   0.0910   0.0829  -0.0495   0.0287  -0.0499   0.00    0.0
2026/01/15 03:41:30.000   67.857352119   20.968460254   390.9144   6  16   0.0797   0.0910   0.0828  -0.0494   0.0287  -0.0499   0.00    0.0
2026/01/15 03:42:00.000   67.857352118   20.968460255   390.9144   6  16   0.0797   0.0909   0.0828  -0.0494   0.0286  -0.0499   0.00    0.0
2026/01/15 03:42:30.000   67.857352117   20.968460255   390.9145   6  16   0.0797   0.0908   0.0828  -0.0493   0.0286  -0.0498   0.00    0.0
2026/01/15 03:43:00.000   67.857352119   20.968460248   390.9144   6  16   0.0796   0.0907   0.0827  -0.0493   0.0285  -0.0498   0.00    0.0
2026/01/15 03:43:30.000   67.857352123   20.968460231   390.9143   6  16   0.0796   0.0906   0.0827  -0.0492   0.0285  -0.0497   0.00    0.0
2026/01/15 03:44:00.000   67.857352125   20.968460215   390.9142   6  16   0.0795   0.0905   0.0826  -0.0491   0.0285  -0.0497   0.00    0.0
2026/01/15 03:44:30.000   67.857352130   20.968460206   390.9136   6  16   0.0794   0.0904   0.0826  -0.0491   0.0284  -0.0496   0.00    0.0
2026/01/15 03:45:00.000   67.857352133   20.968460191   390.9131   6  16   0.0794   0.0903   0.0825  -0.0490   0.0284  -0.0496   0.00    0.0
2026/01/15 03:45:30.000   67.857352138   20.968460167   390.9127   6  16   0.0793   0.0902   0.0825  -0.0489   0.0283  -0.0496   0.00    0.0
2026/01/15 03:46:00.000   67.857352141   20.968460159   390.9124   6  16   0.0793   0.0901   0.0824  -0.0488   0.0283  -0.0495   0.00    0.0
2026/01/15 03:46:30.000   67.857352146   20.968460170   390.9119   6  16   0.0792   0.0900   0.0824  -0.0488   0.0282  -0.0495   0.00    0.0
2026/01/15 03:47:00.000   67.857352150   20.968460154   390.9114   6  16   0.0791   0.0899   0.0823  -0.0487   0.0282  -0.0494   0.00    0.0
2026/01/15 03:47:30.000   67.857352153   20.968460135   390.9110   6  16   0.0791   0.0898   0.0823  -0.0486   0.0281  -0.0493   0.00    0.0
2026/01/15 03:48:00.000   67.857352157   20.968460111   390.9106   6  16   0.0790   0.0897   0.0822  -0.0485   0.0280  -0.0493   0.00    0.0
2026/01/15 03:48:30.000   67.857352160   20.968460090   390.9102   6  16   0.0789   0.0896   0.0821  -0.0484   0.0280  -0.0492   0.00    0.0
2026/01/15 03:49:00.000   67.857352171   20.968460064   390.9092   6  16   0.0789   0.0895   0.0820  -0.0483   0.0279  -0.0492   0.00    0.0
2026/01/15 03:49:30.000   67.857352176   20.968460063   390.9083   6  16   0.0788   0.0894   0.0820  -0.0482   0.0279  -0.0491   0.00    0.0
2026/01/15 03:50:00.000   67.857352181   20.968460056   390.9079   6  15   0.0787   0.0893   0.0819  -0.0481   0.0278  -0.0490   0.00    0.0
2026/01/15 03:50:30.000   67.857352189   20.968460034   390.9073   6  15   0.0786   0.0892   0.0818  -0.0480   0.0277  -0.0490   0.00    0.0
2026/01/15 03:51:00.000   67.857352195   20.968460017   390.9067   6  15   0.0785   0.0891   0.0817  -0.0479   0.0276  -0.0489   0.00    0.0
2026/01/15 03:51:30.000   67.857352203   20.968460001   390.9061   6  15   0.0784   0.0890   0.0817  -0.0478   0.0276  -0.0488   0.00    0.0
2026/01/15 03:52:00.000   67.857352209   20.968460002   390.9055   6  15   0.0783   0.0889   0.0816  -0.0477   0.0275  -0.0487   0.00    0.0
2026/01/15 03:52:30.000   67.857352213   20.968459980   390.9048   6  15   0.0782   0.0887   0.0815  -0.0476   0.0274  -0.0487   0.00    0.0
2026/01/15 03:53:00.000   67.857352220   20.968459979   390.9040   6  15   0.0781   0.0886   0.0814  -0.0475   0.0273  -0.0486   0.00    0.0
2026/01/15 03:53:30.000   67.857352228   20.968459963   390.9031   6  15   0.0780   0.0885   0.0813  -0.0474   0.0272  -0.0485   0.00    0.0
2026/01/15 03:54:00.000   67.857352238   20.968459947   390.9021   6  15   0.0779   0.0884   0.0812  -0.0473   0.0272  -0.0484   0.00    0.0
2026/01/15 03:54:30.000   67.857352246   20.968459930   390.9014   6  15   0.0778   0.0882   0.0811  -0.0472   0.0271  -0.0483   0.00    0.0
2026/01/15 03:55:00.000   67.857352253   20.968459905   390.9006   6  15   0.0777   0.0881   0.0810  -0.0470   0.0270  -0.0482   0.00    0.0
2026/01/15 03:55:30.000   67.857352258   20.968459888   390.8999   6  15   0.0776   0.0880   0.0809  -0.0469   0.0269  -0.0481   0.00    0.0
2026/01/15 03:56:00.000   67.857352265   20.968459869   390.8991   6  15   0.0775   0.0878   0.0808  -0.0468   0.0268  -0.0480   0.00    0.0
2026/01/15 03:56:30.000   67.857352271   20.968459853   390.8984   6  15   0.0774   0.0877   0.0806  -0.0466   0.0267  -0.0479   0.00    0.0
2026/01/15 03:57:00.000   67.857352276   20.968459846   390.8978   6  15   0.0772   0.0876   0.0805  -0.0465   0.0266  -0.0478   0.00    0.0
2026/01/15 03:57:30.000   67.857352286   20.968459822   390.8970   6  15   0.0771   0.0874   0.0804  -0.0464   0.0265  -0.0477   0.00    0.0
2026/01/15 03:58:00.000   67.857352296   20.968459789   390.8960   6  15   0.0770   0.0873   0.0803  -0.0462   0.0263  -0.0476   0.00    0.0
2026/01/15 03:58:30.000   67.857352305   20.968459755   390.8950   6  15   0.0768   0.0871   0.0801  -0.0461   0.0262  -0.0475   0.00    0.0
2026/01/15 03:59:00.000   67.857352312   20.968459734   390.8941   6  15   0.0767   0.0870   0.0800  -0.0459   0.0261  -0.0474   0.00    0.0
2026/01/15 03:59:30.000   67.857352322   20.968459715   390.8928   6  15   0.0765   0.0868   0.0798  -0.0457   0.0260  -0.0473   0.00    0.0
2026/01/15 04:00:00.000   67.857352333   20.968459699   390.8914   6  15   0.0764   0.0867   0.0797  -0.0456   0.0258  -0.0472   0.00    0.0
2026/01/15 04:00:30.000   67.857352341   20.968459679   390.8903   6  15   0.0762   0.0865   0.0795  -0.0454   0.0257  -0.0470   0.00    0.0
2026/01/15 04:01:00.000   67.857352354   20.968459644   390.8887   6  15   0.0761   0.0863   0.0794  -0.0453   0.0256  -0.0469   0.00    0.0
2026/01/15 04:01:30.000   67.857352366   20.968459621   390.8872   6  15   0.0759   0.0862   0.0792  -0.0451   0.0254  -0.0468   0.00    0.0
2026/01/15 04:52:00.000   67.857352398   20.968459402   390.8910   6   4   0.0736   0.0815   0.0781  -0.0418   0.0231  -0.0444   0.00    0.0
2026/01/15 04:53:00.000   67.857352401   20.968459398   390.8910   6  11   0.0735   0.0814   0.0781  -0.0417   0.0231  -0.0444   0.00    0.0
2026/01/15 04:53:30.000   67.857352403   20.968459394   390.8908   6  13   0.0735   0.0814   0.0781  -0.0417   0.0230  -0.0444   0.00    0.0
2026/01/15 04:54:00.000   67.857352404   20.968459395   390.8907   6  14   0.0735   0.0814   0.0781  -0.0417   0.0230  -0.0443   0.00    0.0
2026/01/15 04:54:30.000   67.857352403   20.968459403   390.8907   6  14   0.0735   0.0813   0.0781  -0.0416   0.0230  -0.0443   0.00    0.0
2026/01/15 04:55:00.000   67.857352405   20.968459407   390.8906   6  14   0.0734   0.0813   0.0781  -0.0416   0.0230  -0.0443   0.00    0.0
2026/01/15 04:55:30.000   67.857352404   20.968459413   390.8906   6  14   0.0734   0.0812   0.0781  -0.0416   0.0229  -0.0443   0.00    0.0
2026/01/15 04:56:00.000   67.857352408   20.968459412   390.8902   6  14   0.0734   0.0812   0.0781  -0.0415   0.0229  -0.0442   0.00    0.0
2026/01/15 05:01:00.000   67.857352426   20.968459351   390.8891   6  13   0.0731   0.0808   0.0779  -0.0412   0.0226  -0.0440   0.00    0.0
2026/01/15 05:01:30.000   67.857352427   20.968459344   390.8890   6  14   0.0731   0.0807   0.0779  -0.0412   0.0226  -0.0439   0.00    0.0
2026/01/15 05:02:00.000   67.857352430   20.968459337   390.8889   6  14   0.0731   0.0807   0.0779  -0.0412   0.0226  -0.0439   0.00    0.0
2026/01/15 05:02:30.000   67.857352432   20.968459332   390.8886   6  14   0.0730   0.0806   0.0779  -0.0411   0.0225  -0.0439   0.00    0.0
2026/01/15 05:03:00.000   67.857352432   20.968459335   390.8886   6  14   0.0730   0.0805   0.0779  -0.0411   0.0225  -0.0438   0.00    0.0
2026/01/15 05:03:30.000   67.857352433   20.968459330   390.8885   6  14   0.0730   0.0805   0.0778  -0.0410   0.0225  -0.0438   0.00    0.0
2026/01/15 05:04:00.000   67.857352437   20.968459328   390.8882   6  14   0.0729   0.0804   0.0778  -0.0410   0.0224  -0.0438   0.00    0.0
2026/01/15 05:04:30.000   67.857352440   20.968459322   390.8881   6  14   0.0729   0.0803   0.0778  -0.0409   0.0224  -0.0437   0.00    0.0
2026/01/15 05:05:00.000   67.857352443   20.968459307   390.8878   6  14   0.0728   0.0803   0.0778  -0.0409   0.0224  -0.0437   0.00    0.0
2026/01/15 05:05:30.000   67.857352443   20.968459311   390.8879   6  14   0.0728   0.0802   0.0778  -0.0408   0.0223  -0.0437   0.00    0.0
2026/01/15 05:06:00.000   67.857352446   20.968459312   390.8875   6  14   0.0727   0.0801   0.0777  -0.0408   0.0223  -0.0436   0.00    0.0
2026/01/15 05:06:30.000   67.857352448   20.968459302   390.8874   6  14   0.0727   0.0801   0.0777  -0.0407   0.0222  -0.0436   0.00    0.0
2026/01/15 05:07:00.000   67.857352451   20.968459298   390.8871   6  14   0.0727   0.0800   0.0777  -0.0407   0.0222  -0.0436   0.00    0.0
2026/01/15 05:07:30.000   67.857352453   20.968459296   390.8870   6  14   0.0726   0.0799   0.0777  -0.0406   0.0222  -0.0435   0.00    0.0
2026/01/15 05:08:00.000   67.857352454   20.968459291   390.8870   6  14   0.0726   0.0799   0.0776  -0.0406   0.0221  -0.0435   0.00    0.0
2026/01/15 05:08:30.000   67.857352455   20.968459285   390.8870   6  14   0.0725   0.0798   0.0776  -0.0405   0.0221  -0.0435   0.00    0.0
2026/01/15 05:09:00.000   67.857352457   20.968459266   390.8868   6  14   0.0725   0.0797   0.0776  -0.0404   0.0221  -0.0434   0.00    0.0
2026/01/15 05:09:30.000   67.857352458   20.968459263   390.8868   6  14   0.0724   0.0796   0.0776  -0.0404   0.0220  -0.0434   0.00    0.0
2026/01/15 05:10:00.000   67.857352459   20.968459273   390.8866   6  14   0.0724   0.0795   0.0775  -0.0403   0.0220  -0.0434   0.00    0.0
2026/01/15 05:10:30.000   67.857352463   20.968459266   390.8862   6  14   0.0723   0.0794   0.0775  -0.0403   0.0219  -0.0433   0.00    0.0
2026/01/15 05:11:00.000   67.857352464   20.968459259   390.8861   6  14   0.0723   0.0794   0.0775  -0.0402   0.0219  -0.0433   0.00    0.0
2026/01/15 05:11:30.000   67.857352465   20.968459255   390.8861   6  14   0.0722   0.0793   0.0774  -0.0401   0.0218  -0.0432   0.00    0.0
2026/01/15 05:12:00.000   67.857352468   20.968459249   390.8858   6  15   0.0721   0.0792   0.0774  -0.0400   0.0218  -0.0432   0.00    0.0
2026/01/15 05:12:30.000   67.857352466   20.968459243   390.8860   6  15   0.0721   0.0791   0.0774  -0.0400   0.0218  -0.0431   0.00    0.0
2026/01/15 05:13:00.000   67.857352466   20.968459259   390.8859   6  15   0.0720   0.0790   0.0773  -0.0399   0.0217  -0.0431   0.00    0.0
2026/01/15 05:13:30.000   67.857352464   20.968459258   390.8859   6  16   0.0719   0.0789   0.0773  -0.0398   0.0216  -0.0431   0.00    0.0
2026/01/15 05:14:00.000   67.857352463   20.968459268   390.8859   6  16   0.0719   0.0788   0.0772  -0.0397   0.0216  -0.0430   0.00    0.0
2026/01/15 05:14:30.000   67.857352460   20.968459276   390.8860   6  16   0.0718   0.0787   0.0772  -0.0396   0.0215  -0.0430   0.00    0.0
2026/01/15 05:15:00.000   67.857352462   20.968459274   390.8855   6  17   0.0717   0.0785   0.0772  -0.0395   0.0215  -0.0429   0.00    0.0
2026/01/15 05:15:30.000   67.857352462   20.968459258   390.8853   6  17   0.0717   0.0784   0.0771  -0.0394   0.0214  -0.0429   0.00    0.0
2026/01/15 05:16:00.000   67.857352464   20.968459256   390.8848   6  17   0.0716   0.0783   0.0771  -0.0394   0.0214  -0.0428   0.00    0.0
2026/01/15 05:16:30.000   67.857352466   20.968459234   390.8843   6  18   0.0715   0.0782   0.0770  -0.0392   0.0213  -0.0427   0.00    0.0
2026/01/15 05:17:00.000   67.857352470   20.968459221   390.8838   6  18   0.0714   0.0780   0.0770  -0.0391   0.0212  -0.0427   0.00    0.0
2026/01/15 05:17:30.000   67.857352470   20.968459216   390.8835   6  18   0.0713   0.0779   0.0769  -0.0390   0.0211  -0.0426   0.00    0.0
2026/01/15 06:54:00.000   67.857351870   20.968460541   390.8977   6   4   0.0658   0.0709   0.0750  -0.0313   0.0155  -0.0378   0.00    0.0
2026/01/15 06:54:30.000   67.857351868   20.968460542   390.8978   6   4   0.0657   0.0709   0.0750  -0.0312   0.0155  -0.0378   0.00    0.0
2026/01/15 06:55:00.000   67.857351864   20.968460545   390.8981   6   4   0.0657   0.0708   0.0750  -0.0312   0.0155  -0.0378   0.00    0.0
2026/01/15 06:55:30.000   67.857351862   20.968460548   390.8982   6   4   0.0657   0.0708   0.0750  -0.0312   0.0154  -0.0378   0.00    0.0
2026/01/15 06:56:00.000   67.857351859   20.968460561   390.8982   6   4   0.0657   0.0708   0.0750  -0.0311   0.0154  -0.0378   0.00    0.0
2026/01/15 06:56:30.000   67.857351857   20.968460561   390.8984   6   4   0.0657   0.0708   0.0750  -0.0311   0.0154  -0.0377   0.00    0.0
2026/01/15 06:57:00.000   67.857351855   20.968460565   390.8985   6   4   0.0656   0.0707   0.0750  -0.0311   0.0154  -0.0377   0.00    0.0
2026/01/15 06:57:30.000   67.857351853   20.968460568   390.8986   6   4   0.0656   0.0707   0.0749  -0.0310   0.0153  -0.0377   0.00    0.0
2026/01/15 06:58:00.000   67.857351850   20.968460572   390.8988   6   4   0.0656   0.0707   0.0749  -0.0310   0.0153  -0.0377   0.00    0.0
2026/01/15 06:58:30.000   67.857351848   20.968460573   390.8989   6   4   0.0656   0.0707   0.0749  -0.0310   0.0153  -0.0376   0.00    0.0
2026/01/15 06:59:00.000   67.857351843   20.968460583   390.8991   6   4   0.0655   0.0707   0.0749  -0.0309   0.0153  -0.0376   0.00    0.0
2026/01/15 06:59:30.000   67.857351843   20.968460586   390.8991   6   4   0.0655   0.0706   0.0749  -0.0309   0.0152  -0.0376   0.00    0.0
2026/01/15 07:00:00.000   67.857351841   20.968460591   390.8992   6   4   0.0655   0.0706   0.0749  -0.0309   0.0152  -0.0376   0.00    0.0
2026/01/15 07:00:30.000   67.857351841   20.968460599   390.8990   6   4   0.0655   0.0706   0.0749  -0.0308   0.0152  -0.0376   0.00    0.0
2026/01/15 07:01:00.000   67.857351838   20.968460605   390.8993   6   4   0.0654   0.0706   0.0749  -0.0308   0.0152  -0.0375   0.00    0.0
2026/01/15 07:01:30.000   67.857351837   20.968460608   390.8993   6   4   0.0654   0.0705   0.0749  -0.0308   0.0151  -0.0375   0.00    0.0
2026/01/15 07:02:00.000   67.857351833   20.968460621   390.8994   6   4   0.0654   0.0705   0.0749  -0.0307   0.0151  -0.0375   0.00    0.0
2026/01/15 07:02:30.000   67.857351832   20.968460623   390.8994   6   4   0.0654   0.0705   0.0749  -0.0307   0.0151  -0.0375   0.00    0.0
2026/01/15 07:03:00.000   67.857351830   20.968460625   390.8996   6   4   0.0654   0.0705   0.0749  -0.0307   0.0151  -0.0374   0.00    0.0
2026/01/15 07:03:30.000   67.857351827   20.968460627   390.8998   6   4   0.0653   0.0705   0.0749  -0.0306   0.0150  -0.0374   0.00    0.0
2026/01/15 07:04:00.000   67.857351824   20.968460630   390.8999   6   4   0.0653   0.0704   0.0748  -0.0306   0.0150  -0.0374   0.00    0.0
2026/01/15 07:04:30.000   67.857351823   20.968460633   390.8999   6   4   0.0653   0.0704   0.0748  -0.0306   0.0150  -0.0374   0.00    0.0
2026/01/15 07:05:00.000   67.857351820   20.968460643   390.9000   6   4   0.0653   0.0704   0.0748  -0.0305   0.0150  -0.0374   0.00    0.0
2026/01/15 07:05:30.000   67.857351816   20.968460653   390.9002   6   4   0.0652   0.0704   0.0748  -0.0305   0.0149  -0.0373   0.00    0.0
2026/01/15 07:16:30.000   67.857351763   20.968460734   390.9029   6  10   0.0648   0.0699   0.0746  -0.0298   0.0143  -0.0369   0.00    0.0
2026/01/15 07:17:00.000   67.857351762   20.968460735   390.9031   6  12   0.0648   0.0698   0.0746  -0.0298   0.0143  -0.0368   0.00    0.0
2026/01/15 07:17:30.000   67.857351758   20.968460738   390.9033   6  13   0.0647   0.0698   0.0746  -0.0297   0.0142  -0.0368   0.00    0.0
2026/01/15 07:18:00.000   67.857351758   20.968460741   390.9033   6  14   0.0647   0.0698   0.0746  -0.0297   0.0142  -0.0368   0.00    0.0
2026/01/15 07:18:30.000   67.857351756   20.968460748   390.9034   6  14   0.0647   0.0698   0.0746  -0.0297   0.0142  -0.0368   0.00    0.0
2026/01/15 07:19:00.000   67.857351756   20.968460751   390.9034   6  14   0.0647   0.0698   0.0746  -0.0296   0.0141  -0.0368   0.00    0.0
2026/01/15 07:19:30.000   67.857351753   20.968460753   390.9037   6  14   0.0647   0.0697   0.0746  -0.0296   0.0141  -0.0367   0.00    0.0
2026/01/15 07:20:00.000   67.857351753   20.968460752   390.9037   6  14   0.0646   0.0697   0.0746  -0.0296   0.0141  -0.0367   0.00    0.0
2026/01/15 07:20:30.000   67.857351749   20.968460765   390.9039   6  14   0.0646   0.0697   0.0746  -0.0295   0.0141  -0.0367   0.00    0.0
2026/01/15 07:21:00.000   67.857351746   20.968460776   390.9041   6  14   0.0646   0.0697   0.0746  -0.0295   0.0140  -0.0367   0.00    0.0
2026/01/15 07:21:30.000   67.857351742   20.968460775   390.9045   6  14   0.0646   0.0696   0.0746  -0.0295   0.0140  -0.0366   0.00    0.0
2026/01/15 07:22:00.000   67.857351740   20.968460782   390.9046   6  15   0.0645   0.0696   0.0745  -0.0294   0.0139  -0.0366   0.00    0.0
2026/01/15 07:22:30.000   67.857351738   20.968460785   390.9047   6  15   0.0645   0.0696   0.0745  -0.0294   0.0139  -0.0366   0.00    0.0
2026/01/15 07:23:00.000   67.857351734   20.968460790   390.9051   6  15   0.0645   0.0696   0.0745  -0.0293   0.0139  -0.0366   0.00    0.0
2026/01/15 07:23:30.000   67.857351733   20.968460797   390.9051   6  15   0.0645   0.0695   0.0745  -0.0293   0.0138  -0.0365   0.00    0.0
2026/01/15 07:24:00.000   67.857351733   20.968460797   390.9050   6  14   0.0644   0.0695   0.0745  -0.0293   0.0138  -0.0365   0.00    0.0
2026/01/15 07:24:30.000   67.857351728   20.968460802   390.9054   6  14   0.0644   0.0695   0.0745  -0.0292   0.0138  -0.0365   0.00    0.0
2026/01/15 07:25:00.000   67.857351726   20.968460809   390.9055   6  14   0.0644   0.0695   0.0745  -0.0292   0.0137  -0.0365   0.00    0.0
2026/01/15 07:25:30.000   67.857351724   20.968460808   390.9056   6  14   0.0644   0.0694   0.0744  -0.0292   0.0137  -0.0365   0.00    0.0
2026/01/15 07:26:00.000   67.857351723   20.968460811   390.9056   6  14   0.0643   0.0694   0.0744  -0.0291   0.0137  -0.0364   0.00    0.0
2026/01/15 07:26:30.000   67.857351721   20.968460821   390.9057   6  14   0.0643   0.0694   0.0744  -0.0291   0.0136  -0.0364   0.00    0.0
2026/01/15 07:27:00.000   67.857351721   20.968460818   390.9058   6  14   0.0643   0.0693   0.0744  -0.0291   0.0136  -0.0364   0.00    0.0
2026/01/15 07:27:30.000   67.857351721   20.968460817   390.9058   6  14   0.0642   0.0693   0.0744  -0.0290   0.0136  -0.0364   0.00    0.0
2026/01/15 07:28:00.000   67.857351720   20.968460818   390.9057   6  15   0.0642   0.0693   0.0744  -0.0290   0.0135  -0.0363   0.00    0.0
2026/01/15 07:28:30.000   67.857351721   20.968460814   390.9056   6  16   0.0642   0.0692   0.0743  -0.0289   0.0135  -0.0363   0.00    0.0
2026/01/15 07:29:00.000   67.857351721   20.968460813   390.9055   6  17   0.0641   0.0692   0.0743  -0.0289   0.0135  -0.0363   0.00    0.0
2026/01/15 07:29:30.000   67.857351721   20.968460818   390.9054   6  17   0.0641   0.0692   0.0743  -0.0289   0.0135  -0.0363   0.00    0.0
2026/01/15 07:30:00.000   67.857351721   20.968460817   390.9053   6  17   0.0641   0.0691   0.0743  -0.0288   0.0134  -0.0362   0.00    0.0
2026/01/15 07:30:30.000   67.857351715   20.968460827   390.9056   6  17   0.0640   0.0691   0.0742  -0.0288   0.0134  -0.0362   0.00    0.0
2026/01/15 07:31:00.000   67.857351715   20.968460824   390.9056   6  17   0.0640   0.0691   0.0742  -0.0287   0.0134  -0.0362   0.00    0.0
2026/01/15 07:31:30.000   67.857351716   20.968460821   390.9056   6  17   0.0639   0.0690   0.0742  -0.0287   0.0134  -0.0362   0.00    0.0
2026/01/15 07:32:00.000   67.857351714   20.968460825   390.9056   6  17   0.0639   0.0690   0.0741  -0.0287   0.0133  -0.0361   0.00    0.0
2026/01/15 07:32:30.000   67.857351714   20.968460827   390.9053   6  17   0.0638   0.0689   0.0741  -0.0286   0.0133  -0.0361   0.00    0.0
2026/01/15 07:33:00.000   67.857351712   20.968460831   390.9053   6  17   0.0638   0.0689   0.0741  -0.0286   0.0133  -0.0361   0.00    0.0
2026/01/15 07:33:30.000   67.857351710   20.968460832   390.9052   6  17   0.0637   0.0689   0.0740  -0.0285   0.0133  -0.0360   0.00    0.0
2026/01/15 07:34:00.000   67.857351709   20.968460834   390.9050   6  17   0.0637   0.0688   0.0740  -0.0285   0.0133  -0.0360   0.00    0.0
2026/01/15 07:34:30.000   67.857351709   20.968460838   390.9049   6  17   0.0636   0.0688   0.0739  -0.0284   0.0132  -0.0360   0.00    0.0
2026/01/15 07:35:00.000   67.857351709   20.968460838   390.9047   6  17   0.0636   0.0687   0.0739  -0.0284   0.0132  -0.0359   0.00    0.0
