% program   : RTKPOST ver.demo5 b34d
% inp file  : C:\Users\tevin\Desktop\GNSS - MASTA\SPRING SEM\4.SAT NAV DATA PROCESSING\TEAM PROJECT\SNDP-PROJECT\DATA(Tevin USE)\obs\RNXDATA\KIRU00SWE_R_20260150000_01D_30S_MO.obs
% inp file  : C:\Users\tevin\Desktop\GNSS - MASTA\SPRING SEM\4.SAT NAV DATA PROCESSING\TEAM PROJECT\SNDP-PROJECT\DATA(Tevin USE)\nav\BRDC00IGS_R_20260150000_01D_MN.nav
% inp file  : C:\Users\tevin\Desktop\GNSS - MASTA\SPRING SEM\4.SAT NAV DATA PROCESSING\TEAM PROJECT\SNDP-PROJECT\DATA(Tevin USE)\DATA_FINAL_ANT_EXTRA\COD0MGXFIN_20260150000_01D_30S_CLK.CLK
% inp file  : C:\Users\tevin\Desktop\GNSS - MASTA\SPRING SEM\4.SAT NAV DATA PROCESSING\TEAM PROJECT\SNDP-PROJECT\DATA(Tevin USE)\DATA_FINAL_ANT_EXTRA\COD0MGXFIN_20260150000_01D_05M_ORB.SP3
% obs start : 2026/01/15 00:00:00.0 GPST (week2401 345600.0s)
% obs end   : 2026/01/15 23:59:30.0 GPST (week2401 431970.0s)
% pos mode  : PPP Static
% solution  : Forward
% elev mask : 15.0 deg
% dynamics  : on
% tidecorr  : off
% tropo opt : Saastamoinen
% ephemeris : Precise
% navi sys  : GPS GLONASS Galileo QZSS BDS NavIC SBAS
% antenna1  :                       ( 0.0000  0.0000  0.0000)
%
% (lat/lon/height=WGS84/ellipsoidal,Q=1:fix,2:float,3:sbas,4:dgps,5:single,6:ppp,ns=# of satellites)
%  GPST                  latitude(deg) longitude(deg)  height(m)   Q  ns   sdn(m)   sde(m)   sdu(m)  sdne(m)  sdeu(m)  sdun(m) age(s)  ratio
2026/01/15 00:00:00.000   67.857331889   20.968581906   376.1980   6  32   0.9881   0.8340   2.3757  -0.2823  -0.3318   0.7705   0.00    0.0
2026/01/15 00:00:30.000   67.857334148   20.968575225   375.4585   6  34   0.6862   0.5706   1.6572  -0.1422  -0.3184   0.5791   0.00    0.0
2026/01/15 00:01:00.000   67.857333837   20.968574529   375.3374   6  34   0.5579   0.4620   1.3493  -0.1018  -0.2765   0.4803   0.00    0.0
2026/01/15 00:01:30.000   67.857333816   20.968574642   375.2940   6  34   0.4824   0.3986   1.1676  -0.0825  -0.2468   0.4192   0.00    0.0
2026/01/15 00:02:00.000   67.857334197   20.968574378   375.2275   6  34   0.4313   0.3558   1.0444  -0.0712  -0.2251   0.3768   0.00    0.0
2026/01/15 00:02:30.000   67.857334202   20.968573790   375.2012   6  34   0.3951   0.3232   0.9549  -0.0644  -0.2047   0.3491   0.00    0.0
2026/01/15 00:03:00.000   67.857334118   20.968573524   375.1534   6  34   0.3668   0.2982   0.8852  -0.0595  -0.1893   0.3267   0.00    0.0
2026/01/15 00:03:30.000   67.857334191   20.968573316   375.1083   6  34   0.3439   0.2782   0.8288  -0.0558  -0.1771   0.3080   0.00    0.0
2026/01/15 00:04:00.000   67.857334699   20.968571847   375.1724   6  34   0.3243   0.2619   0.7798  -0.0555  -0.1689   0.2903   0.00    0.0
2026/01/15 00:04:30.000   67.857334824   20.968571981   375.1361   6  34   0.3077   0.2482   0.7400  -0.0527  -0.1631   0.2743   0.00    0.0
2026/01/15 00:05:00.000   67.857334619   20.968572267   375.0561   6  34   0.2934   0.2365   0.7058  -0.0504  -0.1577   0.2607   0.00    0.0
2026/01/15 00:05:30.000   67.857334633   20.968572415   374.9915   6  34   0.2810   0.2263   0.6759  -0.0485  -0.1529   0.2489   0.00    0.0
2026/01/15 00:06:00.000   67.857334592   20.968572739   374.9770   6  34   0.2700   0.2173   0.6496  -0.0468  -0.1485   0.2385   0.00    0.0
2026/01/15 00:06:30.000   67.857334495   20.968572886   374.9358   6  34   0.2602   0.2093   0.6262  -0.0454  -0.1445   0.2294   0.00    0.0
2026/01/15 00:07:00.000   67.857334544   20.968572890   374.9145   6  34   0.2514   0.2021   0.6051  -0.0442  -0.1408   0.2212   0.00    0.0
2026/01/15 00:07:30.000   67.857334558   20.968573010   374.8959   6  34   0.2435   0.1956   0.5860  -0.0432  -0.1374   0.2138   0.00    0.0
2026/01/15 00:08:00.000   67.857334414   20.968573295   374.9168   6  33   0.2365   0.1897   0.5689  -0.0424  -0.1341   0.2067   0.00    0.0
2026/01/15 00:08:30.000   67.857334353   20.968573412   374.9370   6  33   0.2300   0.1843   0.5532  -0.0417  -0.1311   0.2003   0.00    0.0
2026/01/15 00:09:00.000   67.857334296   20.968573548   374.9557   6  33   0.2240   0.1793   0.5387  -0.0411  -0.1282   0.1944   0.00    0.0
2026/01/15 00:09:30.000   67.857334259   20.968573750   374.9743   6  33   0.2184   0.1747   0.5253  -0.0405  -0.1256   0.1889   0.00    0.0
2026/01/15 00:10:00.000   67.857334453   20.968573387   375.0311   6  32   0.2134   0.1705   0.5128  -0.0404  -0.1233   0.1840   0.00    0.0
2026/01/15 00:10:30.000   67.857334457   20.968573397   375.0579   6  33   0.2086   0.1665   0.5012  -0.0398  -0.1210   0.1793   0.00    0.0
2026/01/15 00:11:00.000   67.857334574   20.968573066   375.0884   6  32   0.2041   0.1628   0.4903  -0.0397  -0.1189   0.1750   0.00    0.0
2026/01/15 00:11:30.000   67.857334668   20.968572672   375.1340   6  33   0.1999   0.1594   0.4797  -0.0398  -0.1165   0.1713   0.00    0.0
2026/01/15 00:12:00.000   67.857334832   20.968572444   375.1823   6  33   0.1960   0.1561   0.4697  -0.0398  -0.1143   0.1678   0.00    0.0
2026/01/15 00:12:30.000   67.857334945   20.968572029   375.2308   6  33   0.1922   0.1530   0.4603  -0.0399  -0.1122   0.1645   0.00    0.0
2026/01/15 00:13:00.000   67.857335064   20.968571649   375.2802   6  33   0.1887   0.1501   0.4514  -0.0398  -0.1102   0.1614   0.00    0.0
2026/01/15 00:13:30.000   67.857335192   20.968571303   375.3264   6  33   0.1854   0.1474   0.4430  -0.0398  -0.1084   0.1584   0.00    0.0
2026/01/15 00:14:00.000   67.857335292   20.968571088   375.3689   6  33   0.1822   0.1447   0.4351  -0.0397  -0.1066   0.1556   0.00    0.0
2026/01/15 00:14:30.000   67.857335400   20.968570752   375.4243   6  33   0.1792   0.1423   0.4275  -0.0397  -0.1049   0.1529   0.00    0.0
2026/01/15 00:15:00.000   67.857335486   20.968570495   375.4673   6  34   0.1763   0.1399   0.4202  -0.0395  -0.1034   0.1504   0.00    0.0
2026/01/15 00:15:30.000   67.857335617   20.968570221   375.5236   6  34   0.1735   0.1376   0.4133  -0.0393  -0.1019   0.1479   0.00    0.0
2026/01/15 00:16:00.000   67.857335763   20.968569987   375.5729   6  34   0.1709   0.1355   0.4067  -0.0391  -0.1005   0.1456   0.00    0.0
2026/01/15 00:16:30.000   67.857335866   20.968569766   375.6256   6  33   0.1684   0.1334   0.4006  -0.0389  -0.0992   0.1433   0.00    0.0
2026/01/15 00:17:00.000   67.857335973   20.968569506   375.6838   6  33   0.1660   0.1314   0.3947  -0.0387  -0.0980   0.1410   0.00    0.0
2026/01/15 00:17:30.000   67.857336071   20.968569331   375.7401   6  33   0.1637   0.1295   0.3890  -0.0385  -0.0968   0.1388   0.00    0.0
2026/01/15 00:18:00.000   67.857336173   20.968569156   375.8000   6  33   0.1615   0.1277   0.3836  -0.0382  -0.0956   0.1368   0.00    0.0
2026/01/15 00:18:30.000   67.857336266   20.968568708   375.8467   6  32   0.1594   0.1260   0.3784  -0.0380  -0.0944   0.1348   0.00    0.0
2026/01/15 00:19:00.000   67.857336346   20.968568550   375.8992   6  33   0.1574   0.1243   0.3734  -0.0378  -0.0933   0.1328   0.00    0.0
2026/01/15 00:19:30.000   67.857336463   20.968568371   375.9587   6  33   0.1554   0.1227   0.3685  -0.0376  -0.0923   0.1309   0.00    0.0
2026/01/15 00:20:00.000   67.857336588   20.968567853   376.0030   6  32   0.1535   0.1212   0.3638  -0.0374  -0.0912   0.1291   0.00    0.0
2026/01/15 00:20:30.000   67.857336744   20.968567462   376.0489   6  32   0.1517   0.1197   0.3593  -0.0372  -0.0902   0.1274   0.00    0.0
2026/01/15 00:21:00.000   67.857336868   20.968567118   376.0945   6  32   0.1499   0.1183   0.3550  -0.0370  -0.0891   0.1257   0.00    0.0
2026/01/15 00:21:30.000   67.857336992   20.968566720   376.1441   6  31   0.1482   0.1170   0.3509  -0.0369  -0.0883   0.1241   0.00    0.0
2026/01/15 00:22:00.000   67.857337104   20.968566285   376.1931   6  31   0.1465   0.1157   0.3470  -0.0367  -0.0875   0.1226   0.00    0.0
2026/01/15 00:22:30.000   67.857337233   20.968565935   376.2407   6  31   0.1450   0.1144   0.3432  -0.0366  -0.0866   0.1211   0.00    0.0
2026/01/15 00:23:00.000   67.857337382   20.968565594   376.2882   6  31   0.1434   0.1132   0.3394  -0.0365  -0.0858   0.1196   0.00    0.0
2026/01/15 00:23:30.000   67.857337486   20.968565246   376.3356   6  31   0.1419   0.1120   0.3358  -0.0363  -0.0851   0.1182   0.00    0.0
2026/01/15 00:24:00.000   67.857337599   20.968564908   376.3851   6  31   0.1405   0.1108   0.3323  -0.0362  -0.0843   0.1168   0.00    0.0
2026/01/15 00:24:30.000   67.857337731   20.968564539   376.4355   6  31   0.1390   0.1097   0.3288  -0.0360  -0.0835   0.1155   0.00    0.0
2026/01/15 00:25:00.000   67.857337860   20.968564227   376.4913   6  31   0.1377   0.1086   0.3255  -0.0359  -0.0828   0.1142   0.00    0.0
2026/01/15 00:25:30.000   67.857338038   20.968563955   376.5589   6  30   0.1363   0.1076   0.3224  -0.0357  -0.0820   0.1130   0.00    0.0
2026/01/15 00:26:00.000   67.857338216   20.968563655   376.6254   6  30   0.1351   0.1066   0.3193  -0.0355  -0.0812   0.1118   0.00    0.0
2026/01/15 00:26:30.000   67.857338398   20.968563342   376.6913   6  30   0.1338   0.1056   0.3164  -0.0354  -0.0804   0.1107   0.00    0.0
2026/01/15 00:27:00.000   67.857338564   20.968563008   376.7609   6  30   0.1326   0.1046   0.3134  -0.0352  -0.0796   0.1096   0.00    0.0
2026/01/15 00:27:30.000   67.857338739   20.968562736   376.8282   6  30   0.1314   0.1037   0.3106  -0.0350  -0.0789   0.1085   0.00    0.0
2026/01/15 00:28:00.000   67.857338893   20.968562466   376.8980   6  30   0.1303   0.1028   0.3078  -0.0349  -0.0781   0.1074   0.00    0.0
2026/01/15 00:28:30.000   67.857339066   20.968562170   376.9710   6  30   0.1291   0.1019   0.3051  -0.0347  -0.0774   0.1063   0.00    0.0
2026/01/15 00:29:00.000   67.857339239   20.968561895   377.0441   6  30   0.1280   0.1010   0.3024  -0.0346  -0.0767   0.1053   0.00    0.0
2026/01/15 00:29:30.000   67.857339413   20.968561599   377.1148   6  30   0.1270   0.1001   0.2998  -0.0344  -0.0760   0.1043   0.00    0.0
2026/01/15 00:30:00.000   67.857339594   20.968561305   377.1848   6  31   0.1259   0.0993   0.2971  -0.0343  -0.0753   0.1032   0.00    0.0
2026/01/15 00:30:30.000   67.857339755   20.968561036   377.2446   6  30   0.1249   0.0985   0.2947  -0.0342  -0.0748   0.1023   0.00    0.0
2026/01/15 00:31:00.000   67.857339924   20.968560784   377.3060   6  30   0.1239   0.0977   0.2923  -0.0342  -0.0742   0.1015   0.00    0.0
2026/01/15 00:31:30.000   67.857340061   20.968560559   377.3688   6  30   0.1230   0.0969   0.2899  -0.0341  -0.0737   0.1006   0.00    0.0
2026/01/15 00:32:00.000   67.857340225   20.968560332   377.4324   6  30   0.1221   0.0962   0.2876  -0.0341  -0.0732   0.0998   0.00    0.0
2026/01/15 00:32:30.000   67.857340400   20.968560101   377.4994   6  30   0.1212   0.0954   0.2853  -0.0340  -0.0726   0.0990   0.00    0.0
2026/01/15 00:33:00.000   67.857340570   20.968559860   377.5671   6  30   0.1203   0.0947   0.2831  -0.0339  -0.0721   0.0982   0.00    0.0
2026/01/15 00:33:30.000   67.857340746   20.968559647   377.6298   6  30   0.1194   0.0940   0.2809  -0.0339  -0.0716   0.0974   0.00    0.0
2026/01/15 00:34:00.000   67.857340899   20.968559396   377.6933   6  30   0.1186   0.0933   0.2788  -0.0338  -0.0711   0.0966   0.00    0.0
2026/01/15 00:34:30.000   67.857341063   20.968559226   377.7543   6  31   0.1177   0.0926   0.2766  -0.0338  -0.0706   0.0958   0.00    0.0
2026/01/15 00:35:00.000   67.857341224   20.968559020   377.8130   6  31   0.1169   0.0919   0.2744  -0.0337  -0.0701   0.0951   0.00    0.0
2026/01/15 00:35:30.000   67.857341406   20.968558873   377.8747   6  31   0.1161   0.0913   0.2723  -0.0336  -0.0696   0.0944   0.00    0.0
2026/01/15 00:36:00.000   67.857341579   20.968558745   377.9330   6  31   0.1153   0.0906   0.2702  -0.0336  -0.0691   0.0937   0.00    0.0
2026/01/15 00:36:30.000   67.857341757   20.968558610   377.9865   6  31   0.1145   0.0900   0.2682  -0.0335  -0.0686   0.0929   0.00    0.0
2026/01/15 00:37:00.000   67.857341914   20.968558474   378.0432   6  31   0.1138   0.0894   0.2662  -0.0335  -0.0682   0.0922   0.00    0.0
2026/01/15 00:37:30.000   67.857342072   20.968558333   378.1042   6  31   0.1130   0.0888   0.2642  -0.0334  -0.0677   0.0915   0.00    0.0
2026/01/15 00:38:00.000   67.857342227   20.968558207   378.1594   6  31   0.1123   0.0882   0.2623  -0.0333  -0.0672   0.0908   0.00    0.0
2026/01/15 00:38:30.000   67.857342412   20.968558065   378.2219   6  31   0.1116   0.0876   0.2603  -0.0333  -0.0668   0.0902   0.00    0.0
2026/01/15 00:39:00.000   67.857342599   20.968557893   378.2822   6  31   0.1108   0.0870   0.2585  -0.0332  -0.0663   0.0895   0.00    0.0
2026/01/15 00:39:30.000   67.857342775   20.968557746   378.3381   6  31   0.1101   0.0865   0.2566  -0.0331  -0.0659   0.0888   0.00    0.0
2026/01/15 00:40:00.000   67.857342933   20.968557625   378.3981   6  31   0.1095   0.0859   0.2548  -0.0331  -0.0654   0.0881   0.00    0.0
2026/01/15 00:40:30.000   67.857343093   20.968557514   378.4598   6  31   0.1088   0.0854   0.2530  -0.0330  -0.0650   0.0874   0.00    0.0
2026/01/15 00:41:00.000   67.857343251   20.968557378   378.5221   6  31   0.1081   0.0848   0.2512  -0.0330  -0.0646   0.0868   0.00    0.0
2026/01/15 00:41:30.000   67.857343432   20.968557250   378.5867   6  31   0.1075   0.0843   0.2495  -0.0329  -0.0641   0.0861   0.00    0.0
2026/01/15 00:42:00.000   67.857343599   20.968557116   378.6521   6  31   0.1068   0.0838   0.2478  -0.0328  -0.0637   0.0855   0.00    0.0
2026/01/15 00:42:30.000   67.857343764   20.968556934   378.7078   6  31   0.1062   0.0833   0.2461  -0.0328  -0.0633   0.0849   0.00    0.0
2026/01/15 00:43:00.000   67.857343926   20.968556732   378.7627   6  31   0.1056   0.0828   0.2446  -0.0327  -0.0629   0.0843   0.00    0.0
2026/01/15 00:43:30.000   67.857344091   20.968556606   378.8183   6  31   0.1050   0.0823   0.2430  -0.0326  -0.0624   0.0838   0.00    0.0
2026/01/15 00:44:00.000   67.857344248   20.968556427   378.8727   6  31   0.1044   0.0818   0.2414  -0.0325  -0.0620   0.0832   0.00    0.0
2026/01/15 00:44:30.000   67.857344433   20.968556253   378.9215   6  32   0.1038   0.0813   0.2399  -0.0325  -0.0616   0.0827   0.00    0.0
2026/01/15 00:45:00.000   67.857344620   20.968556043   378.9714   6  32   0.1032   0.0809   0.2383  -0.0324  -0.0612   0.0822   0.00    0.0
2026/01/15 00:45:30.000   67.857344804   20.968555855   379.0227   6  32   0.1027   0.0804   0.2368  -0.0323  -0.0609   0.0817   0.00    0.0
2026/01/15 00:46:00.000   67.857344995   20.968555693   379.0714   6  32   0.1021   0.0799   0.2353  -0.0322  -0.0605   0.0812   0.00    0.0
2026/01/15 00:46:30.000   67.857345222   20.968555463   379.1256   6  31   0.1016   0.0795   0.2340  -0.0321  -0.0602   0.0808   0.00    0.0
2026/01/15 00:47:00.000   67.857345462   20.968555230   379.1810   6  31   0.1011   0.0790   0.2326  -0.0321  -0.0598   0.0804   0.00    0.0
2026/01/15 00:47:30.000   67.857345716   20.968554974   379.2400   6  30   0.1006   0.0786   0.2314  -0.0320  -0.0595   0.0800   0.00    0.0
2026/01/15 00:48:00.000   67.857345954   20.968554709   379.2976   6  31   0.1000   0.0782   0.2300  -0.0320  -0.0591   0.0796   0.00    0.0
2026/01/15 00:48:30.000   67.857346195   20.968554413   379.3546   6  31   0.0995   0.0778   0.2287  -0.0319  -0.0588   0.0791   0.00    0.0
2026/01/15 00:49:00.000   67.857346433   20.968554104   379.4169   6  30   0.0991   0.0774   0.2274  -0.0319  -0.0584   0.0786   0.00    0.0
2026/01/15 00:49:30.000   67.857346680   20.968553802   379.4773   6  30   0.0986   0.0770   0.2261  -0.0318  -0.0581   0.0781   0.00    0.0
2026/01/15 00:50:00.000   67.857346920   20.968553500   379.5341   6  30   0.0981   0.0766   0.2249  -0.0318  -0.0578   0.0777   0.00    0.0
2026/01/15 00:50:30.000   67.857347164   20.968553194   379.5952   6  30   0.0976   0.0762   0.2237  -0.0317  -0.0574   0.0772   0.00    0.0
2026/01/15 00:51:00.000   67.857347411   20.968552902   379.6586   6  30   0.0972   0.0758   0.2224  -0.0317  -0.0571   0.0767   0.00    0.0
2026/01/15 00:51:30.000   67.857347649   20.968552606   379.7161   6  29   0.0967   0.0754   0.2213  -0.0316  -0.0567   0.0763   0.00    0.0
2026/01/15 00:52:00.000   67.857347885   20.968552271   379.7785   6  30   0.0963   0.0750   0.2201  -0.0315  -0.0564   0.0758   0.00    0.0
2026/01/15 00:52:30.000   67.857348134   20.968551948   379.8400   6  30   0.0958   0.0746   0.2189  -0.0315  -0.0560   0.0754   0.00    0.0
2026/01/15 00:53:00.000   67.857348386   20.968551648   379.9022   6  30   0.0954   0.0743   0.2177  -0.0314  -0.0557   0.0749   0.00    0.0
2026/01/15 00:53:30.000   67.857348630   20.968551374   379.9613   6  30   0.0950   0.0739   0.2165  -0.0313  -0.0553   0.0745   0.00    0.0
2026/01/15 00:54:00.000   67.857348884   20.968551113   380.0206   6  30   0.0945   0.0735   0.2154  -0.0312  -0.0550   0.0740   0.00    0.0
2026/01/15 00:54:30.000   67.857349133   20.968550856   380.0806   6  30   0.0941   0.0732   0.2142  -0.0312  -0.0546   0.0735   0.00    0.0
2026/01/15 00:55:00.000   67.857349369   20.968550637   380.1401   6  30   0.0937   0.0728   0.2131  -0.0311  -0.0543   0.0731   0.00    0.0
2026/01/15 00:55:30.000   67.857349607   20.968550406   380.1996   6  30   0.0933   0.0725   0.2120  -0.0310  -0.0539   0.0726   0.00    0.0
2026/01/15 00:56:00.000   67.857349845   20.968550211   380.2601   6  30   0.0929   0.0721   0.2108  -0.0309  -0.0536   0.0722   0.00    0.0
2026/01/15 00:56:30.000   67.857350077   20.968550018   380.3172   6  30   0.0925   0.0718   0.2097  -0.0309  -0.0533   0.0717   0.00    0.0
2026/01/15 00:57:00.000   67.857350329   20.968549781   380.3775   6  29   0.0921   0.0715   0.2087  -0.0308  -0.0529   0.0712   0.00    0.0
2026/01/15 00:57:30.000   67.857350588   20.968549558   380.4421   6  28   0.0917   0.0711   0.2076  -0.0307  -0.0526   0.0708   0.00    0.0
2026/01/15 00:58:00.000   67.857350830   20.968549386   380.5069   6  28   0.0913   0.0708   0.2066  -0.0306  -0.0522   0.0703   0.00    0.0
2026/01/15 00:58:30.000   67.857351074   20.968549234   380.5709   6  28   0.0909   0.0705   0.2056  -0.0306  -0.0519   0.0699   0.00    0.0
2026/01/15 00:59:00.000   67.857351314   20.968549084   380.6364   6  28   0.0905   0.0702   0.2046  -0.0305  -0.0515   0.0694   0.00    0.0
2026/01/15 00:59:30.000   67.857351545   20.968548940   380.6982   6  28   0.0902   0.0699   0.2036  -0.0304  -0.0512   0.0690   0.00    0.0
2026/01/15 01:00:00.000   67.857351710   20.968548776   380.7429   6  28   0.0898   0.0696   0.2027  -0.0303  -0.0508   0.0686   0.00    0.0
2026/01/15 01:00:30.000   67.857351860   20.968548592   380.7866   6  28   0.0895   0.0693   0.2018  -0.0303  -0.0505   0.0683   0.00    0.0
2026/01/15 01:01:00.000   67.857352026   20.968548391   380.8327   6  27   0.0892   0.0690   0.2009  -0.0302  -0.0502   0.0679   0.00    0.0
2026/01/15 01:01:30.000   67.857352188   20.968548210   380.8726   6  27   0.0888   0.0687   0.2001  -0.0301  -0.0498   0.0675   0.00    0.0
2026/01/15 01:02:00.000   67.857352344   20.968547965   380.9099   6  26   0.0885   0.0684   0.1992  -0.0300  -0.0495   0.0672   0.00    0.0
2026/01/15 01:02:30.000   67.857352502   20.968547700   380.9513   6  26   0.0882   0.0681   0.1984  -0.0300  -0.0492   0.0669   0.00    0.0
2026/01/15 01:03:00.000   67.857352654   20.968547422   380.9988   6  27   0.0879   0.0678   0.1975  -0.0299  -0.0488   0.0665   0.00    0.0
2026/01/15 01:03:30.000   67.857352812   20.968547125   381.0441   6  27   0.0876   0.0675   0.1966  -0.0298  -0.0484   0.0662   0.00    0.0
2026/01/15 01:04:00.000   67.857352978   20.968546867   381.0882   6  27   0.0873   0.0673   0.1958  -0.0297  -0.0481   0.0658   0.00    0.0
2026/01/15 01:04:30.000   67.857353144   20.968546579   381.1354   6  27   0.0870   0.0670   0.1949  -0.0296  -0.0477   0.0655   0.00    0.0
2026/01/15 01:05:00.000   67.857353322   20.968546397   381.1848   6  28   0.0866   0.0667   0.1940  -0.0296  -0.0474   0.0651   0.00    0.0
2026/01/15 01:05:30.000   67.857353493   20.968546121   381.2332   6  27   0.0863   0.0664   0.1932  -0.0295  -0.0470   0.0648   0.00    0.0
2026/01/15 01:06:00.000   67.857353665   20.968545839   381.2804   6  27   0.0860   0.0662   0.1924  -0.0294  -0.0466   0.0644   0.00    0.0
2026/01/15 01:06:30.000   67.857353833   20.968545552   381.3296   6  27   0.0857   0.0659   0.1915  -0.0293  -0.0463   0.0641   0.00    0.0
2026/01/15 01:07:00.000   67.857354023   20.968545355   381.3828   6  28   0.0854   0.0656   0.1907  -0.0293  -0.0460   0.0638   0.00    0.0
2026/01/15 01:07:30.000   67.857354210   20.968545151   381.4359   6  28   0.0852   0.0654   0.1899  -0.0292  -0.0456   0.0634   0.00    0.0
2026/01/15 01:08:00.000   67.857354401   20.968544934   381.4882   6  28   0.0849   0.0651   0.1891  -0.0291  -0.0453   0.0631   0.00    0.0
2026/01/15 01:08:30.000   67.857354591   20.968544721   381.5393   6  28   0.0846   0.0648   0.1883  -0.0291  -0.0450   0.0628   0.00    0.0
2026/01/15 01:09:00.000   67.857354779   20.968544521   381.5911   6  28   0.0843   0.0646   0.1874  -0.0290  -0.0447   0.0624   0.00    0.0
2026/01/15 01:09:30.000   67.857354963   20.968544318   381.6443   6  28   0.0840   0.0643   0.1866  -0.0290  -0.0444   0.0621   0.00    0.0
2026/01/15 01:10:00.000   67.857355149   20.968544115   381.6980   6  28   0.0837   0.0641   0.1859  -0.0289  -0.0441   0.0618   0.00    0.0
2026/01/15 01:10:30.000   67.857355333   20.968543895   381.7525   6  28   0.0835   0.0638   0.1851  -0.0288  -0.0438   0.0614   0.00    0.0
2026/01/15 01:11:00.000   67.857355512   20.968543687   381.8058   6  28   0.0832   0.0636   0.1843  -0.0288  -0.0435   0.0611   0.00    0.0
2026/01/15 01:11:30.000   67.857355692   20.968543469   381.8562   6  28   0.0829   0.0633   0.1835  -0.0287  -0.0432   0.0608   0.00    0.0
2026/01/15 01:12:00.000   67.857355880   20.968543280   381.9062   6  28   0.0826   0.0631   0.1827  -0.0286  -0.0429   0.0605   0.00    0.0
2026/01/15 01:12:30.000   67.857356063   20.968543077   381.9584   6  28   0.0824   0.0628   0.1820  -0.0286  -0.0426   0.0602   0.00    0.0
2026/01/15 01:13:00.000   67.857356243   20.968542881   382.0095   6  28   0.0821   0.0626   0.1812  -0.0285  -0.0423   0.0598   0.00    0.0
2026/01/15 01:13:30.000   67.857356422   20.968542680   382.0624   6  28   0.0818   0.0624   0.1805  -0.0285  -0.0420   0.0595   0.00    0.0
2026/01/15 01:14:00.000   67.857356601   20.968542468   382.1144   6  28   0.0816   0.0621   0.1797  -0.0284  -0.0417   0.0592   0.00    0.0
2026/01/15 01:14:30.000   67.857356781   20.968542256   382.1659   6  29   0.0813   0.0619   0.1790  -0.0283  -0.0414   0.0589   0.00    0.0
2026/01/15 01:15:00.000   67.857356968   20.968542044   382.2180   6  29   0.0810   0.0617   0.1782  -0.0283  -0.0411   0.0585   0.00    0.0
2026/01/15 01:15:30.000   67.857357156   20.968541842   382.2709   6  29   0.0808   0.0614   0.1774  -0.0282  -0.0408   0.0582   0.00    0.0
2026/01/15 01:16:00.000   67.857357340   20.968541639   382.3238   6  29   0.0805   0.0612   0.1767  -0.0281  -0.0404   0.0579   0.00    0.0
2026/01/15 01:16:30.000   67.857357517   20.968541437   382.3750   6  29   0.0803   0.0610   0.1759  -0.0280  -0.0401   0.0576   0.00    0.0
2026/01/15 01:17:00.000   67.857357702   20.968541219   382.4259   6  29   0.0800   0.0607   0.1752  -0.0280  -0.0398   0.0572   0.00    0.0
2026/01/15 01:17:30.000   67.857357875   20.968540999   382.4770   6  29   0.0798   0.0605   0.1745  -0.0279  -0.0395   0.0569   0.00    0.0
2026/01/15 01:18:00.000   67.857358061   20.968540780   382.5301   6  29   0.0795   0.0603   0.1738  -0.0278  -0.0392   0.0566   0.00    0.0
2026/01/15 01:18:30.000   67.857358240   20.968540583   382.5815   6  29   0.0793   0.0601   0.1730  -0.0278  -0.0389   0.0563   0.00    0.0
2026/01/15 01:19:00.000   67.857358414   20.968540376   382.6323   6  29   0.0790   0.0599   0.1723  -0.0277  -0.0387   0.0559   0.00    0.0
2026/01/15 01:19:30.000   67.857358585   20.968540098   382.6818   6  28   0.0788   0.0597   0.1716  -0.0276  -0.0383   0.0556   0.00    0.0
2026/01/15 01:20:00.000   67.857358761   20.968539886   382.7326   6  29   0.0785   0.0594   0.1709  -0.0276  -0.0381   0.0553   0.00    0.0
2026/01/15 01:20:30.000   67.857358939   20.968539660   382.7825   6  31   0.0783   0.0592   0.1702  -0.0275  -0.0378   0.0550   0.00    0.0
2026/01/15 01:21:00.000   67.857359117   20.968539435   382.8309   6  31   0.0780   0.0590   0.1694  -0.0274  -0.0375   0.0547   0.00    0.0
2026/01/15 01:21:30.000   67.857359306   20.968539216   382.8807   6  31   0.0778   0.0588   0.1687  -0.0273  -0.0372   0.0545   0.00    0.0
2026/01/15 01:22:00.000   67.857359488   20.968538984   382.9297   6  31   0.0776   0.0586   0.1680  -0.0273  -0.0369   0.0542   0.00    0.0
2026/01/15 01:22:30.000   67.857359674   20.968538752   382.9790   6  31   0.0773   0.0584   0.1673  -0.0272  -0.0366   0.0539   0.00    0.0
2026/01/15 01:23:00.000   67.857359856   20.968538526   383.0261   6  31   0.0771   0.0582   0.1666  -0.0271  -0.0363   0.0536   0.00    0.0
2026/01/15 01:23:30.000   67.857360039   20.968538317   383.0731   6  31   0.0768   0.0580   0.1659  -0.0271  -0.0361   0.0534   0.00    0.0
2026/01/15 01:24:00.000   67.857360221   20.968538091   383.1212   6  31   0.0766   0.0578   0.1652  -0.0270  -0.0358   0.0531   0.00    0.0
2026/01/15 01:24:30.000   67.857360393   20.968537870   383.1678   6  31   0.0764   0.0576   0.1645  -0.0269  -0.0355   0.0528   0.00    0.0
2026/01/15 01:25:00.000   67.857360566   20.968537631   383.2185   6  30   0.0761   0.0574   0.1638  -0.0269  -0.0352   0.0525   0.00    0.0
2026/01/15 01:25:30.000   67.857360726   20.968537429   383.2649   6  30   0.0759   0.0572   0.1631  -0.0268  -0.0350   0.0523   0.00    0.0
2026/01/15 01:26:00.000   67.857360884   20.968537199   383.3109   6  29   0.0757   0.0570   0.1625  -0.0267  -0.0347   0.0520   0.00    0.0
2026/01/15 01:26:30.000   67.857361037   20.968536993   383.3555   6  29   0.0755   0.0568   0.1619  -0.0267  -0.0345   0.0518   0.00    0.0
2026/01/15 01:27:00.000   67.857361196   20.968536782   383.4004   6  29   0.0753   0.0566   0.1613  -0.0266  -0.0342   0.0516   0.00    0.0
2026/01/15 01:27:30.000   67.857361351   20.968536576   383.4453   6  29   0.0751   0.0564   0.1607  -0.0265  -0.0340   0.0513   0.00    0.0
2026/01/15 01:28:00.000   67.857361510   20.968536347   383.4903   6  29   0.0749   0.0562   0.1601  -0.0265  -0.0338   0.0511   0.00    0.0
2026/01/15 01:28:30.000   67.857361661   20.968536148   383.5340   6  29   0.0747   0.0560   0.1595  -0.0264  -0.0335   0.0509   0.00    0.0
2026/01/15 01:29:00.000   67.857361818   20.968535922   383.5802   6  29   0.0745   0.0558   0.1590  -0.0263  -0.0333   0.0507   0.00    0.0
2026/01/15 01:29:30.000   67.857361974   20.968535710   383.6239   6  29   0.0743   0.0557   0.1584  -0.0263  -0.0330   0.0504   0.00    0.0
2026/01/15 01:30:00.000   67.857362126   20.968535484   383.6682   6  29   0.0741   0.0555   0.1578  -0.0262  -0.0328   0.0502   0.00    0.0
2026/01/15 01:30:30.000   67.857362278   20.968535262   383.7114   6  29   0.0739   0.0553   0.1572  -0.0261  -0.0326   0.0500   0.00    0.0
2026/01/15 01:31:00.000   67.857362429   20.968535053   383.7532   6  29   0.0737   0.0551   0.1566  -0.0261  -0.0323   0.0498   0.00    0.0
2026/01/15 01:31:30.000   67.857362582   20.968534837   383.7958   6  29   0.0735   0.0550   0.1561  -0.0260  -0.0321   0.0496   0.00    0.0
2026/01/15 01:32:00.000   67.857362733   20.968534608   383.8386   6  29   0.0733   0.0548   0.1555  -0.0260  -0.0319   0.0494   0.00    0.0
2026/01/15 01:32:30.000   67.857362881   20.968534383   383.8805   6  29   0.0731   0.0546   0.1549  -0.0259  -0.0317   0.0491   0.00    0.0
2026/01/15 01:33:00.000   67.857363032   20.968534166   383.9218   6  29   0.0729   0.0544   0.1544  -0.0258  -0.0315   0.0489   0.00    0.0
2026/01/15 01:33:30.000   67.857363182   20.968533943   383.9647   6  29   0.0727   0.0543   0.1538  -0.0258  -0.0312   0.0487   0.00    0.0
2026/01/15 01:34:00.000   67.857363329   20.968533720   384.0077   6  29   0.0725   0.0541   0.1533  -0.0257  -0.0310   0.0485   0.00    0.0
2026/01/15 01:34:30.000   67.857363477   20.968533516   384.0502   6  29   0.0723   0.0539   0.1527  -0.0257  -0.0308   0.0483   0.00    0.0
2026/01/15 01:35:00.000   67.857363623   20.968533295   384.0933   6  29   0.0721   0.0538   0.1522  -0.0256  -0.0306   0.0481   0.00    0.0
2026/01/15 01:35:30.000   67.857363758   20.968533107   384.1341   6  29   0.0719   0.0536   0.1516  -0.0256  -0.0304   0.0479   0.00    0.0
2026/01/15 01:36:00.000   67.857363900   20.968532888   384.1762   6  29   0.0717   0.0534   0.1511  -0.0255  -0.0302   0.0477   0.00    0.0
2026/01/15 01:36:30.000   67.857364042   20.968532681   384.2171   6  29   0.0715   0.0533   0.1506  -0.0255  -0.0300   0.0475   0.00    0.0
2026/01/15 01:37:00.000   67.857364182   20.968532451   384.2591   6  29   0.0713   0.0531   0.1500  -0.0254  -0.0298   0.0473   0.00    0.0
2026/01/15 01:37:30.000   67.857364317   20.968532217   384.3001   6  29   0.0712   0.0530   0.1495  -0.0253  -0.0296   0.0471   0.00    0.0
2026/01/15 01:38:00.000   67.857364455   20.968532010   384.3422   6  29   0.0710   0.0528   0.1490  -0.0253  -0.0294   0.0469   0.00    0.0
2026/01/15 01:38:30.000   67.857364591   20.968531787   384.3841   6  29   0.0708   0.0526   0.1484  -0.0252  -0.0292   0.0466   0.00    0.0
2026/01/15 01:39:00.000   67.857364725   20.968531563   384.4263   6  29   0.0706   0.0525   0.1479  -0.0252  -0.0290   0.0464   0.00    0.0
2026/01/15 01:39:30.000   67.857364861   20.968531331   384.4673   6  29   0.0704   0.0523   0.1474  -0.0251  -0.0288   0.0463   0.00    0.0
2026/01/15 01:40:00.000   67.857364993   20.968531111   384.5075   6  29   0.0703   0.0522   0.1469  -0.0251  -0.0286   0.0461   0.00    0.0
2026/01/15 01:40:30.000   67.857365128   20.968530874   384.5481   6  29   0.0701   0.0520   0.1464  -0.0250  -0.0284   0.0459   0.00    0.0
2026/01/15 01:41:00.000   67.857365255   20.968530644   384.5879   6  29   0.0699   0.0519   0.1459  -0.0250  -0.0282   0.0457   0.00    0.0
2026/01/15 01:41:30.000   67.857365383   20.968530430   384.6281   6  29   0.0697   0.0517   0.1454  -0.0249  -0.0280   0.0455   0.00    0.0
2026/01/15 01:42:00.000   67.857365514   20.968530205   384.6681   6  29   0.0695   0.0516   0.1449  -0.0249  -0.0278   0.0453   0.00    0.0
2026/01/15 01:42:30.000   67.857365645   20.968529984   384.7085   6  29   0.0694   0.0514   0.1444  -0.0248  -0.0276   0.0451   0.00    0.0
2026/01/15 01:43:00.000   67.857365769   20.968529761   384.7493   6  29   0.0692   0.0513   0.1439  -0.0248  -0.0274   0.0449   0.00    0.0
2026/01/15 01:43:30.000   67.857365892   20.968529547   384.7901   6  29   0.0690   0.0511   0.1434  -0.0248  -0.0273   0.0447   0.00    0.0
2026/01/15 01:44:00.000   67.857366012   20.968529337   384.8299   6  29   0.0689   0.0510   0.1429  -0.0247  -0.0271   0.0445   0.00    0.0
2026/01/15 01:44:30.000   67.857366133   20.968529120   384.8702   6  29   0.0687   0.0509   0.1424  -0.0247  -0.0269   0.0443   0.00    0.0
2026/01/15 01:45:00.000   67.857366255   20.968528905   384.9103   6  29   0.0685   0.0507   0.1419  -0.0246  -0.0267   0.0442   0.00    0.0
2026/01/15 01:45:30.000   67.857366377   20.968528693   384.9504   6  29   0.0683   0.0506   0.1414  -0.0246  -0.0265   0.0440   0.00    0.0
2026/01/15 01:46:00.000   67.857366493   20.968528483   384.9907   6  29   0.0682   0.0504   0.1409  -0.0245  -0.0264   0.0438   0.00    0.0
2026/01/15 01:46:30.000   67.857366613   20.968528262   385.0303   6  29   0.0680   0.0503   0.1404  -0.0245  -0.0262   0.0436   0.00    0.0
2026/01/15 01:47:00.000   67.857366725   20.968528051   385.0684   6  29   0.0679   0.0502   0.1400  -0.0244  -0.0260   0.0434   0.00    0.0
2026/01/15 01:47:30.000   67.857366837   20.968527831   385.1055   6  29   0.0677   0.0500   0.1395  -0.0244  -0.0259   0.0432   0.00    0.0
2026/01/15 01:48:00.000   67.857366946   20.968527627   385.1435   6  29   0.0675   0.0499   0.1390  -0.0243  -0.0257   0.0431   0.00    0.0
2026/01/15 01:48:30.000   67.857367057   20.968527411   385.1806   6  29   0.0674   0.0498   0.1386  -0.0243  -0.0255   0.0429   0.00    0.0
2026/01/15 01:49:00.000   67.857367169   20.968527196   385.2176   6  29   0.0672   0.0496   0.1381  -0.0243  -0.0254   0.0427   0.00    0.0
2026/01/15 01:49:30.000   67.857367287   20.968526984   385.2534   6  30   0.0670   0.0495   0.1376  -0.0242  -0.0252   0.0426   0.00    0.0
2026/01/15 01:50:00.000   67.857367405   20.968526779   385.2895   6  30   0.0669   0.0494   0.1371  -0.0242  -0.0251   0.0424   0.00    0.0
2026/01/15 01:50:30.000   67.857367524   20.968526570   385.3254   6  30   0.0667   0.0492   0.1367  -0.0241  -0.0249   0.0423   0.00    0.0
2026/01/15 01:51:00.000   67.857367647   20.968526362   385.3611   6  30   0.0666   0.0491   0.1362  -0.0241  -0.0247   0.0421   0.00    0.0
2026/01/15 01:51:30.000   67.857367766   20.968526146   385.3970   6  30   0.0664   0.0490   0.1358  -0.0240  -0.0246   0.0420   0.00    0.0
2026/01/15 01:52:00.000   67.857367889   20.968525932   385.4313   6  30   0.0662   0.0488   0.1353  -0.0240  -0.0244   0.0418   0.00    0.0
2026/01/15 01:52:30.000   67.857368008   20.968525719   385.4675   6  30   0.0661   0.0487   0.1348  -0.0240  -0.0243   0.0417   0.00    0.0
2026/01/15 01:53:00.000   67.857368125   20.968525508   385.5024   6  30   0.0659   0.0486   0.1344  -0.0239  -0.0241   0.0415   0.00    0.0
2026/01/15 01:53:30.000   67.857368243   20.968525294   385.5370   6  30   0.0658   0.0485   0.1339  -0.0239  -0.0240   0.0414   0.00    0.0
2026/01/15 01:54:00.000   67.857368359   20.968525083   385.5719   6  30   0.0656   0.0483   0.1335  -0.0238  -0.0239   0.0412   0.00    0.0
2026/01/15 01:54:30.000   67.857368475   20.968524850   385.6060   6  30   0.0655   0.0482   0.1330  -0.0238  -0.0237   0.0411   0.00    0.0
2026/01/15 01:55:00.000   67.857368598   20.968524627   385.6398   6  30   0.0653   0.0481   0.1326  -0.0238  -0.0236   0.0409   0.00    0.0
2026/01/15 01:55:30.000   67.857368714   20.968524404   385.6741   6  30   0.0652   0.0480   0.1321  -0.0237  -0.0234   0.0408   0.00    0.0
2026/01/15 01:56:00.000   67.857368828   20.968524181   385.7083   6  30   0.0650   0.0479   0.1317  -0.0237  -0.0233   0.0406   0.00    0.0
2026/01/15 01:56:30.000   67.857368943   20.968523967   385.7432   6  30   0.0648   0.0477   0.1313  -0.0236  -0.0232   0.0405   0.00    0.0
2026/01/15 01:57:00.000   67.857369057   20.968523746   385.7774   6  30   0.0647   0.0476   0.1308  -0.0236  -0.0230   0.0404   0.00    0.0
2026/01/15 01:57:30.000   67.857369175   20.968523506   385.8077   6  31   0.0646   0.0475   0.1304  -0.0236  -0.0229   0.0402   0.00    0.0
2026/01/15 01:58:00.000   67.857369294   20.968523266   385.8381   6  31   0.0644   0.0474   0.1300  -0.0235  -0.0228   0.0401   0.00    0.0
2026/01/15 01:58:30.000   67.857369408   20.968523020   385.8688   6  31   0.0643   0.0473   0.1295  -0.0235  -0.0227   0.0400   0.00    0.0
2026/01/15 01:59:00.000   67.857369521   20.968522773   385.8981   6  31   0.0641   0.0471   0.1291  -0.0234  -0.0226   0.0398   0.00    0.0
2026/01/15 01:59:30.000   67.857369632   20.968522526   385.9272   6  31   0.0640   0.0470   0.1287  -0.0234  -0.0225   0.0397   0.00    0.0
2026/01/15 02:00:00.000   67.857369742   20.968522277   385.9567   6  31   0.0638   0.0469   0.1282  -0.0233  -0.0223   0.0396   0.00    0.0
2026/01/15 02:00:30.000   67.857369861   20.968522026   385.9857   6  31   0.0637   0.0468   0.1278  -0.0233  -0.0222   0.0395   0.00    0.0
2026/01/15 02:01:00.000   67.857369973   20.968521783   386.0152   6  31   0.0635   0.0467   0.1274  -0.0233  -0.0221   0.0393   0.00    0.0
2026/01/15 02:01:30.000   67.857370082   20.968521546   386.0447   6  31   0.0634   0.0466   0.1270  -0.0232  -0.0220   0.0392   0.00    0.0
2026/01/15 02:02:00.000   67.857370194   20.968521299   386.0732   6  31   0.0632   0.0465   0.1265  -0.0232  -0.0219   0.0391   0.00    0.0
2026/01/15 02:02:30.000   67.857370300   20.968521076   386.0988   6  32   0.0631   0.0463   0.1261  -0.0231  -0.0218   0.0390   0.00    0.0
2026/01/15 02:03:00.000   67.857370411   20.968520849   386.1245   6  33   0.0630   0.0462   0.1257  -0.0231  -0.0217   0.0389   0.00    0.0
2026/01/15 02:03:30.000   67.857370523   20.968520619   386.1492   6  33   0.0628   0.0461   0.1253  -0.0230  -0.0216   0.0387   0.00    0.0
2026/01/15 02:04:00.000   67.857370634   20.968520391   386.1738   6  33   0.0627   0.0460   0.1248  -0.0230  -0.0215   0.0386   0.00    0.0
2026/01/15 02:04:30.000   67.857370749   20.968520155   386.1985   6  33   0.0625   0.0459   0.1244  -0.0230  -0.0214   0.0385   0.00    0.0
2026/01/15 02:05:00.000   67.857370858   20.968519923   386.2230   6  33   0.0624   0.0458   0.1240  -0.0229  -0.0212   0.0384   0.00    0.0
2026/01/15 02:05:30.000   67.857370967   20.968519664   386.2427   6  35   0.0623   0.0457   0.1236  -0.0229  -0.0212   0.0383   0.00    0.0
2026/01/15 02:06:00.000   67.857371074   20.968519399   386.2631   6  35   0.0621   0.0456   0.1232  -0.0228  -0.0211   0.0382   0.00    0.0
2026/01/15 02:06:30.000   67.857371180   20.968519136   386.2818   6  35   0.0620   0.0454   0.1227  -0.0228  -0.0210   0.0381   0.00    0.0
2026/01/15 02:07:00.000   67.857371282   20.968518868   386.3018   6  35   0.0619   0.0453   0.1223  -0.0228  -0.0209   0.0380   0.00    0.0
2026/01/15 02:07:30.000   67.857371384   20.968518601   386.3222   6  35   0.0617   0.0452   0.1219  -0.0227  -0.0208   0.0378   0.00    0.0
2026/01/15 02:08:00.000   67.857371490   20.968518333   386.3414   6  35   0.0616   0.0451   0.1215  -0.0227  -0.0207   0.0377   0.00    0.0
2026/01/15 02:08:30.000   67.857371577   20.968518069   386.3566   6  36   0.0615   0.0450   0.1211  -0.0226  -0.0207   0.0376   0.00    0.0
2026/01/15 02:09:00.000   67.857371663   20.968517818   386.3724   6  36   0.0613   0.0449   0.1206  -0.0226  -0.0206   0.0375   0.00    0.0
2026/01/15 02:09:30.000   67.857371742   20.968517558   386.3852   6  35   0.0612   0.0448   0.1202  -0.0225  -0.0205   0.0374   0.00    0.0
2026/01/15 02:10:00.000   67.857371821   20.968517299   386.3993   6  35   0.0611   0.0447   0.1198  -0.0225  -0.0204   0.0373   0.00    0.0
2026/01/15 02:10:30.000   67.857371895   20.968517037   386.4118   6  35   0.0609   0.0446   0.1195  -0.0225  -0.0203   0.0372   0.00    0.0
2026/01/15 02:11:00.000   67.857371951   20.968516795   386.4219   6  36   0.0608   0.0445   0.1190  -0.0224  -0.0203   0.0370   0.00    0.0
2026/01/15 02:11:30.000   67.857372029   20.968516539   386.4351   6  35   0.0607   0.0444   0.1187  -0.0224  -0.0202   0.0369   0.00    0.0
2026/01/15 02:12:00.000   67.857372097   20.968516284   386.4438   6  34   0.0605   0.0443   0.1183  -0.0223  -0.0201   0.0369   0.00    0.0
2026/01/15 02:12:30.000   67.857372162   20.968516033   386.4527   6  34   0.0604   0.0442   0.1180  -0.0223  -0.0201   0.0368   0.00    0.0
2026/01/15 02:13:00.000   67.857372226   20.968515779   386.4623   6  34   0.0603   0.0441   0.1176  -0.0223  -0.0200   0.0367   0.00    0.0
2026/01/15 02:13:30.000   67.857372290   20.968515531   386.4711   6  34   0.0602   0.0440   0.1173  -0.0222  -0.0200   0.0367   0.00    0.0
2026/01/15 02:14:00.000   67.857372351   20.968515271   386.4790   6  34   0.0601   0.0439   0.1169  -0.0222  -0.0199   0.0366   0.00    0.0
2026/01/15 02:14:30.000   67.857372412   20.968515020   386.4878   6  35   0.0599   0.0438   0.1166  -0.0222  -0.0199   0.0365   0.00    0.0
2026/01/15 02:15:00.000   67.857372473   20.968514775   386.4970   6  35   0.0598   0.0437   0.1162  -0.0221  -0.0199   0.0364   0.00    0.0
2026/01/15 02:15:30.000   67.857372534   20.968514528   386.5068   6  35   0.0597   0.0436   0.1159  -0.0221  -0.0198   0.0364   0.00    0.0
2026/01/15 02:16:00.000   67.857372591   20.968514287   386.5161   6  35   0.0596   0.0435   0.1155  -0.0221  -0.0198   0.0363   0.00    0.0
2026/01/15 02:16:30.000   67.857372653   20.968514032   386.5249   6  35   0.0594   0.0434   0.1152  -0.0220  -0.0197   0.0362   0.00    0.0
2026/01/15 02:17:00.000   67.857372714   20.968513790   386.5339   6  35   0.0593   0.0433   0.1148  -0.0220  -0.0197   0.0362   0.00    0.0
2026/01/15 02:17:30.000   67.857372776   20.968513552   386.5435   6  35   0.0592   0.0432   0.1145  -0.0219  -0.0197   0.0361   0.00    0.0
2026/01/15 02:18:00.000   67.857372836   20.968513317   386.5534   6  35   0.0591   0.0431   0.1142  -0.0219  -0.0196   0.0360   0.00    0.0
2026/01/15 02:18:30.000   67.857372897   20.968513075   386.5631   6  35   0.0590   0.0430   0.1138  -0.0219  -0.0196   0.0360   0.00    0.0
2026/01/15 02:19:00.000   67.857372933   20.968512851   386.5688   6  36   0.0588   0.0429   0.1135  -0.0218  -0.0196   0.0359   0.00    0.0
2026/01/15 02:19:30.000   67.857372970   20.968512620   386.5732   6  36   0.0587   0.0428   0.1132  -0.0218  -0.0195   0.0358   0.00    0.0
2026/01/15 02:20:00.000   67.857373008   20.968512379   386.5783   6  36   0.0586   0.0427   0.1128  -0.0218  -0.0195   0.0357   0.00    0.0
2026/01/15 02:20:30.000   67.857373041   20.968512147   386.5828   6  36   0.0585   0.0426   0.1125  -0.0217  -0.0194   0.0356   0.00    0.0
2026/01/15 02:21:00.000   67.857373093   20.968511902   386.5914   6  35   0.0584   0.0425   0.1122  -0.0217  -0.0194   0.0356   0.00    0.0
2026/01/15 02:21:30.000   67.857373147   20.968511662   386.6002   6  35   0.0583   0.0424   0.1118  -0.0216  -0.0194   0.0355   0.00    0.0
2026/01/15 02:22:00.000   67.857373204   20.968511421   386.6098   6  35   0.0581   0.0423   0.1115  -0.0216  -0.0193   0.0354   0.00    0.0
2026/01/15 02:22:30.000   67.857373257   20.968511176   386.6189   6  35   0.0580   0.0422   0.1112  -0.0216  -0.0193   0.0353   0.00    0.0
2026/01/15 02:23:00.000   67.857373284   20.968510952   386.6219   6  36   0.0579   0.0421   0.1109  -0.0215  -0.0193   0.0353   0.00    0.0
2026/01/15 02:23:30.000   67.857373317   20.968510716   386.6265   6  36   0.0578   0.0420   0.1105  -0.0215  -0.0192   0.0352   0.00    0.0
2026/01/15 02:24:00.000   67.857373370   20.968510467   386.6347   6  35   0.0577   0.0419   0.1102  -0.0215  -0.0192   0.0351   0.00    0.0
2026/01/15 02:24:30.000   67.857373421   20.968510223   386.6441   6  35   0.0576   0.0418   0.1099  -0.0214  -0.0191   0.0350   0.00    0.0
2026/01/15 02:25:00.000   67.857373472   20.968509970   386.6534   6  35   0.0575   0.0418   0.1096  -0.0214  -0.0191   0.0350   0.00    0.0
2026/01/15 02:25:30.000   67.857373520   20.968509730   386.6624   6  35   0.0573   0.0417   0.1093  -0.0213  -0.0191   0.0349   0.00    0.0
2026/01/15 02:26:00.000   67.857373548   20.968509501   386.6670   6  36   0.0572   0.0416   0.1090  -0.0213  -0.0190   0.0348   0.00    0.0
2026/01/15 02:26:30.000   67.857373602   20.968509252   386.6757   6  35   0.0571   0.0415   0.1087  -0.0213  -0.0190   0.0347   0.00    0.0
2026/01/15 02:27:00.000   67.857373621   20.968509022   386.6820   6  34   0.0570   0.0414   0.1084  -0.0212  -0.0190   0.0346   0.00    0.0
2026/01/15 02:27:30.000   67.857373639   20.968508795   386.6883   6  33   0.0569   0.0413   0.1081  -0.0212  -0.0190   0.0345   0.00    0.0
2026/01/15 02:28:00.000   67.857373655   20.968508564   386.6946   6  33   0.0568   0.0412   0.1078  -0.0211  -0.0189   0.0344   0.00    0.0
2026/01/15 02:28:30.000   67.857373672   20.968508329   386.7009   6  33   0.0567   0.0411   0.1075  -0.0211  -0.0189   0.0343   0.00    0.0
2026/01/15 02:29:00.000   67.857373688   20.968508105   386.7074   6  33   0.0566   0.0410   0.1073  -0.0211  -0.0189   0.0342   0.00    0.0
2026/01/15 02:29:30.000   67.857373704   20.968507879   386.7131   6  32   0.0565   0.0410   0.1070  -0.0210  -0.0189   0.0342   0.00    0.0
2026/01/15 02:30:00.000   67.857373717   20.968507655   386.7182   6  33   0.0564   0.0409   0.1067  -0.0210  -0.0188   0.0341   0.00    0.0
2026/01/15 02:30:30.000   67.857373732   20.968507436   386.7223   6  33   0.0563   0.0408   0.1065  -0.0209  -0.0188   0.0340   0.00    0.0
2026/01/15 02:31:00.000   67.857373747   20.968507217   386.7274   6  33   0.0562   0.0407   0.1062  -0.0209  -0.0188   0.0339   0.00    0.0
2026/01/15 02:31:30.000   67.857373762   20.968506993   386.7327   6  33   0.0560   0.0406   0.1059  -0.0209  -0.0187   0.0338   0.00    0.0
2026/01/15 02:32:00.000   67.857373774   20.968506772   386.7377   6  33   0.0559   0.0405   0.1057  -0.0208  -0.0187   0.0338   0.00    0.0
2026/01/15 02:32:30.000   67.857373784   20.968506552   386.7424   6  33   0.0558   0.0404   0.1054  -0.0208  -0.0187   0.0337   0.00    0.0
2026/01/15 02:33:00.000   67.857373793   20.968506337   386.7484   6  33   0.0557   0.0404   0.1051  -0.0207  -0.0186   0.0336   0.00    0.0
2026/01/15 02:33:30.000   67.857373802   20.968506118   386.7543   6  33   0.0556   0.0403   0.1049  -0.0207  -0.0186   0.0335   0.00    0.0
2026/01/15 02:34:00.000   67.857373808   20.968505910   386.7590   6  32   0.0555   0.0402   0.1046  -0.0207  -0.0186   0.0335   0.00    0.0
2026/01/15 02:34:30.000   67.857373815   20.968505689   386.7628   6  32   0.0554   0.0401   0.1044  -0.0206  -0.0185   0.0334   0.00    0.0
2026/01/15 02:35:00.000   67.857373822   20.968505472   386.7673   6  32   0.0553   0.0400   0.1042  -0.0206  -0.0185   0.0333   0.00    0.0
2026/01/15 02:35:30.000   67.857373832   20.968505250   386.7719   6  32   0.0552   0.0399   0.1039  -0.0205  -0.0185   0.0333   0.00    0.0
2026/01/15 02:36:00.000   67.857373840   20.968505039   386.7759   6  32   0.0551   0.0399   0.1037  -0.0205  -0.0184   0.0332   0.00    0.0
2026/01/15 02:36:30.000   67.857373845   20.968504823   386.7796   6  32   0.0550   0.0398   0.1034  -0.0204  -0.0184   0.0331   0.00    0.0
2026/01/15 02:37:00.000   67.857373879   20.968504594   386.7877   6  31   0.0550   0.0397   0.1032  -0.0204  -0.0184   0.0331   0.00    0.0
2026/01/15 02:37:30.000   67.857373914   20.968504375   386.7961   6  31   0.0549   0.0396   0.1030  -0.0204  -0.0183   0.0330   0.00    0.0
2026/01/15 02:38:00.000   67.857373949   20.968504152   386.8046   6  31   0.0548   0.0395   0.1028  -0.0203  -0.0183   0.0330   0.00    0.0
2026/01/15 02:38:30.000   67.857373982   20.968503924   386.8140   6  31   0.0547   0.0394   0.1025  -0.0203  -0.0183   0.0329   0.00    0.0
2026/01/15 02:39:00.000   67.857373989   20.968503724   386.8187   6  32   0.0546   0.0394   0.1023  -0.0202  -0.0182   0.0329   0.00    0.0
2026/01/15 02:39:30.000   67.857373995   20.968503526   386.8235   6  32   0.0545   0.0393   0.1021  -0.0202  -0.0182   0.0328   0.00    0.0
2026/01/15 02:40:00.000   67.857373999   20.968503322   386.8276   6  32   0.0544   0.0392   0.1018  -0.0201  -0.0182   0.0327   0.00    0.0
2026/01/15 02:40:30.000   67.857374008   20.968503113   386.8318   6  31   0.0543   0.0391   0.1016  -0.0201  -0.0181   0.0326   0.00    0.0
2026/01/15 02:41:00.000   67.857374014   20.968502910   386.8355   6  31   0.0542   0.0390   0.1014  -0.0201  -0.0181   0.0326   0.00    0.0
2026/01/15 02:41:30.000   67.857374020   20.968502705   386.8398   6  31   0.0541   0.0390   0.1012  -0.0200  -0.0181   0.0325   0.00    0.0
2026/01/15 02:42:00.000   67.857374028   20.968502503   386.8440   6  31   0.0540   0.0389   0.1010  -0.0200  -0.0180   0.0324   0.00    0.0
2026/01/15 02:42:30.000   67.857374032   20.968502304   386.8484   6  31   0.0539   0.0388   0.1007  -0.0199  -0.0180   0.0324   0.00    0.0
2026/01/15 02:43:00.000   67.857374036   20.968502099   386.8528   6  31   0.0538   0.0387   0.1005  -0.0199  -0.0180   0.0323   0.00    0.0
2026/01/15 02:43:30.000   67.857374040   20.968501900   386.8573   6  31   0.0537   0.0387   0.1003  -0.0198  -0.0179   0.0322   0.00    0.0
2026/01/15 02:44:00.000   67.857374046   20.968501703   386.8619   6  31   0.0536   0.0386   0.1001  -0.0198  -0.0179   0.0321   0.00    0.0
2026/01/15 02:44:30.000   67.857374050   20.968501501   386.8667   6  31   0.0535   0.0385   0.0999  -0.0197  -0.0179   0.0321   0.00    0.0
2026/01/15 02:45:00.000   67.857374053   20.968501304   386.8712   6  31   0.0534   0.0384   0.0997  -0.0197  -0.0178   0.0320   0.00    0.0
2026/01/15 02:45:30.000   67.857374086   20.968501084   386.8800   6  30   0.0534   0.0383   0.0995  -0.0197  -0.0178   0.0319   0.00    0.0
2026/01/15 02:46:00.000   67.857374092   20.968500892   386.8847   6  31   0.0533   0.0383   0.0992  -0.0196  -0.0178   0.0319   0.00    0.0
2026/01/15 02:46:30.000   67.857374099   20.968500689   386.8900   6  31   0.0532   0.0382   0.0990  -0.0196  -0.0177   0.0318   0.00    0.0
2026/01/15 02:47:00.000   67.857374105   20.968500495   386.8953   6  31   0.0531   0.0381   0.0988  -0.0195  -0.0177   0.0317   0.00    0.0
2026/01/15 02:47:30.000   67.857374109   20.968500300   386.9000   6  31   0.0530   0.0380   0.0986  -0.0195  -0.0177   0.0316   0.00    0.0
2026/01/15 02:48:00.000   67.857374109   20.968500110   386.9045   6  31   0.0529   0.0380   0.0984  -0.0194  -0.0176   0.0316   0.00    0.0
2026/01/15 02:48:30.000   67.857374114   20.968499911   386.9097   6  31   0.0528   0.0379   0.0982  -0.0194  -0.0176   0.0315   0.00    0.0
2026/01/15 02:49:00.000   67.857374119   20.968499712   386.9146   6  31   0.0527   0.0378   0.0980  -0.0194  -0.0176   0.0314   0.00    0.0
2026/01/15 02:49:30.000   67.857374126   20.968499516   386.9203   6  31   0.0526   0.0377   0.0978  -0.0193  -0.0175   0.0313   0.00    0.0
2026/01/15 02:50:00.000   67.857374159   20.968499299   386.9295   6  30   0.0525   0.0377   0.0976  -0.0193  -0.0175   0.0313   0.00    0.0
2026/01/15 02:50:30.000   67.857374159   20.968499105   386.9349   6  31   0.0524   0.0376   0.0974  -0.0192  -0.0175   0.0312   0.00    0.0
2026/01/15 02:51:00.000   67.857374160   20.968498922   386.9414   6  31   0.0523   0.0375   0.0972  -0.0192  -0.0174   0.0311   0.00    0.0
2026/01/15 02:51:30.000   67.857374163   20.968498733   386.9470   6  31   0.0523   0.0374   0.0970  -0.0191  -0.0174   0.0311   0.00    0.0
2026/01/15 02:52:00.000   67.857374163   20.968498542   386.9531   6  31   0.0522   0.0374   0.0968  -0.0191  -0.0174   0.0310   0.00    0.0
2026/01/15 02:52:30.000   67.857374164   20.968498354   386.9591   6  31   0.0521   0.0373   0.0966  -0.0190  -0.0173   0.0309   0.00    0.0
2026/01/15 02:53:00.000   67.857374217   20.968498142   386.9716   6  31   0.0520   0.0372   0.0964  -0.0190  -0.0173   0.0308   0.00    0.0
2026/01/15 02:53:30.000   67.857374245   20.968497944   386.9809   6  32   0.0519   0.0372   0.0962  -0.0190  -0.0173   0.0308   0.00    0.0
2026/01/15 02:54:00.000   67.857374273   20.968497740   386.9905   6  32   0.0518   0.0371   0.0960  -0.0189  -0.0172   0.0307   0.00    0.0
2026/01/15 02:54:30.000   67.857374278   20.968497556   386.9963   6  31   0.0517   0.0370   0.0959  -0.0189  -0.0172   0.0306   0.00    0.0
2026/01/15 02:55:00.000   67.857374334   20.968497340   387.0080   6  31   0.0516   0.0369   0.0957  -0.0188  -0.0172   0.0305   0.00    0.0
2026/01/15 02:55:30.000   67.857374392   20.968497124   387.0205   6  31   0.0515   0.0369   0.0955  -0.0188  -0.0171   0.0305   0.00    0.0
2026/01/15 02:56:00.000   67.857374451   20.968496909   387.0325   6  31   0.0515   0.0368   0.0953  -0.0187  -0.0171   0.0304   0.00    0.0
2026/01/15 02:56:30.000   67.857374476   20.968496714   387.0413   6  32   0.0514   0.0367   0.0951  -0.0187  -0.0170   0.0303   0.00    0.0
2026/01/15 02:57:00.000   67.857374500   20.968496520   387.0505   6  32   0.0513   0.0367   0.0949  -0.0186  -0.0170   0.0302   0.00    0.0
2026/01/15 02:57:30.000   67.857374545   20.968496284   387.0615   6  32   0.0512   0.0366   0.0947  -0.0186  -0.0170   0.0302   0.00    0.0
2026/01/15 02:58:00.000   67.857374587   20.968496055   387.0733   6  31   0.0511   0.0365   0.0945  -0.0185  -0.0169   0.0301   0.00    0.0
2026/01/15 02:58:30.000   67.857374634   20.968495821   387.0839   6  32   0.0510   0.0364   0.0944  -0.0185  -0.0169   0.0300   0.00    0.0
2026/01/15 02:59:00.000   67.857374686   20.968495602   387.0945   6  32   0.0509   0.0364   0.0942  -0.0185  -0.0169   0.0300   0.00    0.0
2026/01/15 02:59:30.000   67.857374733   20.968495365   387.1055   6  32   0.0509   0.0363   0.0940  -0.0184  -0.0169   0.0299   0.00    0.0
2026/01/15 03:00:00.000   67.857374785   20.968495144   387.1162   6  32   0.0508   0.0362   0.0938  -0.0184  -0.0168   0.0298   0.00    0.0
2026/01/15 03:00:30.000   67.857374830   20.968494907   387.1272   6  32   0.0507   0.0362   0.0936  -0.0183  -0.0168   0.0298   0.00    0.0
2026/01/15 03:01:00.000   67.857374881   20.968494681   387.1379   6  32   0.0506   0.0361   0.0934  -0.0183  -0.0168   0.0297   0.00    0.0
2026/01/15 03:01:30.000   67.857374924   20.968494449   387.1487   6  32   0.0505   0.0360   0.0933  -0.0182  -0.0168   0.0296   0.00    0.0
2026/01/15 03:02:00.000   67.857374978   20.968494227   387.1594   6  32   0.0504   0.0359   0.0931  -0.0182  -0.0167   0.0296   0.00    0.0
2026/01/15 03:02:30.000   67.857375024   20.968493996   387.1704   6  32   0.0504   0.0359   0.0929  -0.0181  -0.0167   0.0295   0.00    0.0
2026/01/15 03:03:00.000   67.857375069   20.968493768   387.1813   6  32   0.0503   0.0358   0.0927  -0.0181  -0.0167   0.0294   0.00    0.0
2026/01/15 03:03:30.000   67.857375113   20.968493545   387.1921   6  32   0.0502   0.0357   0.0926  -0.0180  -0.0166   0.0294   0.00    0.0
2026/01/15 03:04:00.000   67.857375165   20.968493332   387.2031   6  32   0.0501   0.0357   0.0924  -0.0180  -0.0166   0.0293   0.00    0.0
2026/01/15 03:04:30.000   67.857375217   20.968493127   387.2141   6  32   0.0500   0.0356   0.0922  -0.0179  -0.0166   0.0292   0.00    0.0
2026/01/15 03:05:00.000   67.857375260   20.968492902   387.2253   6  32   0.0500   0.0355   0.0920  -0.0179  -0.0166   0.0292   0.00    0.0
2026/01/15 03:05:30.000   67.857375304   20.968492672   387.2365   6  32   0.0499   0.0355   0.0919  -0.0178  -0.0165   0.0291   0.00    0.0
2026/01/15 03:06:00.000   67.857375345   20.968492448   387.2479   6  32   0.0498   0.0354   0.0917  -0.0178  -0.0165   0.0290   0.00    0.0
2026/01/15 03:06:30.000   67.857375383   20.968492226   387.2584   6  33   0.0497   0.0353   0.0915  -0.0178  -0.0165   0.0290   0.00    0.0
2026/01/15 03:07:00.000   67.857375421   20.968492005   387.2683   6  33   0.0496   0.0353   0.0914  -0.0177  -0.0164   0.0289   0.00    0.0
2026/01/15 03:07:30.000   67.857375459   20.968491784   387.2794   6  33   0.0496   0.0352   0.0912  -0.0177  -0.0164   0.0288   0.00    0.0
2026/01/15 03:08:00.000   67.857375499   20.968491566   387.2908   6  33   0.0495   0.0351   0.0910  -0.0176  -0.0164   0.0287   0.00    0.0
2026/01/15 03:08:30.000   67.857375541   20.968491351   387.3018   6  33   0.0494   0.0351   0.0909  -0.0176  -0.0164   0.0287   0.00    0.0
2026/01/15 03:09:00.000   67.857375580   20.968491134   387.3126   6  33   0.0493   0.0350   0.0907  -0.0175  -0.0163   0.0286   0.00    0.0
2026/01/15 03:09:30.000   67.857375619   20.968490916   387.3239   6  33   0.0492   0.0349   0.0905  -0.0175  -0.0163   0.0285   0.00    0.0
2026/01/15 03:10:00.000   67.857375657   20.968490701   387.3348   6  33   0.0492   0.0349   0.0903  -0.0174  -0.0163   0.0285   0.00    0.0
2026/01/15 03:10:30.000   67.857375691   20.968490492   387.3446   6  32   0.0491   0.0348   0.0902  -0.0174  -0.0162   0.0284   0.00    0.0
2026/01/15 03:11:00.000   67.857375725   20.968490282   387.3545   6  32   0.0490   0.0347   0.0900  -0.0173  -0.0162   0.0283   0.00    0.0
2026/01/15 03:11:30.000   67.857375763   20.968490091   387.3641   6  32   0.0489   0.0347   0.0899  -0.0173  -0.0162   0.0283   0.00    0.0
2026/01/15 03:12:00.000   67.857375802   20.968489902   387.3739   6  32   0.0489   0.0346   0.0897  -0.0172  -0.0161   0.0282   0.00    0.0
2026/01/15 03:12:30.000   67.857375842   20.968489711   387.3836   6  32   0.0488   0.0346   0.0896  -0.0172  -0.0161   0.0282   0.00    0.0
2026/01/15 03:13:00.000   67.857375881   20.968489517   387.3937   6  32   0.0487   0.0345   0.0894  -0.0171  -0.0161   0.0281   0.00    0.0
2026/01/15 03:13:30.000   67.857375918   20.968489329   387.4038   6  32   0.0486   0.0344   0.0893  -0.0171  -0.0160   0.0281   0.00    0.0
2026/01/15 03:14:00.000   67.857375956   20.968489140   387.4141   6  32   0.0485   0.0344   0.0891  -0.0170  -0.0160   0.0280   0.00    0.0
2026/01/15 03:14:30.000   67.857375994   20.968488955   387.4246   6  32   0.0485   0.0343   0.0890  -0.0170  -0.0159   0.0280   0.00    0.0
2026/01/15 03:15:00.000   67.857376033   20.968488767   387.4352   6  32   0.0484   0.0342   0.0888  -0.0170  -0.0159   0.0279   0.00    0.0
2026/01/15 03:15:30.000   67.857376064   20.968488574   387.4467   6  31   0.0483   0.0342   0.0887  -0.0169  -0.0159   0.0278   0.00    0.0
2026/01/15 03:16:00.000   67.857376100   20.968488393   387.4573   6  31   0.0483   0.0341   0.0885  -0.0169  -0.0158   0.0278   0.00    0.0
2026/01/15 03:16:30.000   67.857376136   20.968488219   387.4683   6  31   0.0482   0.0341   0.0884  -0.0168  -0.0158   0.0277   0.00    0.0
2026/01/15 03:17:00.000   67.857376170   20.968488041   387.4795   6  31   0.0481   0.0340   0.0882  -0.0168  -0.0157   0.0277   0.00    0.0
2026/01/15 03:17:30.000   67.857376203   20.968487860   387.4876   6  30   0.0480   0.0339   0.0881  -0.0167  -0.0157   0.0276   0.00    0.0
2026/01/15 03:18:00.000   67.857376235   20.968487687   387.4958   6  30   0.0480   0.0339   0.0880  -0.0167  -0.0157   0.0276   0.00    0.0
2026/01/15 03:18:30.000   67.857376264   20.968487530   387.5021   6  30   0.0479   0.0338   0.0878  -0.0166  -0.0156   0.0276   0.00    0.0
2026/01/15 03:19:00.000   67.857376294   20.968487376   387.5086   6  30   0.0478   0.0338   0.0877  -0.0166  -0.0156   0.0275   0.00    0.0
2026/01/15 03:19:30.000   67.857376323   20.968487218   387.5154   6  31   0.0478   0.0337   0.0876  -0.0165  -0.0156   0.0275   0.00    0.0
2026/01/15 03:20:00.000   67.857376355   20.968487063   387.5222   6  31   0.0477   0.0336   0.0874  -0.0165  -0.0155   0.0275   0.00    0.0
2026/01/15 03:20:30.000   67.857376389   20.968486905   387.5290   6  31   0.0476   0.0336   0.0873  -0.0164  -0.0155   0.0274   0.00    0.0
2026/01/15 03:21:00.000   67.857376422   20.968486753   387.5358   6  32   0.0475   0.0335   0.0872  -0.0164  -0.0155   0.0274   0.00    0.0
2026/01/15 03:21:30.000   67.857376455   20.968486603   387.5428   6  32   0.0475   0.0335   0.0871  -0.0164  -0.0154   0.0274   0.00    0.0
2026/01/15 03:22:00.000   67.857376487   20.968486456   387.5500   6  32   0.0474   0.0334   0.0869  -0.0163  -0.0154   0.0273   0.00    0.0
2026/01/15 03:22:30.000   67.857376522   20.968486310   387.5569   6  32   0.0473   0.0334   0.0868  -0.0163  -0.0153   0.0273   0.00    0.0
2026/01/15 03:23:00.000   67.857376554   20.968486161   387.5646   6  32   0.0473   0.0333   0.0867  -0.0162  -0.0153   0.0273   0.00    0.0
2026/01/15 03:23:30.000   67.857376588   20.968486009   387.5725   6  32   0.0472   0.0332   0.0865  -0.0162  -0.0153   0.0272   0.00    0.0
2026/01/15 03:24:00.000   67.857376625   20.968485858   387.5802   6  33   0.0471   0.0332   0.0864  -0.0161  -0.0152   0.0272   0.00    0.0
2026/01/15 03:24:30.000   67.857376663   20.968485709   387.5879   6  33   0.0470   0.0331   0.0863  -0.0161  -0.0152   0.0272   0.00    0.0
2026/01/15 03:25:00.000   67.857376696   20.968485564   387.5963   6  33   0.0470   0.0331   0.0861  -0.0160  -0.0151   0.0271   0.00    0.0
2026/01/15 03:25:30.000   67.857376730   20.968485418   387.6046   6  33   0.0469   0.0330   0.0860  -0.0160  -0.0151   0.0271   0.00    0.0
2026/01/15 03:26:00.000   67.857376765   20.968485272   387.6135   6  33   0.0468   0.0330   0.0859  -0.0159  -0.0151   0.0271   0.00    0.0
2026/01/15 03:26:30.000   67.857376799   20.968485127   387.6228   6  33   0.0468   0.0329   0.0857  -0.0159  -0.0150   0.0270   0.00    0.0
2026/01/15 03:27:00.000   67.857376834   20.968484984   387.6321   6  33   0.0467   0.0329   0.0856  -0.0159  -0.0150   0.0270   0.00    0.0
