% program   : RTKLIB ver.EX 2.5.0
% inp file  : C:\Users\tevin\Desktop\GNSS - MASTA\SPRING SEM\4.SAT NAV DATA PROCESSING\TEAM PROJECT\SNDP-PROJECT\Old_data\data\HKWS00HKG_R_20260150000_01D_30S_MO.rnx
% inp file  : C:\Users\tevin\Desktop\GNSS - MASTA\SPRING SEM\4.SAT NAV DATA PROCESSING\TEAM PROJECT\SNDP-PROJECT\Old_data\products\nav\BRDC00IGS_R_20260150000_01D_MN.rnx
% inp file  : C:\Users\tevin\Desktop\GNSS - MASTA\SPRING SEM\4.SAT NAV DATA PROCESSING\TEAM PROJECT\SNDP-PROJECT\Old_data\products\sp3\COD0MGXFIN_20260150000_01D_05M_ORB.SP3
% inp file  : C:\Users\tevin\Desktop\GNSS - MASTA\SPRING SEM\4.SAT NAV DATA PROCESSING\TEAM PROJECT\SNDP-PROJECT\Old_data\products\clk\COD0MGXFIN_20260150000_01D_30S_CLK.CLK
% obs start : 2026/01/15 00:00:00.0 GPST (week2401 345600.0s)
% obs end   : 2026/01/15 01:00:00.0 GPST (week2401 349200.0s)
% pos mode  : PPP Static
% freqs     : L1+L2/E5b
% solution  : Forward
% elev mask : 15.0 deg
% dynamics  : on
% tidecorr  :
% ionos opt : Iono-Free LC
% tropo opt : Saastamoinen
% ephemeris : Precise
% navi sys  : GPS Galileo BDS
% antenna1  : LEIAR25.R4      LEIT  ( 0.0000  0.0000  0.0083)
%
% (lat/lon/height=WGS84/ellipsoidal,Q=1:fix,2:float,3:sbas,4:dgps,5:single,6:ppp,ns=# of satellites)
%  GPST                  latitude(deg) longitude(deg)  height(m)   Q  ns   sdn(m)   sde(m)   sdu(m)  sdne(m)  sdeu(m)  sdun(m) age(s)  ratio
2026/01/15 00:00:00.000   22.434276389  114.335383928    63.9946   6   7   2.3065   3.1223   6.6866  -0.6770   1.2544  -1.5041   0.00    0.0
2026/01/15 00:11:00.000   22.434274585  114.335386473    63.8227   6   5   0.4821   0.6538   1.3891  -0.1502   0.2640  -0.3034   0.00    0.0
2026/01/15 00:11:30.000   22.434274531  114.335386311    63.7827   6   5   0.4718   0.6399   1.3577  -0.1469   0.2596  -0.2977   0.00    0.0
2026/01/15 00:12:00.000   22.434274580  114.335386228    63.7611   6   5   0.4620   0.6270   1.3277  -0.1438   0.2554  -0.2922   0.00    0.0
2026/01/15 00:12:30.000   22.434274596  114.335386239    63.7376   6   7   0.4528   0.6147   1.2988  -0.1408   0.2516  -0.2871   0.00    0.0
2026/01/15 00:13:00.000   22.434274626  114.335386252    63.7154   6   7   0.4441   0.6031   1.2708  -0.1380   0.2477  -0.2823   0.00    0.0
2026/01/15 00:13:30.000   22.434274686  114.335386225    63.6866   6   7   0.4358   0.5922   1.2435  -0.1353   0.2440  -0.2777   0.00    0.0
2026/01/15 00:14:00.000   22.434274763  114.335386156    63.6754   6   7   0.4279   0.5818   1.2167  -0.1327   0.2404  -0.2735   0.00    0.0
2026/01/15 00:14:30.000   22.434274775  114.335386080    63.6585   6   7   0.4203   0.5719   1.1903  -0.1303   0.2369  -0.2695   0.00    0.0
2026/01/15 00:15:00.000   22.434274746  114.335385989    63.6361   6   7   0.4131   0.5625   1.1642  -0.1279   0.2334  -0.2658   0.00    0.0
2026/01/15 00:15:30.000   22.434274722  114.335385884    63.6061   6   7   0.4061   0.5535   1.1385  -0.1255   0.2300  -0.2623   0.00    0.0
2026/01/15 00:16:00.000   22.434274737  114.335385790    63.5696   6   7   0.3994   0.5449   1.1129  -0.1232   0.2267  -0.2590   0.00    0.0
2026/01/15 00:16:30.000   22.434274786  114.335385715    63.5193   6   7   0.3930   0.5366   1.0877  -0.1210   0.2234  -0.2559   0.00    0.0
2026/01/15 00:17:00.000   22.434274832  114.335385669    63.4560   6   8   0.3867   0.5287   1.0626  -0.1188   0.2201  -0.2531   0.00    0.0
2026/01/15 00:17:30.000   22.434274903  114.335385589    63.3852   6   8   0.3807   0.5211   1.0378  -0.1167   0.2169  -0.2503   0.00    0.0
2026/01/15 00:18:00.000   22.434275041  114.335385440    63.3106   6   8   0.3748   0.5137   1.0133  -0.1146   0.2137  -0.2478   0.00    0.0
2026/01/15 00:18:30.000   22.434275213  114.335385330    63.2350   6   8   0.3691   0.5066   0.9890  -0.1125   0.2105  -0.2454   0.00    0.0
2026/01/15 00:19:00.000   22.434275339  114.335385318    63.1745   6   8   0.3636   0.4997   0.9651  -0.1104   0.2074  -0.2430   0.00    0.0
2026/01/15 00:19:30.000   22.434275412  114.335385298    63.1392   6   8   0.3582   0.4930   0.9415  -0.1084   0.2043  -0.2408   0.00    0.0
2026/01/15 00:20:00.000   22.434275459  114.335385252    63.1179   6   8   0.3530   0.4865   0.9183  -0.1064   0.2013  -0.2387   0.00    0.0
2026/01/15 00:20:30.000   22.434275490  114.335385237    63.1129   6   8   0.3478   0.4802   0.8955  -0.1043   0.1982  -0.2367   0.00    0.0
2026/01/15 00:21:00.000   22.434275520  114.335385229    63.1129   6   8   0.3428   0.4741   0.8731  -0.1023   0.1953  -0.2347   0.00    0.0
2026/01/15 00:21:30.000   22.434275524  114.335385232    63.1129   6   8   0.3379   0.4681   0.8512  -0.1003   0.1923  -0.2328   0.00    0.0
2026/01/15 00:22:00.000   22.434275499  114.335385213    63.1183   6   8   0.3332   0.4622   0.8297  -0.0983   0.1894  -0.2309   0.00    0.0
2026/01/15 00:22:30.000   22.434275488  114.335385158    63.1232   6   8   0.3285   0.4565   0.8088  -0.0963   0.1865  -0.2290   0.00    0.0
2026/01/15 00:23:00.000   22.434275503  114.335385069    63.1361   6   8   0.3239   0.4510   0.7883  -0.0943   0.1837  -0.2272   0.00    0.0
2026/01/15 00:23:30.000   22.434275513  114.335385016    63.1572   6   8   0.3194   0.4455   0.7684  -0.0923   0.1808  -0.2254   0.00    0.0
2026/01/15 00:24:00.000   22.434275517  114.335384971    63.1743   6   8   0.3149   0.4398   0.7484  -0.0895   0.1767  -0.2230   0.00    0.0
2026/01/15 00:24:30.000   22.434275531  114.335384908    63.1997   6   7   0.3109   0.4346   0.7341  -0.0874   0.1731  -0.2217   0.00    0.0
2026/01/15 00:25:00.000   22.434275550  114.335384830    63.2227   6   7   0.3069   0.4294   0.7200  -0.0852   0.1698  -0.2205   0.00    0.0
2026/01/15 00:25:30.000   22.434275556  114.335384789    63.2368   6   8   0.3027   0.4240   0.7053  -0.0818   0.1663  -0.2193   0.00    0.0
2026/01/15 00:26:00.000   22.434275598  114.335384762    63.2438   6   8   0.2985   0.4188   0.6909  -0.0784   0.1630  -0.2182   0.00    0.0
2026/01/15 00:26:30.000   22.434275656  114.335384703    63.2438   6   8   0.2945   0.4136   0.6768  -0.0751   0.1598  -0.2170   0.00    0.0
2026/01/15 00:27:00.000   22.434275759  114.335384593    63.2412   6   8   0.2905   0.4085   0.6631  -0.0719   0.1569  -0.2158   0.00    0.0
2026/01/15 00:27:30.000   22.434275877  114.335384438    63.2380   6   8   0.2866   0.4035   0.6496  -0.0687   0.1540  -0.2145   0.00    0.0
2026/01/15 00:28:00.000   22.434276019  114.335384259    63.2294   6   8   0.2827   0.3986   0.6365  -0.0655   0.1514  -0.2132   0.00    0.0
2026/01/15 00:28:30.000   22.434276164  114.335384117    63.2166   6   8   0.2790   0.3938   0.6236  -0.0624   0.1489  -0.2119   0.00    0.0
2026/01/15 00:29:00.000   22.434276348  114.335384005    63.2048   6   8   0.2752   0.3891   0.6111  -0.0594   0.1465  -0.2105   0.00    0.0
2026/01/15 00:29:30.000   22.434276532  114.335383916    63.1893   6   8   0.2716   0.3844   0.5988  -0.0564   0.1442  -0.2091   0.00    0.0
2026/01/15 00:30:00.000   22.434276692  114.335383844    63.1755   6   8   0.2680   0.3798   0.5869  -0.0534   0.1421  -0.2076   0.00    0.0
2026/01/15 00:30:30.000   22.434276837  114.335383768    63.1611   6   8   0.2644   0.3753   0.5752  -0.0505   0.1401  -0.2061   0.00    0.0
2026/01/15 00:31:00.000   22.434276981  114.335383672    63.1505   6   8   0.2610   0.3709   0.5639  -0.0482   0.1378  -0.2044   0.00    0.0
2026/01/15 00:31:30.000   22.434277126  114.335383578    63.1422   6   8   0.2577   0.3665   0.5529  -0.0459   0.1358  -0.2026   0.00    0.0
2026/01/15 00:32:00.000   22.434277259  114.335383478    63.1312   6   8   0.2544   0.3622   0.5421  -0.0437   0.1338  -0.2008   0.00    0.0
2026/01/15 00:32:30.000   22.434277388  114.335383375    63.1210   6   8   0.2511   0.3580   0.5316  -0.0416   0.1320  -0.1990   0.00    0.0
2026/01/15 00:33:00.000   22.434277494  114.335383297    63.1148   6   8   0.2479   0.3538   0.5213  -0.0394   0.1303  -0.1972   0.00    0.0
2026/01/15 00:33:30.000   22.434277593  114.335383278    63.1137   6   8   0.2447   0.3496   0.5113  -0.0373   0.1286  -0.1953   0.00    0.0
2026/01/15 00:34:00.000   22.434277681  114.335383290    63.1168   6   8   0.2416   0.3455   0.5015  -0.0352   0.1271  -0.1935   0.00    0.0
2026/01/15 00:34:30.000   22.434277746  114.335383346    63.1231   6   8   0.2385   0.3415   0.4919  -0.0332   0.1256  -0.1916   0.00    0.0
2026/01/15 00:35:00.000   22.434277775  114.335383467    63.1310   6  12   0.2353   0.3374   0.4826  -0.0306   0.1244  -0.1898   0.00    0.0
2026/01/15 00:35:30.000   22.434277812  114.335383563    63.1438   6   8   0.2323   0.3334   0.4735  -0.0286   0.1230  -0.1879   0.00    0.0
2026/01/15 00:36:00.000   22.434277855  114.335383628    63.1480   6   8   0.2293   0.3295   0.4690  -0.0267   0.1233  -0.1861   0.00    0.0
2026/01/15 00:36:30.000   22.434277902  114.335383671    63.1520   6   8   0.2263   0.3257   0.4646  -0.0248   0.1237  -0.1842   0.00    0.0
2026/01/15 00:37:00.000   22.434277958  114.335383709    63.1530   6   8   0.2234   0.3219   0.4601  -0.0230   0.1240  -0.1824   0.00    0.0
2026/01/15 00:37:30.000   22.434278033  114.335383760    63.1516   6   8   0.2205   0.3182   0.4557  -0.0212   0.1242  -0.1805   0.00    0.0
2026/01/15 00:38:00.000   22.434278130  114.335383790    63.1468   6   8   0.2177   0.3145   0.4512  -0.0195   0.1245  -0.1787   0.00    0.0
2026/01/15 00:38:30.000   22.434278245  114.335383803    63.1401   6   8   0.2148   0.3108   0.4468  -0.0178   0.1248  -0.1770   0.00    0.0
2026/01/15 00:39:00.000   22.434278372  114.335383783    63.1326   6   8   0.2120   0.3072   0.4423  -0.0162   0.1250  -0.1752   0.00    0.0
2026/01/15 00:39:30.000   22.434278498  114.335383757    63.1232   6   8   0.2093   0.3036   0.4379  -0.0146   0.1252  -0.1734   0.00    0.0
2026/01/15 00:40:00.000   22.434278613  114.335383732    63.1124   6   8   0.2066   0.3001   0.4335  -0.0131   0.1254  -0.1717   0.00    0.0
2026/01/15 00:40:30.000   22.434278676  114.335383745    63.0981   6  14   0.2038   0.2965   0.4290  -0.0098   0.1256  -0.1699   0.00    0.0
2026/01/15 00:41:00.000   22.434278709  114.335383769    63.0871   6  13   0.2010   0.2930   0.4246  -0.0063   0.1257  -0.1682   0.00    0.0
2026/01/15 00:41:30.000   22.434278715  114.335383797    63.0821   6  14   0.1984   0.2895   0.4202   0.0028   0.1258  -0.1665   0.00    0.0
2026/01/15 00:42:00.000   22.434278698  114.335383808    63.0814   6  14   0.1957   0.2861   0.4158   0.0069   0.1259  -0.1649   0.00    0.0
2026/01/15 00:42:30.000   22.434278676  114.335383834    63.0849   6  14   0.1931   0.2827   0.4115   0.0090   0.1259  -0.1632   0.00    0.0
2026/01/15 00:43:00.000   22.434278655  114.335383867    63.0900   6  14   0.1906   0.2794   0.4071   0.0105   0.1259  -0.1615   0.00    0.0
2026/01/15 00:43:30.000   22.434278661  114.335383882    63.0991   6   8   0.1881   0.2762   0.4029   0.0106   0.1258  -0.1599   0.00    0.0
2026/01/15 00:44:00.000   22.434278650  114.335383915    63.1059   6  14   0.1856   0.2729   0.3985   0.0116   0.1256  -0.1582   0.00    0.0
2026/01/15 00:44:30.000   22.434278663  114.335383940    63.1119   6  14   0.1831   0.2697   0.3942   0.0124   0.1254  -0.1565   0.00    0.0
2026/01/15 00:45:00.000   22.434278687  114.335383975    63.1146   6  14   0.1807   0.2665   0.3898   0.0129   0.1251  -0.1548   0.00    0.0
2026/01/15 00:45:30.000   22.434278717  114.335384006    63.1144   6  14   0.1783   0.2633   0.3855   0.0134   0.1248  -0.1532   0.00    0.0
2026/01/15 00:46:00.000   22.434278756  114.335384019    63.1147   6  14   0.1759   0.2602   0.3812   0.0137   0.1244  -0.1515   0.00    0.0
2026/01/15 00:46:30.000   22.434278811  114.335384033    63.1139   6  14   0.1736   0.2571   0.3769   0.0140   0.1240  -0.1499   0.00    0.0
2026/01/15 00:47:00.000   22.434278845  114.335384038    63.1041   6   7   0.1729   0.2561   0.3757   0.0148   0.1231  -0.1490   0.00    0.0
2026/01/15 00:47:30.000   22.434278891  114.335384047    63.0954   6   7   0.1723   0.2550   0.3745   0.0157   0.1221  -0.1481   0.00    0.0
2026/01/15 00:48:00.000   22.434278939  114.335384054    63.0887   6   7   0.1716   0.2540   0.3732   0.0165   0.1211  -0.1472   0.00    0.0
2026/01/15 00:48:30.000   22.434278969  114.335384064    63.0826   6   7   0.1710   0.2530   0.3720   0.0172   0.1202  -0.1463   0.00    0.0
2026/01/15 00:49:00.000   22.434278977  114.335384077    63.0783   6   7   0.1703   0.2520   0.3707   0.0180   0.1192  -0.1454   0.00    0.0
2026/01/15 00:49:30.000   22.434278987  114.335384089    63.0754   6   7   0.1697   0.2510   0.3694   0.0188   0.1183  -0.1445   0.00    0.0
2026/01/15 00:50:00.000   22.434279001  114.335384109    63.0705   6   7   0.1690   0.2500   0.3682   0.0197   0.1174  -0.1435   0.00    0.0
2026/01/15 00:50:30.000   22.434279025  114.335384129    63.0657   6   7   0.1684   0.2491   0.3669   0.0205   0.1164  -0.1425   0.00    0.0
2026/01/15 00:51:00.000   22.434279047  114.335384146    63.0625   6   7   0.1677   0.2481   0.3655   0.0213   0.1155  -0.1415   0.00    0.0
2026/01/15 00:51:30.000   22.434279059  114.335384166    63.0600   6   7   0.1671   0.2472   0.3641   0.0221   0.1146  -0.1404   0.00    0.0
2026/01/15 00:52:00.000   22.434279058  114.335384188    63.0562   6   7   0.1664   0.2462   0.3627   0.0229   0.1136  -0.1394   0.00    0.0
2026/01/15 00:52:30.000   22.434279062  114.335384208    63.0509   6   7   0.1657   0.2453   0.3613   0.0237   0.1126  -0.1383   0.00    0.0
2026/01/15 00:53:00.000   22.434279065  114.335384231    63.0451   6   7   0.1650   0.2443   0.3598   0.0244   0.1117  -0.1373   0.00    0.0
2026/01/15 00:53:30.000   22.434279063  114.335384256    63.0395   6   7   0.1643   0.2434   0.3583   0.0252   0.1107  -0.1362   0.00    0.0
2026/01/15 00:54:00.000   22.434279065  114.335384263    63.0352   6   7   0.1637   0.2425   0.3567   0.0260   0.1097  -0.1351   0.00    0.0
2026/01/15 00:54:30.000   22.434279086  114.335384239    63.0316   6   7   0.1630   0.2416   0.3551   0.0265   0.1087  -0.1339   0.00    0.0
2026/01/15 00:55:00.000   22.434279111  114.335384223    63.0290   6   7   0.1623   0.2407   0.3535   0.0271   0.1076  -0.1328   0.00    0.0
2026/01/15 00:55:30.000   22.434279143  114.335384202    63.0261   6   7   0.1616   0.2398   0.3519   0.0277   0.1066  -0.1316   0.00    0.0
2026/01/15 00:56:00.000   22.434279183  114.335384168    63.0218   6   7   0.1610   0.2389   0.3502   0.0283   0.1055  -0.1304   0.00    0.0
2026/01/15 00:56:30.000   22.434279229  114.335384129    63.0167   6   7   0.1603   0.2381   0.3484   0.0289   0.1044  -0.1291   0.00    0.0
2026/01/15 00:57:00.000   22.434279281  114.335384095    63.0110   6  10   0.1596   0.2372   0.3466   0.0295   0.1034  -0.1279   0.00    0.0
2026/01/15 00:57:30.000   22.434279332  114.335384071    63.0055   6   7   0.1589   0.2363   0.3448   0.0301   0.1023  -0.1267   0.00    0.0
2026/01/15 00:58:00.000   22.434279386  114.335384055    63.0007   6   7   0.1582   0.2354   0.3430   0.0307   0.1011  -0.1254   0.00    0.0
2026/01/15 00:58:30.000   22.434279427  114.335384027    62.9966   6   7   0.1574   0.2346   0.3411   0.0313   0.1000  -0.1241   0.00    0.0
2026/01/15 00:59:00.000   22.434279459  114.335384002    62.9932   6   7   0.1567   0.2337   0.3391   0.0319   0.0989  -0.1228   0.00    0.0
2026/01/15 00:59:30.000   22.434279474  114.335383989    62.9909   6   7   0.1560   0.2329   0.3372   0.0325   0.0977  -0.1215   0.00    0.0
2026/01/15 01:00:00.000   22.434279484  114.335383972    62.9894   6   7   0.1553   0.2320   0.3352   0.0331   0.0966  -0.1202   0.00    0.0
