% program   : RTKLIB ver.EX 2.5.0
% inp file  : C:\Users\tevin\Desktop\GNSS - MASTA\SPRING SEM\4.SAT NAV DATA PROCESSING\TEAM PROJECT\SNDP-PROJECT\Old_data\data\HKWS00HKG_R_20260150000_01D_30S_MO.rnx
% inp file  : C:\Users\tevin\Desktop\GNSS - MASTA\SPRING SEM\4.SAT NAV DATA PROCESSING\TEAM PROJECT\SNDP-PROJECT\Old_data\products\nav\BRDC00IGS_R_20260150000_01D_MN.rnx
% inp file  : C:\Users\tevin\Desktop\GNSS - MASTA\SPRING SEM\4.SAT NAV DATA PROCESSING\TEAM PROJECT\SNDP-PROJECT\Old_data\products\sp3\COD0MGXFIN_20260150000_01D_05M_ORB.SP3
% inp file  : C:\Users\tevin\Desktop\GNSS - MASTA\SPRING SEM\4.SAT NAV DATA PROCESSING\TEAM PROJECT\SNDP-PROJECT\Old_data\products\clk\COD0MGXFIN_20260150000_01D_30S_CLK.CLK
% obs start : 2026/01/15 00:00:00.0 GPST (week2401 345600.0s)
% obs end   : 2026/01/15 23:59:30.0 GPST (week2401 431970.0s)
% pos mode  : PPP Static
% freqs     : L1+L2/E5b
% solution  : Forward
% elev mask : 15.0 deg
% dynamics  : on
% tidecorr  :
% ionos opt : Iono-Free LC
% tropo opt : Saastamoinen
% ephemeris : Precise
% navi sys  : GPS GLONASS Galileo QZSS BDS
% antenna1  : LEIAR25.R4      LEIT  ( 0.0000  0.0000  0.0083)
%
% (lat/lon/height=WGS84/ellipsoidal,Q=1:fix,2:float,3:sbas,4:dgps,5:single,6:ppp,ns=# of satellites)
%  GPST                  latitude(deg) longitude(deg)  height(m)   Q  ns   sdn(m)   sde(m)   sdu(m)  sdne(m)  sdeu(m)  sdun(m) age(s)  ratio
2026/01/15 00:00:00.000   22.434275395  114.335387839    64.8443   6  10   2.2585   2.7226   6.2734  -0.2841   0.6396  -1.6168   0.00    0.0
2026/01/15 00:02:30.000   22.434274140  114.335390955    64.9611   6   5   0.9389   1.1205   2.6335  -0.1817  -0.0458  -0.5701   0.00    0.0
2026/01/15 00:03:00.000   22.434273743  114.335390762    64.9149   6   4   0.8665   1.0365   2.4191  -0.1605   0.0926  -0.5407   0.00    0.0
2026/01/15 00:03:30.000   22.434273484  114.335390493    64.8686   6   4   0.8084   0.9689   2.2486  -0.1446   0.1183  -0.5146   0.00    0.0
2026/01/15 00:04:00.000   22.434273304  114.335390368    64.8339   6   4   0.7604   0.9130   2.1081  -0.1322   0.1296  -0.4916   0.00    0.0
2026/01/15 00:04:30.000   22.434273232  114.335390401    64.8234   6   4   0.7197   0.8658   1.9891  -0.1222   0.1348  -0.4711   0.00    0.0
2026/01/15 00:05:00.000   22.434273301  114.335390347    64.7855   6   4   0.6846   0.8251   1.8863  -0.1140   0.1370  -0.4528   0.00    0.0
2026/01/15 00:05:30.000   22.434273506  114.335390234    64.7125   6   4   0.6538   0.7897   1.7960  -0.1071   0.1373  -0.4364   0.00    0.0
2026/01/15 00:06:00.000   22.434273768  114.335389980    64.6194   6   4   0.6264   0.7584   1.7157  -0.1011   0.1367  -0.4216   0.00    0.0
2026/01/15 00:06:30.000   22.434273993  114.335389748    64.5351   6   4   0.6019   0.7305   1.6434  -0.0960   0.1354  -0.4082   0.00    0.0
2026/01/15 00:07:00.000   22.434274143  114.335389543    64.4740   6   4   0.5797   0.7054   1.5778  -0.0915   0.1338  -0.3959   0.00    0.0
2026/01/15 00:07:30.000   22.434274178  114.335389386    64.4414   6   4   0.5594   0.6827   1.5177  -0.0875   0.1319  -0.3846   0.00    0.0
2026/01/15 00:08:00.000   22.434274189  114.335389179    64.4268   6   4   0.5408   0.6620   1.4623  -0.0839   0.1300  -0.3742   0.00    0.0
2026/01/15 00:08:30.000   22.434274234  114.335388889    64.4210   6   4   0.5236   0.6430   1.4109  -0.0807   0.1279  -0.3645   0.00    0.0
2026/01/15 00:09:00.000   22.434274321  114.335388623    64.4095   6   4   0.5075   0.6255   1.3630  -0.0779   0.1258  -0.3555   0.00    0.0
2026/01/15 00:09:30.000   22.434274436  114.335388438    64.3912   6   4   0.4925   0.6094   1.3182  -0.0753   0.1237  -0.3471   0.00    0.0
2026/01/15 00:10:00.000   22.434274484  114.335388293    64.3731   6   4   0.4785   0.5943   1.2761  -0.0729   0.1217  -0.3392   0.00    0.0
2026/01/15 00:10:30.000   22.434274476  114.335388179    64.3480   6   8   0.4652   0.5803   1.2362  -0.0709   0.1197  -0.3317   0.00    0.0
2026/01/15 00:11:00.000   22.434274460  114.335388051    64.3193   6   8   0.4527   0.5672   1.1985  -0.0690   0.1177  -0.3246   0.00    0.0
2026/01/15 00:11:30.000   22.434274482  114.335387894    64.2912   6   8   0.4408   0.5549   1.1625  -0.0672   0.1158  -0.3178   0.00    0.0
2026/01/15 00:12:00.000   22.434274584  114.335387808    64.2717   6   8   0.4295   0.5433   1.1280  -0.0655   0.1140  -0.3114   0.00    0.0
2026/01/15 00:12:30.000   22.434274666  114.335387779    64.2470   6  10   0.4187   0.5323   1.0948  -0.0639   0.1125  -0.3051   0.00    0.0
2026/01/15 00:13:00.000   22.434274751  114.335387749    64.2129   6  11   0.4084   0.5220   1.0627  -0.0625   0.1109  -0.2991   0.00    0.0
2026/01/15 00:13:30.000   22.434274854  114.335387704    64.1735   6  11   0.3985   0.5121   1.0317  -0.0611   0.1094  -0.2933   0.00    0.0
2026/01/15 00:14:00.000   22.434274960  114.335387627    64.1456   6  11   0.3890   0.5028   1.0017  -0.0598   0.1080  -0.2876   0.00    0.0
2026/01/15 00:14:30.000   22.434275024  114.335387547    64.1160   6  11   0.3799   0.4939   0.9725  -0.0586   0.1066  -0.2822   0.00    0.0
2026/01/15 00:15:00.000   22.434275049  114.335387480    64.0845   6  11   0.3710   0.4853   0.9442  -0.0575   0.1054  -0.2769   0.00    0.0
2026/01/15 00:15:30.000   22.434275078  114.335387422    64.0498   6  11   0.3625   0.4772   0.9167  -0.0564   0.1041  -0.2717   0.00    0.0
2026/01/15 00:16:00.000   22.434275125  114.335387390    64.0117   6  11   0.3543   0.4694   0.8900  -0.0554   0.1030  -0.2667   0.00    0.0
2026/01/15 00:16:30.000   22.434275206  114.335387388    63.9666   6  12   0.3463   0.4618   0.8641  -0.0545   0.1019  -0.2618   0.00    0.0
2026/01/15 00:17:00.000   22.434275295  114.335387372    63.9155   6  12   0.3385   0.4546   0.8390  -0.0536   0.1009  -0.2571   0.00    0.0
2026/01/15 00:17:30.000   22.434275411  114.335387323    63.8648   6  12   0.3310   0.4476   0.8146  -0.0528   0.0999  -0.2524   0.00    0.0
2026/01/15 00:18:00.000   22.434275584  114.335387230    63.8139   6  12   0.3238   0.4409   0.7910  -0.0520   0.0989  -0.2479   0.00    0.0
2026/01/15 00:18:30.000   22.434275770  114.335387174    63.7618   6  12   0.3167   0.4344   0.7680  -0.0512   0.0980  -0.2435   0.00    0.0
2026/01/15 00:19:00.000   22.434275925  114.335387189    63.7145   6  12   0.3098   0.4281   0.7459  -0.0505   0.0971  -0.2391   0.00    0.0
2026/01/15 00:19:30.000   22.434276040  114.335387185    63.6843   6  12   0.3032   0.4220   0.7244  -0.0498   0.0963  -0.2349   0.00    0.0
2026/01/15 00:20:00.000   22.434276128  114.335387153    63.6651   6  12   0.2967   0.4160   0.7037  -0.0492   0.0955  -0.2308   0.00    0.0
2026/01/15 00:20:30.000   22.434276201  114.335387155    63.6561   6  12   0.2904   0.4102   0.6836  -0.0486   0.0947  -0.2267   0.00    0.0
2026/01/15 00:21:00.000   22.434276272  114.335387171    63.6471   6  12   0.2843   0.4046   0.6643  -0.0481   0.0939  -0.2227   0.00    0.0
2026/01/15 00:21:30.000   22.434276317  114.335387180    63.6371   6  12   0.2783   0.3991   0.6456  -0.0475   0.0932  -0.2188   0.00    0.0
2026/01/15 00:22:00.000   22.434276338  114.335387157    63.6316   6  12   0.2725   0.3938   0.6275  -0.0470   0.0925  -0.2150   0.00    0.0
2026/01/15 00:22:30.000   22.434276376  114.335387093    63.6277   6  12   0.2669   0.3885   0.6101  -0.0466   0.0917  -0.2113   0.00    0.0
2026/01/15 00:23:00.000   22.434276432  114.335387026    63.6260   6  12   0.2614   0.3834   0.5933  -0.0461   0.0910  -0.2076   0.00    0.0
2026/01/15 00:23:30.000   22.434276480  114.335387003    63.6292   6  12   0.2561   0.3784   0.5772  -0.0457   0.0904  -0.2040   0.00    0.0
2026/01/15 00:24:00.000   22.434276516  114.335387009    63.6294   6  13   0.2508   0.3733   0.5613  -0.0447   0.0886  -0.2003   0.00    0.0
2026/01/15 00:24:30.000   22.434276553  114.335387000    63.6391   6  12   0.2459   0.3685   0.5481  -0.0441   0.0869  -0.1973   0.00    0.0
2026/01/15 00:25:00.000   22.434276595  114.335386981    63.6469   6  12   0.2412   0.3638   0.5353  -0.0437   0.0853  -0.1943   0.00    0.0
2026/01/15 00:25:30.000   22.434276621  114.335386995    63.6501   6  13   0.2364   0.3589   0.5225  -0.0421   0.0835  -0.1914   0.00    0.0
2026/01/15 00:26:00.000   22.434276662  114.335387031    63.6501   6  13   0.2317   0.3542   0.5102  -0.0407   0.0819  -0.1885   0.00    0.0
2026/01/15 00:26:30.000   22.434276719  114.335387048    63.6456   6  13   0.2272   0.3496   0.4982  -0.0394   0.0805  -0.1856   0.00    0.0
2026/01/15 00:27:00.000   22.434276803  114.335387016    63.6384   6  13   0.2228   0.3450   0.4866  -0.0382   0.0792  -0.1828   0.00    0.0
2026/01/15 00:27:30.000   22.434276898  114.335386924    63.6304   6  13   0.2185   0.3405   0.4754  -0.0372   0.0781  -0.1801   0.00    0.0
2026/01/15 00:28:00.000   22.434277005  114.335386807    63.6203   6  13   0.2143   0.3361   0.4646  -0.0363   0.0771  -0.1773   0.00    0.0
2026/01/15 00:28:30.000   22.434277119  114.335386710    63.6097   6  13   0.2102   0.3318   0.4541  -0.0355   0.0763  -0.1746   0.00    0.0
2026/01/15 00:29:00.000   22.434277258  114.335386631    63.5979   6  13   0.2062   0.3275   0.4439  -0.0349   0.0755  -0.1720   0.00    0.0
2026/01/15 00:29:30.000   22.434277389  114.335386569    63.5842   6  13   0.2024   0.3233   0.4341  -0.0343   0.0749  -0.1693   0.00    0.0
2026/01/15 00:30:00.000   22.434277504  114.335386519    63.5714   6  13   0.1986   0.3192   0.4245  -0.0338   0.0743  -0.1668   0.00    0.0
2026/01/15 00:30:30.000   22.434277604  114.335386461    63.5576   6  13   0.1949   0.3151   0.4153  -0.0335   0.0739  -0.1642   0.00    0.0
2026/01/15 00:31:00.000   22.434277709  114.335386374    63.5465   6  13   0.1914   0.3111   0.4064  -0.0336   0.0733  -0.1616   0.00    0.0
2026/01/15 00:31:30.000   22.434277814  114.335386284    63.5370   6  13   0.1879   0.3072   0.3977  -0.0337   0.0728  -0.1591   0.00    0.0
2026/01/15 00:32:00.000   22.434277910  114.335386182    63.5264   6  13   0.1846   0.3034   0.3893  -0.0338   0.0723  -0.1566   0.00    0.0
2026/01/15 00:32:30.000   22.434278005  114.335386083    63.5161   6  13   0.1813   0.2996   0.3812  -0.0340   0.0720  -0.1542   0.00    0.0
2026/01/15 00:33:00.000   22.434278079  114.335386007    63.5065   6  13   0.1781   0.2958   0.3733  -0.0342   0.0717  -0.1518   0.00    0.0
2026/01/15 00:33:30.000   22.434278142  114.335385980    63.5014   6  13   0.1749   0.2921   0.3656  -0.0344   0.0714  -0.1495   0.00    0.0
2026/01/15 00:34:00.000   22.434278197  114.335385988    63.4999   6  13   0.1719   0.2885   0.3582  -0.0346   0.0712  -0.1472   0.00    0.0
2026/01/15 00:34:30.000   22.434278241  114.335386031    63.4991   6  13   0.1689   0.2849   0.3510  -0.0349   0.0710  -0.1450   0.00    0.0
2026/01/15 00:35:00.000   22.434278267  114.335386123    63.4993   6  16   0.1660   0.2812   0.3440  -0.0349   0.0709  -0.1428   0.00    0.0
2026/01/15 00:35:30.000   22.434278296  114.335386180    63.5008   6  13   0.1631   0.2777   0.3373  -0.0352   0.0707  -0.1406   0.00    0.0
2026/01/15 00:36:00.000   22.434278331  114.335386214    63.5025   6  13   0.1604   0.2743   0.3322  -0.0355   0.0710  -0.1386   0.00    0.0
2026/01/15 00:36:30.000   22.434278357  114.335386239    63.5038   6  13   0.1577   0.2708   0.3273  -0.0358   0.0712  -0.1366   0.00    0.0
2026/01/15 00:37:00.000   22.434278384  114.335386270    63.5037   6  13   0.1550   0.2675   0.3224  -0.0360   0.0715  -0.1347   0.00    0.0
2026/01/15 00:37:30.000   22.434278424  114.335386308    63.5029   6  13   0.1525   0.2641   0.3177  -0.0363   0.0717  -0.1328   0.00    0.0
2026/01/15 00:38:00.000   22.434278476  114.335386313    63.4995   6  13   0.1500   0.2612   0.3145  -0.0360   0.0748  -0.1306   0.00    0.0
2026/01/15 00:38:30.000   22.434278537  114.335386307    63.4950   6  13   0.1476   0.2583   0.3114  -0.0357   0.0776  -0.1284   0.00    0.0
2026/01/15 00:39:00.000   22.434278602  114.335386279    63.4899   6  13   0.1452   0.2555   0.3084  -0.0354   0.0802  -0.1263   0.00    0.0
2026/01/15 00:39:30.000   22.434278666  114.335386242    63.4846   6  13   0.1429   0.2527   0.3053  -0.0351   0.0826  -0.1242   0.00    0.0
2026/01/15 00:40:00.000   22.434278724  114.335386203    63.4782   6  13   0.1407   0.2499   0.3024  -0.0349   0.0848  -0.1222   0.00    0.0
2026/01/15 00:40:30.000   22.434278758  114.335386190    63.4698   6  15   0.1384   0.2471   0.2994  -0.0346   0.0868  -0.1203   0.00    0.0
2026/01/15 00:41:00.000   22.434278779  114.335386185    63.4631   6  16   0.1363   0.2444   0.2964  -0.0344   0.0888  -0.1185   0.00    0.0
2026/01/15 00:41:30.000   22.434278783  114.335386183    63.4595   6  17   0.1341   0.2417   0.2935  -0.0342   0.0905  -0.1167   0.00    0.0
2026/01/15 00:42:00.000   22.434278778  114.335386169    63.4577   6  19   0.1321   0.2391   0.2907  -0.0340   0.0921  -0.1149   0.00    0.0
2026/01/15 00:42:30.000   22.434278771  114.335386161    63.4585   6  19   0.1300   0.2365   0.2878  -0.0339   0.0936  -0.1132   0.00    0.0
2026/01/15 00:43:00.000   22.434278765  114.335386165    63.4602   6  19   0.1281   0.2339   0.2850  -0.0337   0.0950  -0.1116   0.00    0.0
2026/01/15 00:43:30.000   22.434278769  114.335386156    63.4648   6  13   0.1261   0.2314   0.2823  -0.0337   0.0962  -0.1100   0.00    0.0
2026/01/15 00:44:00.000   22.434278767  114.335386167    63.4675   6  18   0.1242   0.2289   0.2795  -0.0337   0.0973  -0.1084   0.00    0.0
2026/01/15 00:44:30.000   22.434278775  114.335386173    63.4697   6  19   0.1224   0.2264   0.2768  -0.0336   0.0984  -0.1069   0.00    0.0
2026/01/15 00:45:00.000   22.434278790  114.335386182    63.4700   6  19   0.1206   0.2240   0.2741  -0.0336   0.0993  -0.1054   0.00    0.0
2026/01/15 00:45:30.000   22.434278808  114.335386193    63.4682   6  19   0.1188   0.2216   0.2714  -0.0335   0.1001  -0.1040   0.00    0.0
2026/01/15 00:46:00.000   22.434278831  114.335386187    63.4668   6  19   0.1171   0.2192   0.2687  -0.0335   0.1008  -0.1026   0.00    0.0
2026/01/15 00:46:30.000   22.434278859  114.335386183    63.4644   6  19   0.1154   0.2169   0.2661  -0.0335   0.1015  -0.1012   0.00    0.0
2026/01/15 00:47:00.000   22.434278889  114.335386196    63.4621   6  19   0.1137   0.2145   0.2635  -0.0335   0.1020  -0.0999   0.00    0.0
2026/01/15 00:47:30.000   22.434278925  114.335386211    63.4607   6  19   0.1121   0.2122   0.2609  -0.0335   0.1025  -0.0986   0.00    0.0
2026/01/15 00:48:00.000   22.434278957  114.335386218    63.4598   6  18   0.1105   0.2100   0.2583  -0.0335   0.1029  -0.0974   0.00    0.0
2026/01/15 00:48:30.000   22.434278970  114.335386229    63.4587   6  11   0.1102   0.2091   0.2570  -0.0331   0.1018  -0.0968   0.00    0.0
2026/01/15 00:49:00.000   22.434278975  114.335386239    63.4564   6   7   0.1100   0.2083   0.2566  -0.0327   0.1011  -0.0965   0.00    0.0
2026/01/15 00:49:30.000   22.434278981  114.335386252    63.4550   6   7   0.1099   0.2077   0.2561  -0.0323   0.1006  -0.0962   0.00    0.0
2026/01/15 00:50:00.000   22.434278987  114.335386274    63.4529   6   7   0.1097   0.2070   0.2557  -0.0319   0.1000  -0.0959   0.00    0.0
2026/01/15 00:50:30.000   22.434278997  114.335386295    63.4507   6   7   0.1095   0.2063   0.2552  -0.0315   0.0994  -0.0956   0.00    0.0
2026/01/15 00:51:00.000   22.434279005  114.335386314    63.4491   6   7   0.1093   0.2056   0.2547  -0.0310   0.0987  -0.0953   0.00    0.0
2026/01/15 00:51:30.000   22.434279011  114.335386337    63.4478   6   7   0.1091   0.2049   0.2543  -0.0306   0.0981  -0.0949   0.00    0.0
2026/01/15 00:52:00.000   22.434279012  114.335386366    63.4458   6   7   0.1089   0.2043   0.2538  -0.0302   0.0975  -0.0946   0.00    0.0
2026/01/15 00:52:30.000   22.434279014  114.335386390    63.4430   6   7   0.1087   0.2036   0.2532  -0.0297   0.0969  -0.0943   0.00    0.0
2026/01/15 00:53:00.000   22.434279017  114.335386416    63.4398   6   7   0.1085   0.2029   0.2527  -0.0293   0.0963  -0.0939   0.00    0.0
2026/01/15 00:53:30.000   22.434279017  114.335386439    63.4363   6   7   0.1083   0.2023   0.2522  -0.0288   0.0957  -0.0936   0.00    0.0
2026/01/15 00:54:00.000   22.434279020  114.335386444    63.4329   6   7   0.1081   0.2016   0.2516  -0.0283   0.0950  -0.0932   0.00    0.0
2026/01/15 00:54:30.000   22.434279049  114.335386406    63.4344   6  18   0.1058   0.1984   0.2478  -0.0291   0.0959  -0.0916   0.00    0.0
2026/01/15 00:55:00.000   22.434279079  114.335386380    63.4354   6  18   0.1036   0.1954   0.2441  -0.0298   0.0966  -0.0900   0.00    0.0
2026/01/15 00:55:30.000   22.434279096  114.335386360    63.4319   6   7   0.1034   0.1948   0.2435  -0.0294   0.0959  -0.0897   0.00    0.0
2026/01/15 00:56:00.000   22.434279117  114.335386332    63.4278   6   7   0.1033   0.1942   0.2429  -0.0290   0.0953  -0.0893   0.00    0.0
2026/01/15 00:56:30.000   22.434279141  114.335386304    63.4235   6   7   0.1031   0.1936   0.2423  -0.0285   0.0947  -0.0889   0.00    0.0
2026/01/15 00:57:00.000   22.434279165  114.335386283    63.4191   6   7   0.1029   0.1930   0.2417  -0.0281   0.0940  -0.0885   0.00    0.0
2026/01/15 00:57:30.000   22.434279189  114.335386269    63.4149   6   7   0.1027   0.1924   0.2411  -0.0276   0.0934  -0.0881   0.00    0.0
2026/01/15 00:58:00.000   22.434279213  114.335386262    63.4112   6   7   0.1025   0.1919   0.2404  -0.0271   0.0927  -0.0877   0.00    0.0
2026/01/15 00:58:30.000   22.434279233  114.335386241    63.4072   6   7   0.1023   0.1913   0.2397  -0.0266   0.0920  -0.0873   0.00    0.0
2026/01/15 00:59:00.000   22.434279250  114.335386219    63.4032   6   7   0.1020   0.1907   0.2391  -0.0261   0.0914  -0.0869   0.00    0.0
2026/01/15 00:59:30.000   22.434279262  114.335386198    63.3991   6   7   0.1018   0.1901   0.2384  -0.0256   0.0907  -0.0864   0.00    0.0
2026/01/15 01:00:00.000   22.434279273  114.335386166    63.3947   6   7   0.1016   0.1896   0.2376  -0.0251   0.0900  -0.0860   0.00    0.0
2026/01/15 01:00:30.000   22.434279286  114.335386132    63.3902   6   7   0.1014   0.1890   0.2369  -0.0245   0.0893  -0.0855   0.00    0.0
2026/01/15 01:01:00.000   22.434279302  114.335386112    63.3860   6   7   0.1012   0.1884   0.2361  -0.0240   0.0886  -0.0851   0.00    0.0
2026/01/15 01:01:30.000   22.434279322  114.335386109    63.3821   6   7   0.1009   0.1879   0.2354  -0.0234   0.0879  -0.0846   0.00    0.0
2026/01/15 01:02:00.000   22.434279335  114.335386124    63.3782   6   8   0.1007   0.1873   0.2346  -0.0227   0.0872  -0.0841   0.00    0.0
2026/01/15 01:02:30.000   22.434279345  114.335386137    63.3744   6   7   0.1005   0.1867   0.2338  -0.0220   0.0865  -0.0837   0.00    0.0
2026/01/15 01:03:00.000   22.434279354  114.335386152    63.3712   6   8   0.1002   0.1862   0.2329  -0.0213   0.0858  -0.0832   0.00    0.0
2026/01/15 01:03:30.000   22.434279362  114.335386164    63.3683   6   7   0.1000   0.1856   0.2321  -0.0206   0.0850  -0.0827   0.00    0.0
2026/01/15 01:04:00.000   22.434279367  114.335386176    63.3655   6   7   0.0997   0.1851   0.2312  -0.0198   0.0843  -0.0822   0.00    0.0
2026/01/15 01:04:30.000   22.434279370  114.335386193    63.3637   6   7   0.0994   0.1845   0.2303  -0.0190   0.0836  -0.0816   0.00    0.0
2026/01/15 01:05:00.000   22.434279364  114.335386224    63.3634   6   7   0.0992   0.1839   0.2294  -0.0182   0.0828  -0.0811   0.00    0.0
2026/01/15 01:05:30.000   22.434279346  114.335386270    63.3642   6   7   0.0989   0.1834   0.2285  -0.0173   0.0821  -0.0806   0.00    0.0
2026/01/15 01:06:00.000   22.434279325  114.335386313    63.3650   6   7   0.0987   0.1828   0.2276  -0.0163   0.0814  -0.0801   0.00    0.0
2026/01/15 01:06:30.000   22.434279306  114.335386350    63.3658   6   7   0.0984   0.1823   0.2266  -0.0153   0.0806  -0.0795   0.00    0.0
2026/01/15 01:07:00.000   22.434279289  114.335386376    63.3672   6   7   0.0981   0.1817   0.2256  -0.0143   0.0798  -0.0789   0.00    0.0
2026/01/15 01:09:00.000   22.434279246  114.335386475    63.3628   6   4   0.0977   0.1801   0.2249  -0.0135   0.0786  -0.0783   0.00    0.0
2026/01/15 01:10:00.000   22.434279240  114.335386477    63.3549   6   4   0.0974   0.1793   0.2246  -0.0131   0.0780  -0.0780   0.00    0.0
2026/01/15 01:13:30.000   22.434279280  114.335386474    63.3329   6   6   0.0963   0.1763   0.2217  -0.0096   0.0751  -0.0761   0.00    0.0
2026/01/15 01:14:00.000   22.434279286  114.335386476    63.3353   6   6   0.0959   0.1757   0.2199  -0.0066   0.0739  -0.0752   0.00    0.0
2026/01/15 01:14:30.000   22.434279289  114.335386482    63.3373   6   6   0.0954   0.1752   0.2181   0.0017   0.0728  -0.0742   0.00    0.0
2026/01/15 01:15:00.000   22.434279289  114.335386491    63.3387   6   6   0.0950   0.1746   0.2164   0.0070   0.0716  -0.0733   0.00    0.0
2026/01/15 01:15:30.000   22.434279290  114.335386489    63.3400   6   6   0.0946   0.1740   0.2146   0.0096   0.0705  -0.0724   0.00    0.0
2026/01/15 01:16:00.000   22.434279290  114.335386484    63.3415   6   6   0.0941   0.1735   0.2129   0.0116   0.0693  -0.0715   0.00    0.0
2026/01/15 01:16:30.000   22.434279290  114.335386468    63.3426   6   6   0.0937   0.1729   0.2112   0.0133   0.0682  -0.0706   0.00    0.0
2026/01/15 01:17:00.000   22.434279287  114.335386458    63.3434   6   6   0.0933   0.1724   0.2095   0.0147   0.0671  -0.0697   0.00    0.0
2026/01/15 01:17:30.000   22.434279283  114.335386444    63.3442   6   7   0.0929   0.1718   0.2078   0.0160   0.0661  -0.0688   0.00    0.0
2026/01/15 01:18:00.000   22.434279280  114.335386424    63.3462   6   7   0.0924   0.1713   0.2062   0.0172   0.0650  -0.0679   0.00    0.0
2026/01/15 01:18:30.000   22.434279276  114.335386407    63.3473   6   6   0.0920   0.1707   0.2045   0.0182   0.0640  -0.0671   0.00    0.0
2026/01/15 01:19:00.000   22.434279275  114.335386394    63.3485   6   6   0.0916   0.1702   0.2029   0.0192   0.0630  -0.0662   0.00    0.0
2026/01/15 01:19:30.000   22.434279274  114.335386377    63.3499   6   6   0.0912   0.1696   0.2013   0.0201   0.0620  -0.0654   0.00    0.0
2026/01/15 01:20:00.000   22.434279273  114.335386356    63.3511   6   6   0.0908   0.1691   0.1997   0.0209   0.0610  -0.0646   0.00    0.0
2026/01/15 01:20:30.000   22.434279275  114.335386334    63.3521   6   6   0.0903   0.1686   0.1981   0.0217   0.0600  -0.0638   0.00    0.0
2026/01/15 01:21:00.000   22.434279277  114.335386309    63.3533   6   6   0.0899   0.1681   0.1965   0.0224   0.0591  -0.0630   0.00    0.0
2026/01/15 01:21:30.000   22.434279278  114.335386282    63.3540   6   6   0.0895   0.1675   0.1950   0.0231   0.0581  -0.0622   0.00    0.0
2026/01/15 01:22:00.000   22.434279278  114.335386262    63.3553   6   6   0.0891   0.1670   0.1935   0.0238   0.0571  -0.0614   0.00    0.0
2026/01/15 01:22:30.000   22.434279279  114.335386247    63.3567   6   6   0.0887   0.1665   0.1919   0.0244   0.0562  -0.0606   0.00    0.0
2026/01/15 01:23:00.000   22.434279279  114.335386233    63.3583   6   6   0.0883   0.1660   0.1904   0.0250   0.0552  -0.0598   0.00    0.0
2026/01/15 01:23:30.000   22.434279284  114.335386212    63.3597   6   8   0.0879   0.1655   0.1889   0.0256   0.0543  -0.0591   0.00    0.0
2026/01/15 01:24:00.000   22.434279292  114.335386192    63.3612   6   6   0.0875   0.1650   0.1874   0.0261   0.0534  -0.0583   0.00    0.0
2026/01/15 01:24:30.000   22.434279300  114.335386168    63.3632   6   6   0.0871   0.1646   0.1860   0.0266   0.0525  -0.0576   0.00    0.0
2026/01/15 01:25:00.000   22.434279306  114.335386132    63.3653   6   6   0.0867   0.1641   0.1845   0.0271   0.0516  -0.0569   0.00    0.0
2026/01/15 01:25:30.000   22.434279313  114.335386090    63.3673   6   6   0.0863   0.1636   0.1831   0.0276   0.0507  -0.0561   0.00    0.0
2026/01/15 01:26:00.000   22.434279317  114.335386057    63.3692   6   8   0.0859   0.1631   0.1816   0.0280   0.0498  -0.0554   0.00    0.0
2026/01/15 01:26:30.000   22.434279319  114.335386031    63.3713   6   9   0.0855   0.1626   0.1802   0.0284   0.0490  -0.0547   0.00    0.0
2026/01/15 01:27:00.000   22.434279321  114.335386019    63.3726   6   7   0.0851   0.1622   0.1788   0.0288   0.0481  -0.0540   0.00    0.0
2026/01/15 01:27:30.000   22.434279324  114.335386011    63.3742   6   6   0.0847   0.1617   0.1774   0.0292   0.0473  -0.0533   0.00    0.0
2026/01/15 01:28:00.000   22.434279325  114.335386001    63.3759   6   9   0.0843   0.1612   0.1760   0.0296   0.0464  -0.0526   0.00    0.0
2026/01/15 01:28:30.000   22.434279329  114.335385994    63.3774   6   6   0.0839   0.1608   0.1746   0.0299   0.0456  -0.0519   0.00    0.0
2026/01/15 01:29:00.000   22.434279333  114.335385988    63.3788   6   6   0.0835   0.1603   0.1732   0.0303   0.0448  -0.0513   0.00    0.0
2026/01/15 01:30:00.000   22.434279350  114.335385958    63.3748   6   4   0.0833   0.1597   0.1731   0.0302   0.0446  -0.0512   0.00    0.0
2026/01/15 01:30:30.000   22.434279360  114.335385949    63.3728   6   4   0.0833   0.1594   0.1731   0.0301   0.0445  -0.0512   0.00    0.0
2026/01/15 01:31:00.000   22.434279371  114.335385949    63.3712   6   4   0.0832   0.1591   0.1730   0.0301   0.0444  -0.0511   0.00    0.0
2026/01/15 01:31:30.000   22.434279381  114.335385952    63.3699   6   5   0.0831   0.1589   0.1729   0.0300   0.0443  -0.0511   0.00    0.0
2026/01/15 01:32:00.000   22.434279386  114.335385952    63.3685   6   4   0.0830   0.1586   0.1729   0.0300   0.0442  -0.0510   0.00    0.0
2026/01/15 01:32:30.000   22.434279388  114.335385947    63.3669   6   4   0.0830   0.1583   0.1728   0.0299   0.0441  -0.0510   0.00    0.0
2026/01/15 01:33:00.000   22.434279391  114.335385939    63.3652   6   4   0.0829   0.1580   0.1727   0.0299   0.0440  -0.0510   0.00    0.0
2026/01/15 01:33:30.000   22.434279394  114.335385925    63.3637   6   4   0.0828   0.1577   0.1727   0.0298   0.0439  -0.0510   0.00    0.0
2026/01/15 01:34:00.000   22.434279397  114.335385907    63.3625   6   4   0.0827   0.1574   0.1726   0.0298   0.0438  -0.0509   0.00    0.0
2026/01/15 01:36:00.000   22.434279390  114.335385862    63.3608   6   5   0.0826   0.1571   0.1725   0.0297   0.0437  -0.0509   0.00    0.0
2026/01/15 01:36:30.000   22.434279393  114.335385874    63.3599   6   5   0.0826   0.1568   0.1724   0.0296   0.0436  -0.0509   0.00    0.0
2026/01/15 01:37:00.000   22.434279388  114.335385894    63.3653   6   6   0.0820   0.1563   0.1702   0.0301   0.0425  -0.0498   0.00    0.0
2026/01/15 01:37:30.000   22.434279384  114.335385917    63.3708   6  11   0.0814   0.1558   0.1680   0.0305   0.0413  -0.0488   0.00    0.0
2026/01/15 01:38:00.000   22.434279381  114.335385937    63.3755   6  10   0.0808   0.1552   0.1659   0.0309   0.0401  -0.0478   0.00    0.0
2026/01/15 01:38:30.000   22.434279381  114.335385956    63.3800   6  10   0.0802   0.1547   0.1639   0.0312   0.0390  -0.0469   0.00    0.0
2026/01/15 01:39:00.000   22.434279380  114.335385967    63.3842   6  10   0.0796   0.1542   0.1619   0.0315   0.0379  -0.0460   0.00    0.0
2026/01/15 01:39:30.000   22.434279385  114.335385955    63.3828   6   8   0.0794   0.1538   0.1618   0.0320   0.0375  -0.0458   0.00    0.0
2026/01/15 01:40:00.000   22.434279392  114.335385940    63.3818   6   8   0.0792   0.1534   0.1617   0.0325   0.0371  -0.0457   0.00    0.0
2026/01/15 01:40:30.000   22.434279398  114.335385920    63.3808   6   6   0.0791   0.1531   0.1616   0.0324   0.0370  -0.0457   0.00    0.0
2026/01/15 01:41:00.000   22.434279403  114.335385904    63.3797   6   6   0.0790   0.1528   0.1616   0.0323   0.0369  -0.0457   0.00    0.0
2026/01/15 01:41:30.000   22.434279408  114.335385899    63.3788   6   7   0.0788   0.1524   0.1614   0.0328   0.0365  -0.0456   0.00    0.0
2026/01/15 01:42:00.000   22.434279414  114.335385910    63.3822   6   9   0.0784   0.1519   0.1595   0.0330   0.0352  -0.0451   0.00    0.0
2026/01/15 01:42:30.000   22.434279420  114.335385921    63.3813   6   7   0.0781   0.1514   0.1594   0.0335   0.0348  -0.0450   0.00    0.0
2026/01/15 01:43:00.000   22.434279423  114.335385945    63.3862   6  10   0.0775   0.1510   0.1572   0.0336   0.0337  -0.0440   0.00    0.0
2026/01/15 01:43:30.000   22.434279425  114.335385969    63.3913   6  10   0.0769   0.1505   0.1551   0.0338   0.0326  -0.0431   0.00    0.0
2026/01/15 01:44:00.000   22.434279432  114.335385998    63.3961   6   6   0.0763   0.1500   0.1531   0.0339   0.0316  -0.0421   0.00    0.0
2026/01/15 01:44:30.000   22.434279441  114.335386021    63.4004   6   6   0.0758   0.1496   0.1511   0.0341   0.0306  -0.0412   0.00    0.0
2026/01/15 01:45:00.000   22.434279450  114.335386039    63.4047   6   6   0.0752   0.1491   0.1493   0.0342   0.0297  -0.0403   0.00    0.0
2026/01/15 01:45:30.000   22.434279457  114.335386050    63.4092   6   6   0.0747   0.1487   0.1475   0.0343   0.0288  -0.0395   0.00    0.0
2026/01/15 01:46:00.000   22.434279464  114.335386053    63.4129   6   7   0.0741   0.1482   0.1457   0.0344   0.0278  -0.0387   0.00    0.0
2026/01/15 01:46:30.000   22.434279469  114.335386046    63.4169   6   7   0.0736   0.1478   0.1440   0.0345   0.0269  -0.0379   0.00    0.0
2026/01/15 01:47:00.000   22.434279474  114.335386034    63.4207   6   7   0.0731   0.1473   0.1423   0.0346   0.0261  -0.0371   0.00    0.0
2026/01/15 01:47:30.000   22.434279476  114.335386020    63.4241   6   7   0.0726   0.1469   0.1407   0.0347   0.0252  -0.0363   0.00    0.0
2026/01/15 01:48:00.000   22.434279477  114.335386004    63.4271   6   7   0.0721   0.1465   0.1391   0.0348   0.0244  -0.0356   0.00    0.0
2026/01/15 01:48:30.000   22.434279482  114.335385991    63.4298   6   7   0.0716   0.1460   0.1376   0.0348   0.0236  -0.0349   0.00    0.0
2026/01/15 01:49:00.000   22.434279483  114.335385983    63.4324   6   7   0.0711   0.1456   0.1361   0.0349   0.0228  -0.0342   0.00    0.0
2026/01/15 01:49:30.000   22.434279489  114.335385984    63.4346   6   7   0.0706   0.1452   0.1347   0.0349   0.0220  -0.0336   0.00    0.0
2026/01/15 01:50:00.000   22.434279494  114.335385988    63.4370   6   7   0.0701   0.1448   0.1333   0.0349   0.0212  -0.0329   0.00    0.0
2026/01/15 01:50:30.000   22.434279497  114.335385991    63.4389   6   7   0.0696   0.1443   0.1319   0.0349   0.0204  -0.0323   0.00    0.0
2026/01/15 01:51:00.000   22.434279499  114.335385998    63.4410   6   7   0.0692   0.1439   0.1306   0.0349   0.0197  -0.0317   0.00    0.0
2026/01/15 01:51:30.000   22.434279501  114.335386010    63.4433   6   7   0.0687   0.1435   0.1292   0.0350   0.0189  -0.0311   0.00    0.0
2026/01/15 01:52:00.000   22.434279503  114.335386025    63.4456   6   7   0.0683   0.1431   0.1280   0.0349   0.0182  -0.0305   0.00    0.0
2026/01/15 01:52:30.000   22.434279503  114.335386036    63.4477   6   7   0.0678   0.1427   0.1267   0.0349   0.0175  -0.0300   0.00    0.0
2026/01/15 01:53:00.000   22.434279501  114.335386043    63.4499   6   7   0.0674   0.1423   0.1255   0.0349   0.0168  -0.0294   0.00    0.0
2026/01/15 01:53:30.000   22.434279499  114.335386044    63.4522   6   7   0.0670   0.1419   0.1243   0.0349   0.0161  -0.0289   0.00    0.0
2026/01/15 01:54:00.000   22.434279498  114.335386041    63.4544   6  10   0.0665   0.1415   0.1231   0.0349   0.0154  -0.0284   0.00    0.0
2026/01/15 01:54:30.000   22.434279492  114.335386032    63.4561   6   7   0.0661   0.1411   0.1220   0.0348   0.0146  -0.0279   0.00    0.0
2026/01/15 01:55:00.000   22.434279487  114.335386027    63.4578   6   7   0.0657   0.1407   0.1208   0.0348   0.0139  -0.0274   0.00    0.0
2026/01/15 01:55:30.000   22.434279489  114.335386028    63.4590   6   7   0.0653   0.1403   0.1197   0.0347   0.0132  -0.0269   0.00    0.0
2026/01/15 01:56:00.000   22.434279489  114.335386022    63.4615   6   6   0.0649   0.1399   0.1191   0.0347   0.0121  -0.0267   0.00    0.0
2026/01/15 01:56:30.000   22.434279491  114.335386010    63.4640   6   6   0.0645   0.1395   0.1186   0.0347   0.0110  -0.0265   0.00    0.0
2026/01/15 01:57:00.000   22.434279494  114.335385999    63.4665   6   6   0.0641   0.1391   0.1180   0.0346   0.0097  -0.0262   0.00    0.0
2026/01/15 01:57:30.000   22.434279493  114.335385983    63.4687   6   6   0.0637   0.1388   0.1174   0.0346   0.0083  -0.0260   0.00    0.0
2026/01/15 01:58:00.000   22.434279489  114.335385963    63.4708   6   6   0.0633   0.1384   0.1168   0.0346   0.0066  -0.0258   0.00    0.0
2026/01/15 01:58:30.000   22.434279483  114.335385938    63.4729   6   6   0.0629   0.1380   0.1162   0.0345   0.0044  -0.0256   0.00    0.0
2026/01/15 01:59:00.000   22.434279477  114.335385915    63.4754   6   6   0.0626   0.1377   0.1157   0.0345  -0.0021  -0.0254   0.00    0.0
2026/01/15 01:59:30.000   22.434279470  114.335385892    63.4779   6   6   0.0622   0.1373   0.1151   0.0344  -0.0052  -0.0252   0.00    0.0
2026/01/15 02:00:00.000   22.434279460  114.335385869    63.4805   6   6   0.0618   0.1370   0.1145   0.0343  -0.0071  -0.0250   0.00    0.0
2026/01/15 02:00:30.000   22.434279450  114.335385848    63.4830   6   6   0.0615   0.1366   0.1140   0.0343  -0.0085  -0.0248   0.00    0.0
2026/01/15 02:01:00.000   22.434279440  114.335385830    63.4857   6   6   0.0611   0.1362   0.1134   0.0342  -0.0097  -0.0246   0.00    0.0
2026/01/15 02:01:30.000   22.434279431  114.335385814    63.4883   6   6   0.0607   0.1359   0.1128   0.0341  -0.0108  -0.0244   0.00    0.0
2026/01/15 02:02:00.000   22.434279424  114.335385807    63.4908   6   6   0.0604   0.1355   0.1123   0.0340  -0.0117  -0.0242   0.00    0.0
2026/01/15 02:02:30.000   22.434279417  114.335385802    63.4932   6   6   0.0600   0.1351   0.1117   0.0339  -0.0125  -0.0240   0.00    0.0
2026/01/15 02:03:00.000   22.434279411  114.335385796    63.4958   6   6   0.0597   0.1348   0.1112   0.0339  -0.0133  -0.0238   0.00    0.0
2026/01/15 02:03:30.000   22.434279406  114.335385789    63.4981   6   6   0.0593   0.1344   0.1106   0.0338  -0.0140  -0.0237   0.00    0.0
2026/01/15 02:04:00.000   22.434279401  114.335385784    63.5004   6   6   0.0590   0.1341   0.1101   0.0337  -0.0147  -0.0235   0.00    0.0
2026/01/15 02:04:30.000   22.434279399  114.335385783    63.5027   6   9   0.0586   0.1337   0.1095   0.0336  -0.0153  -0.0233   0.00    0.0
2026/01/15 02:05:00.000   22.434279398  114.335385787    63.5051   6   6   0.0583   0.1334   0.1090   0.0335  -0.0159  -0.0231   0.00    0.0
2026/01/15 02:05:30.000   22.434279397  114.335385787    63.5073   6   6   0.0580   0.1330   0.1085   0.0334  -0.0164  -0.0229   0.00    0.0
2026/01/15 02:06:00.000   22.434279398  114.335385785    63.5096   6   6   0.0576   0.1327   0.1079   0.0332  -0.0169  -0.0227   0.00    0.0
2026/01/15 02:06:30.000   22.434279396  114.335385774    63.5116   6   6   0.0573   0.1323   0.1074   0.0331  -0.0174  -0.0225   0.00    0.0
2026/01/15 02:07:00.000   22.434279395  114.335385764    63.5138   6   6   0.0570   0.1320   0.1069   0.0330  -0.0179  -0.0223   0.00    0.0
2026/01/15 02:07:30.000   22.434279394  114.335385759    63.5159   6   6   0.0567   0.1317   0.1063   0.0329  -0.0183  -0.0222   0.00    0.0
2026/01/15 02:08:00.000   22.434279394  114.335385759    63.5183   6   6   0.0563   0.1313   0.1058   0.0328  -0.0187  -0.0220   0.00    0.0
2026/01/15 02:08:30.000   22.434279393  114.335385759    63.5205   6   6   0.0560   0.1310   0.1053   0.0327  -0.0191  -0.0218   0.00    0.0
2026/01/15 02:09:00.000   22.434279392  114.335385762    63.5226   6   6   0.0557   0.1307   0.1047   0.0325  -0.0195  -0.0216   0.00    0.0
2026/01/15 02:09:30.000   22.434279389  114.335385760    63.5248   6   6   0.0554   0.1303   0.1042   0.0324  -0.0198  -0.0214   0.00    0.0
2026/01/15 02:10:00.000   22.434279385  114.335385754    63.5271   6   6   0.0551   0.1300   0.1037   0.0323  -0.0202  -0.0212   0.00    0.0
2026/01/15 02:10:30.000   22.434279382  114.335385741    63.5295   6   6   0.0548   0.1297   0.1032   0.0321  -0.0205  -0.0211   0.00    0.0
2026/01/15 02:11:00.000   22.434279378  114.335385729    63.5320   6   6   0.0545   0.1293   0.1027   0.0320  -0.0208  -0.0209   0.00    0.0
2026/01/15 02:11:30.000   22.434279375  114.335385720    63.5344   6   6   0.0542   0.1290   0.1022   0.0319  -0.0211  -0.0207   0.00    0.0
2026/01/15 02:12:00.000   22.434279372  114.335385716    63.5365   6   7   0.0539   0.1287   0.1017   0.0317  -0.0214  -0.0205   0.00    0.0
2026/01/15 02:12:30.000   22.434279368  114.335385713    63.5387   6   6   0.0536   0.1284   0.1012   0.0316  -0.0217  -0.0203   0.00    0.0
2026/01/15 02:13:00.000   22.434279365  114.335385713    63.5410   6   6   0.0533   0.1280   0.1006   0.0315  -0.0219  -0.0202   0.00    0.0
2026/01/15 02:13:30.000   22.434279363  114.335385715    63.5435   6   6   0.0530   0.1277   0.1001   0.0313  -0.0222  -0.0200   0.00    0.0
2026/01/15 02:14:00.000   22.434279361  114.335385718    63.5458   6   6   0.0527   0.1274   0.0996   0.0312  -0.0224  -0.0198   0.00    0.0
2026/01/15 02:14:30.000   22.434279360  114.335385719    63.5479   6   6   0.0524   0.1271   0.0991   0.0310  -0.0226  -0.0196   0.00    0.0
2026/01/15 02:15:00.000   22.434279358  114.335385716    63.5501   6   6   0.0521   0.1268   0.0987   0.0309  -0.0229  -0.0194   0.00    0.0
2026/01/15 02:15:30.000   22.434279357  114.335385709    63.5522   6   6   0.0518   0.1265   0.0982   0.0307  -0.0231  -0.0193   0.00    0.0
2026/01/15 02:16:00.000   22.434279355  114.335385700    63.5540   6   6   0.0515   0.1262   0.0977   0.0306  -0.0233  -0.0191   0.00    0.0
2026/01/15 02:16:30.000   22.434279353  114.335385695    63.5557   6   6   0.0512   0.1259   0.0972   0.0304  -0.0235  -0.0189   0.00    0.0
2026/01/15 02:17:00.000   22.434279351  114.335385695    63.5576   6   6   0.0510   0.1255   0.0967   0.0303  -0.0236  -0.0187   0.00    0.0
2026/01/15 02:17:30.000   22.434279349  114.335385695    63.5593   6   7   0.0507   0.1252   0.0962   0.0301  -0.0238  -0.0186   0.00    0.0
2026/01/15 02:18:00.000   22.434279345  114.335385692    63.5610   6   6   0.0504   0.1249   0.0957   0.0299  -0.0240  -0.0184   0.00    0.0
2026/01/15 02:18:30.000   22.434279342  114.335385688    63.5627   6   7   0.0501   0.1246   0.0952   0.0298  -0.0242  -0.0182   0.00    0.0
2026/01/15 02:19:00.000   22.434279338  114.335385679    63.5646   6   6   0.0499   0.1243   0.0948   0.0296  -0.0243  -0.0180   0.00    0.0
2026/01/15 02:19:30.000   22.434279334  114.335385665    63.5665   6   7   0.0496   0.1240   0.0943   0.0294  -0.0245  -0.0179   0.00    0.0
2026/01/15 02:20:00.000   22.434279331  114.335385652    63.5685   6   6   0.0493   0.1237   0.0938   0.0293  -0.0246  -0.0177   0.00    0.0
2026/01/15 02:20:30.000   22.434279328  114.335385636    63.5706   6   9   0.0491   0.1234   0.0933   0.0291  -0.0247  -0.0175   0.00    0.0
2026/01/15 02:21:00.000   22.434279326  114.335385621    63.5728   6   8   0.0488   0.1231   0.0929   0.0289  -0.0249  -0.0173   0.00    0.0
2026/01/15 02:21:30.000   22.434279323  114.335385608    63.5750   6  10   0.0485   0.1228   0.0924   0.0287  -0.0250  -0.0172   0.00    0.0
2026/01/15 02:22:00.000   22.434279320  114.335385598    63.5771   6  13   0.0483   0.1225   0.0919   0.0285  -0.0251  -0.0170   0.00    0.0
2026/01/15 02:22:30.000   22.434279318  114.335385592    63.5793   6  15   0.0480   0.1222   0.0915   0.0284  -0.0252  -0.0168   0.00    0.0
2026/01/15 02:23:00.000   22.434279316  114.335385583    63.5814   6  15   0.0478   0.1219   0.0910   0.0282  -0.0253  -0.0166   0.00    0.0
2026/01/15 02:23:30.000   22.434279313  114.335385571    63.5833   6  15   0.0475   0.1216   0.0906   0.0280  -0.0254  -0.0165   0.00    0.0
2026/01/15 02:24:00.000   22.434279312  114.335385563    63.5854   6  17   0.0473   0.1213   0.0901   0.0278  -0.0255  -0.0163   0.00    0.0
2026/01/15 02:24:30.000   22.434279310  114.335385554    63.5872   6  18   0.0470   0.1210   0.0897   0.0276  -0.0256  -0.0161   0.00    0.0
2026/01/15 02:25:00.000   22.434279310  114.335385546    63.5891   6  19   0.0468   0.1207   0.0892   0.0274  -0.0256  -0.0159   0.00    0.0
2026/01/15 02:25:30.000   22.434279309  114.335385538    63.5910   6  21   0.0465   0.1203   0.0888   0.0272  -0.0257  -0.0158   0.00    0.0
2026/01/15 02:26:00.000   22.434279307  114.335385532    63.5927   6  21   0.0463   0.1200   0.0883   0.0270  -0.0258  -0.0156   0.00    0.0
2026/01/15 02:26:30.000   22.434279307  114.335385527    63.5945   6  21   0.0460   0.1197   0.0879   0.0268  -0.0258  -0.0154   0.00    0.0
2026/01/15 02:27:00.000   22.434279307  114.335385522    63.5961   6  21   0.0458   0.1194   0.0874   0.0266  -0.0259  -0.0152   0.00    0.0
2026/01/15 02:27:30.000   22.434279308  114.335385515    63.5975   6  20   0.0455   0.1191   0.0870   0.0264  -0.0259  -0.0151   0.00    0.0
2026/01/15 02:28:00.000   22.434279307  114.335385504    63.5988   6  20   0.0453   0.1188   0.0865   0.0262  -0.0260  -0.0149   0.00    0.0
2026/01/15 02:28:30.000   22.434279307  114.335385494    63.6003   6  20   0.0451   0.1185   0.0861   0.0260  -0.0260  -0.0147   0.00    0.0
2026/01/15 02:29:00.000   22.434279307  114.335385483    63.6019   6  20   0.0448   0.1182   0.0857   0.0258  -0.0260  -0.0145   0.00    0.0
2026/01/15 02:29:30.000   22.434279308  114.335385472    63.6037   6  20   0.0446   0.1179   0.0852   0.0255  -0.0260  -0.0144   0.00    0.0
2026/01/15 02:30:00.000   22.434279308  114.335385459    63.6056   6  20   0.0444   0.1176   0.0848   0.0253  -0.0260  -0.0142   0.00    0.0
2026/01/15 02:30:30.000   22.434279309  114.335385445    63.6062   6  14   0.0444   0.1174   0.0848   0.0253  -0.0260  -0.0142   0.00    0.0
2026/01/15 02:31:00.000   22.434279309  114.335385436    63.6067   6  15   0.0443   0.1173   0.0848   0.0253  -0.0259  -0.0142   0.00    0.0
2026/01/15 02:31:30.000   22.434279309  114.335385431    63.6073   6  15   0.0443   0.1171   0.0847   0.0252  -0.0258  -0.0142   0.00    0.0
2026/01/15 02:32:00.000   22.434279307  114.335385424    63.6079   6  15   0.0443   0.1170   0.0847   0.0252  -0.0257  -0.0142   0.00    0.0
2026/01/15 02:32:30.000   22.434279305  114.335385415    63.6085   6  15   0.0443   0.1168   0.0847   0.0251  -0.0256  -0.0142   0.00    0.0
2026/01/15 02:33:00.000   22.434279303  114.335385410    63.6090   6  15   0.0443   0.1166   0.0847   0.0251  -0.0255  -0.0142   0.00    0.0
2026/01/15 02:33:30.000   22.434279300  114.335385407    63.6095   6  16   0.0443   0.1165   0.0846   0.0250  -0.0254  -0.0142   0.00    0.0
2026/01/15 02:34:00.000   22.434279297  114.335385413    63.6098   6  15   0.0442   0.1163   0.0846   0.0250  -0.0252  -0.0142   0.00    0.0
2026/01/15 02:34:30.000   22.434279295  114.335385423    63.6100   6  15   0.0442   0.1161   0.0846   0.0250  -0.0251  -0.0141   0.00    0.0
2026/01/15 02:35:00.000   22.434279293  114.335385430    63.6102   6  15   0.0442   0.1160   0.0846   0.0249  -0.0250  -0.0141   0.00    0.0
2026/01/15 02:35:30.000   22.434279292  114.335385435    63.6105   6  15   0.0442   0.1158   0.0845   0.0248  -0.0248  -0.0141   0.00    0.0
2026/01/15 02:36:00.000   22.434279291  114.335385437    63.6125   6  21   0.0439   0.1154   0.0840   0.0245  -0.0248  -0.0139   0.00    0.0
2026/01/15 02:36:30.000   22.434279290  114.335385434    63.6145   6  21   0.0436   0.1150   0.0834   0.0242  -0.0247  -0.0136   0.00    0.0
2026/01/15 02:37:00.000   22.434279290  114.335385428    63.6165   6  21   0.0433   0.1146   0.0829   0.0239  -0.0247  -0.0134   0.00    0.0
2026/01/15 02:37:30.000   22.434279290  114.335385415    63.6185   6  21   0.0431   0.1143   0.0824   0.0236  -0.0246  -0.0132   0.00    0.0
2026/01/15 02:38:00.000   22.434279288  114.335385393    63.6206   6  21   0.0428   0.1139   0.0818   0.0232  -0.0245  -0.0129   0.00    0.0
2026/01/15 02:38:30.000   22.434279285  114.335385371    63.6227   6  21   0.0425   0.1135   0.0813   0.0229  -0.0244  -0.0127   0.00    0.0
2026/01/15 02:39:00.000   22.434279281  114.335385352    63.6248   6  21   0.0423   0.1131   0.0808   0.0226  -0.0243  -0.0125   0.00    0.0
2026/01/15 02:39:30.000   22.434279277  114.335385336    63.6267   6  21   0.0420   0.1127   0.0803   0.0223  -0.0242  -0.0122   0.00    0.0
2026/01/15 02:40:00.000   22.434279275  114.335385321    63.6287   6  21   0.0418   0.1123   0.0798   0.0219  -0.0241  -0.0120   0.00    0.0
2026/01/15 02:40:30.000   22.434279273  114.335385305    63.6306   6  21   0.0415   0.1119   0.0793   0.0216  -0.0239  -0.0118   0.00    0.0
2026/01/15 02:41:00.000   22.434279272  114.335385286    63.6312   6  15   0.0415   0.1117   0.0792   0.0215  -0.0237  -0.0118   0.00    0.0
2026/01/15 02:41:30.000   22.434279272  114.335385273    63.6317   6  15   0.0414   0.1115   0.0792   0.0215  -0.0235  -0.0117   0.00    0.0
2026/01/15 02:42:00.000   22.434279272  114.335385270    63.6321   6  15   0.0414   0.1112   0.0791   0.0214  -0.0233  -0.0117   0.00    0.0
2026/01/15 02:42:30.000   22.434279273  114.335385271    63.6324   6  15   0.0414   0.1110   0.0791   0.0213  -0.0231  -0.0117   0.00    0.0
2026/01/15 02:43:00.000   22.434279274  114.335385269    63.6326   6  15   0.0414   0.1108   0.0790   0.0213  -0.0228  -0.0117   0.00    0.0
2026/01/15 02:43:30.000   22.434279275  114.335385267    63.6328   6  15   0.0413   0.1105   0.0790   0.0212  -0.0226  -0.0117   0.00    0.0
2026/01/15 02:44:00.000   22.434279275  114.335385263    63.6330   6  15   0.0413   0.1103   0.0789   0.0211  -0.0223  -0.0117   0.00    0.0
2026/01/15 02:44:30.000   22.434279274  114.335385260    63.6332   6  15   0.0413   0.1100   0.0788   0.0211  -0.0221  -0.0117   0.00    0.0
2026/01/15 02:45:00.000   22.434279273  114.335385253    63.6335   6  15   0.0412   0.1098   0.0788   0.0210  -0.0218  -0.0117   0.00    0.0
2026/01/15 02:45:30.000   22.434279271  114.335385245    63.6338   6  15   0.0412   0.1095   0.0787   0.0209  -0.0215  -0.0117   0.00    0.0
2026/01/15 02:46:00.000   22.434279268  114.335385237    63.6342   6  15   0.0412   0.1093   0.0786   0.0208  -0.0212  -0.0117   0.00    0.0
2026/01/15 02:46:30.000   22.434279265  114.335385229    63.6346   6  15   0.0411   0.1090   0.0786   0.0207  -0.0209  -0.0117   0.00    0.0
2026/01/15 02:47:00.000   22.434279262  114.335385220    63.6350   6  15   0.0411   0.1087   0.0785   0.0206  -0.0205  -0.0117   0.00    0.0
2026/01/15 02:47:30.000   22.434279258  114.335385212    63.6354   6  15   0.0411   0.1084   0.0784   0.0206  -0.0202  -0.0117   0.00    0.0
2026/01/15 02:48:00.000   22.434279255  114.335385202    63.6357   6  15   0.0410   0.1082   0.0784   0.0205  -0.0199  -0.0117   0.00    0.0
2026/01/15 02:48:30.000   22.434279251  114.335385191    63.6361   6  15   0.0410   0.1079   0.0783   0.0204  -0.0195  -0.0117   0.00    0.0
2026/01/15 02:49:00.000   22.434279247  114.335385178    63.6364   6  15   0.0410   0.1076   0.0782   0.0203  -0.0191  -0.0117   0.00    0.0
2026/01/15 02:49:30.000   22.434279243  114.335385162    63.6366   6  15   0.0409   0.1073   0.0781   0.0202  -0.0187  -0.0117   0.00    0.0
2026/01/15 02:50:00.000   22.434279239  114.335385147    63.6368   6  15   0.0409   0.1070   0.0780   0.0201  -0.0183  -0.0117   0.00    0.0
2026/01/15 02:50:30.000   22.434279235  114.335385133    63.6371   6  15   0.0408   0.1067   0.0780   0.0200  -0.0179  -0.0117   0.00    0.0
2026/01/15 02:51:00.000   22.434279232  114.335385119    63.6374   6  15   0.0408   0.1064   0.0779   0.0199  -0.0174  -0.0117   0.00    0.0
2026/01/15 02:51:30.000   22.434279229  114.335385106    63.6377   6  15   0.0408   0.1060   0.0778   0.0198  -0.0170  -0.0116   0.00    0.0
2026/01/15 02:52:00.000   22.434279227  114.335385090    63.6381   6  15   0.0407   0.1057   0.0777   0.0197  -0.0165  -0.0117   0.00    0.0
2026/01/15 02:52:30.000   22.434279224  114.335385075    63.6385   6  15   0.0407   0.1054   0.0776   0.0196  -0.0160  -0.0117   0.00    0.0
2026/01/15 02:53:00.000   22.434279222  114.335385064    63.6388   6  15   0.0406   0.1051   0.0775   0.0195  -0.0155  -0.0117   0.00    0.0
2026/01/15 02:53:30.000   22.434279220  114.335385055    63.6391   6  15   0.0406   0.1047   0.0774   0.0194  -0.0149  -0.0117   0.00    0.0
2026/01/15 02:54:00.000   22.434279219  114.335385047    63.6394   6  15   0.0405   0.1044   0.0773   0.0193  -0.0144  -0.0117   0.00    0.0
2026/01/15 02:54:30.000   22.434279217  114.335385039    63.6397   6  15   0.0405   0.1040   0.0772   0.0192  -0.0138  -0.0117   0.00    0.0
2026/01/15 02:55:00.000   22.434279214  114.335385030    63.6401   6  15   0.0404   0.1037   0.0771   0.0190  -0.0131  -0.0117   0.00    0.0
2026/01/15 02:55:30.000   22.434279211  114.335385020    63.6405   6  15   0.0404   0.1033   0.0770   0.0189  -0.0125  -0.0117   0.00    0.0
2026/01/15 02:56:00.000   22.434279208  114.335385011    63.6410   6  15   0.0403   0.1030   0.0769   0.0188  -0.0117  -0.0117   0.00    0.0
2026/01/15 02:56:30.000   22.434279206  114.335385005    63.6415   6  16   0.0402   0.1026   0.0768   0.0187  -0.0110  -0.0117   0.00    0.0
2026/01/15 02:57:00.000   22.434279203  114.335384998    63.6419   6  16   0.0402   0.1022   0.0767   0.0186  -0.0102  -0.0117   0.00    0.0
2026/01/15 02:57:30.000   22.434279200  114.335384991    63.6423   6  16   0.0401   0.1019   0.0765   0.0184  -0.0093  -0.0117   0.00    0.0
2026/01/15 02:58:00.000   22.434279197  114.335384985    63.6427   6  16   0.0401   0.1015   0.0764   0.0183  -0.0083  -0.0117   0.00    0.0
2026/01/15 02:58:30.000   22.434279196  114.335384985    63.6429   6  16   0.0400   0.1011   0.0763   0.0182  -0.0072  -0.0118   0.00    0.0
2026/01/15 02:59:00.000   22.434279194  114.335384987    63.6430   6  16   0.0399   0.1007   0.0762   0.0181  -0.0058  -0.0118   0.00    0.0
2026/01/15 02:59:30.000   22.434279192  114.335384987    63.6430   6  16   0.0399   0.1003   0.0760   0.0180  -0.0041  -0.0118   0.00    0.0
2026/01/15 03:00:00.000   22.434279189  114.335384984    63.6430   6  16   0.0398   0.0999   0.0759   0.0178   0.0010  -0.0118   0.00    0.0
2026/01/15 03:00:30.000   22.434279186  114.335384978    63.6429   6  16   0.0398   0.0995   0.0758   0.0177   0.0043  -0.0118   0.00    0.0
2026/01/15 03:01:00.000   22.434279184  114.335384972    63.6429   6  16   0.0397   0.0991   0.0757   0.0176   0.0060  -0.0119   0.00    0.0
2026/01/15 03:01:30.000   22.434279181  114.335384971    63.6428   6  16   0.0396   0.0987   0.0755   0.0174   0.0073  -0.0119   0.00    0.0
2026/01/15 03:02:00.000   22.434279178  114.335384972    63.6427   6  16   0.0395   0.0983   0.0754   0.0173   0.0084  -0.0119   0.00    0.0
2026/01/15 03:02:30.000   22.434279175  114.335384972    63.6427   6  16   0.0395   0.0979   0.0753   0.0172   0.0094  -0.0120   0.00    0.0
2026/01/15 03:03:00.000   22.434279171  114.335384972    63.6426   6  16   0.0394   0.0975   0.0751   0.0170   0.0103  -0.0120   0.00    0.0
2026/01/15 03:03:30.000   22.434279167  114.335384977    63.6424   6  16   0.0393   0.0971   0.0750   0.0169   0.0111  -0.0120   0.00    0.0
2026/01/15 03:04:00.000   22.434279164  114.335384980    63.6421   6  16   0.0393   0.0967   0.0748   0.0168   0.0118  -0.0121   0.00    0.0
2026/01/15 03:04:30.000   22.434279161  114.335384974    63.6422   6  15   0.0392   0.0963   0.0747   0.0166   0.0123  -0.0121   0.00    0.0
2026/01/15 03:05:00.000   22.434279158  114.335384968    63.6423   6  14   0.0391   0.0960   0.0746   0.0163   0.0129  -0.0121   0.00    0.0
2026/01/15 03:05:30.000   22.434279155  114.335384961    63.6425   6  14   0.0390   0.0957   0.0744   0.0161   0.0135  -0.0122   0.00    0.0
2026/01/15 03:06:00.000   22.434279152  114.335384955    63.6426   6  14   0.0390   0.0954   0.0743   0.0159   0.0141  -0.0122   0.00    0.0
2026/01/15 03:06:30.000   22.434279148  114.335384947    63.6426   6  14   0.0389   0.0950   0.0742   0.0156   0.0146  -0.0122   0.00    0.0
2026/01/15 03:07:00.000   22.434279145  114.335384939    63.6426   6  14   0.0388   0.0947   0.0740   0.0153   0.0151  -0.0123   0.00    0.0
2026/01/15 03:07:30.000   22.434279142  114.335384931    63.6424   6  14   0.0387   0.0944   0.0739   0.0151   0.0156  -0.0123   0.00    0.0
2026/01/15 03:08:00.000   22.434279139  114.335384923    63.6423   6  14   0.0387   0.0941   0.0737   0.0148   0.0161  -0.0124   0.00    0.0
2026/01/15 03:08:30.000   22.434279136  114.335384915    63.6422   6  14   0.0386   0.0938   0.0736   0.0145   0.0166  -0.0124   0.00    0.0
2026/01/15 03:09:00.000   22.434279133  114.335384902    63.6422   6  14   0.0385   0.0935   0.0735   0.0143   0.0170  -0.0125   0.00    0.0
2026/01/15 03:09:30.000   22.434279129  114.335384891    63.6422   6  14   0.0384   0.0931   0.0733   0.0140   0.0175  -0.0126   0.00    0.0
2026/01/15 03:10:00.000   22.434279127  114.335384883    63.6419   6  14   0.0383   0.0928   0.0732   0.0137   0.0179  -0.0126   0.00    0.0
2026/01/15 03:10:30.000   22.434279124  114.335384873    63.6417   6  14   0.0383   0.0925   0.0730   0.0134   0.0183  -0.0127   0.00    0.0
2026/01/15 03:11:00.000   22.434279122  114.335384863    63.6414   6  14   0.0382   0.0922   0.0729   0.0131   0.0187  -0.0128   0.00    0.0
2026/01/15 03:11:30.000   22.434279121  114.335384856    63.6411   6  14   0.0381   0.0918   0.0727   0.0128   0.0191  -0.0128   0.00    0.0
2026/01/15 03:12:00.000   22.434279119  114.335384850    63.6408   6  14   0.0380   0.0915   0.0725   0.0124   0.0195  -0.0129   0.00    0.0
2026/01/15 03:12:30.000   22.434279116  114.335384844    63.6404   6  14   0.0379   0.0912   0.0724   0.0121   0.0199  -0.0130   0.00    0.0
2026/01/15 03:13:00.000   22.434279115  114.335384838    63.6407   6  10   0.0379   0.0910   0.0723   0.0121   0.0202  -0.0130   0.00    0.0
2026/01/15 03:13:30.000   22.434279114  114.335384834    63.6409   6  10   0.0378   0.0908   0.0721   0.0120   0.0205  -0.0131   0.00    0.0
2026/01/15 03:14:00.000   22.434279112  114.335384831    63.6411   6  10   0.0378   0.0906   0.0720   0.0120   0.0208  -0.0131   0.00    0.0
2026/01/15 03:14:30.000   22.434279110  114.335384827    63.6415   6  10   0.0377   0.0905   0.0719   0.0119   0.0210  -0.0132   0.00    0.0
2026/01/15 03:15:00.000   22.434279108  114.335384825    63.6417   6   4   0.0377   0.0903   0.0718   0.0119   0.0212  -0.0132   0.00    0.0
2026/01/15 04:05:00.000   22.434278968  114.335384559    63.6670   6  11   0.0373   0.0853   0.0714   0.0108   0.0222  -0.0127   0.00    0.0
2026/01/15 04:05:30.000   22.434278966  114.335384544    63.6674   6  13   0.0373   0.0852   0.0714   0.0108   0.0223  -0.0127   0.00    0.0
2026/01/15 04:06:00.000   22.434278963  114.335384528    63.6677   6  13   0.0372   0.0852   0.0714   0.0108   0.0223  -0.0127   0.00    0.0
2026/01/15 04:06:30.000   22.434278961  114.335384513    63.6680   6  13   0.0372   0.0851   0.0714   0.0108   0.0223  -0.0127   0.00    0.0
2026/01/15 04:07:00.000   22.434278959  114.335384501    63.6682   6  13   0.0372   0.0850   0.0714   0.0108   0.0223  -0.0127   0.00    0.0
2026/01/15 04:07:30.000   22.434278956  114.335384489    63.6686   6  13   0.0372   0.0850   0.0714   0.0107   0.0223  -0.0127   0.00    0.0
2026/01/15 04:08:00.000   22.434278954  114.335384477    63.6689   6  13   0.0372   0.0849   0.0714   0.0107   0.0223  -0.0127   0.00    0.0
2026/01/15 04:08:30.000   22.434278952  114.335384463    63.6694   6  13   0.0372   0.0849   0.0714   0.0107   0.0223  -0.0127   0.00    0.0
2026/01/15 04:09:00.000   22.434278950  114.335384449    63.6697   6  13   0.0372   0.0848   0.0714   0.0107   0.0224  -0.0126   0.00    0.0
2026/01/15 04:09:30.000   22.434278948  114.335384436    63.6700   6  13   0.0372   0.0848   0.0714   0.0107   0.0224  -0.0126   0.00    0.0
2026/01/15 04:10:00.000   22.434278947  114.335384424    63.6702   6  13   0.0372   0.0847   0.0714   0.0106   0.0224  -0.0126   0.00    0.0
2026/01/15 04:10:30.000   22.434278945  114.335384410    63.6704   6  13   0.0372   0.0846   0.0714   0.0106   0.0224  -0.0126   0.00    0.0
2026/01/15 04:11:00.000   22.434278944  114.335384395    63.6706   6  13   0.0372   0.0846   0.0714   0.0106   0.0224  -0.0126   0.00    0.0
2026/01/15 04:11:30.000   22.434278942  114.335384377    63.6708   6  13   0.0372   0.0845   0.0714   0.0106   0.0224  -0.0126   0.00    0.0
2026/01/15 04:12:00.000   22.434278941  114.335384359    63.6710   6  13   0.0372   0.0845   0.0713   0.0105   0.0224  -0.0126   0.00    0.0
2026/01/15 04:12:30.000   22.434278941  114.335384344    63.6711   6  13   0.0372   0.0844   0.0713   0.0105   0.0225  -0.0126   0.00    0.0
2026/01/15 04:13:00.000   22.434278940  114.335384331    63.6713   6  13   0.0372   0.0843   0.0713   0.0105   0.0225  -0.0126   0.00    0.0
2026/01/15 04:13:30.000   22.434278939  114.335384319    63.6714   6  13   0.0372   0.0843   0.0713   0.0105   0.0225  -0.0126   0.00    0.0
2026/01/15 04:14:00.000   22.434278937  114.335384306    63.6716   6  13   0.0371   0.0842   0.0713   0.0104   0.0225  -0.0126   0.00    0.0
2026/01/15 04:14:30.000   22.434278936  114.335384294    63.6718   6  13   0.0371   0.0841   0.0713   0.0104   0.0225  -0.0126   0.00    0.0
2026/01/15 04:15:00.000   22.434278934  114.335384280    63.6720   6  13   0.0371   0.0841   0.0713   0.0104   0.0225  -0.0126   0.00    0.0
2026/01/15 04:15:30.000   22.434278932  114.335384264    63.6722   6  13   0.0371   0.0840   0.0713   0.0103   0.0226  -0.0126   0.00    0.0
2026/01/15 04:16:00.000   22.434278930  114.335384248    63.6724   6  13   0.0371   0.0839   0.0713   0.0103   0.0226  -0.0126   0.00    0.0
2026/01/15 04:16:30.000   22.434278927  114.335384233    63.6725   6  13   0.0371   0.0839   0.0713   0.0103   0.0226  -0.0126   0.00    0.0
2026/01/15 04:17:00.000   22.434278924  114.335384218    63.6726   6  13   0.0371   0.0838   0.0713   0.0103   0.0226  -0.0126   0.00    0.0
2026/01/15 04:17:30.000   22.434278921  114.335384204    63.6728   6  13   0.0371   0.0837   0.0713   0.0102   0.0226  -0.0126   0.00    0.0
2026/01/15 04:18:00.000   22.434278918  114.335384189    63.6729   6  13   0.0371   0.0836   0.0712   0.0102   0.0227  -0.0126   0.00    0.0
2026/01/15 04:18:30.000   22.434278914  114.335384175    63.6732   6  13   0.0370   0.0836   0.0712   0.0102   0.0227  -0.0126   0.00    0.0
2026/01/15 04:19:00.000   22.434278912  114.335384163    63.6734   6  13   0.0370   0.0835   0.0712   0.0101   0.0227  -0.0126   0.00    0.0
2026/01/15 04:19:30.000   22.434278909  114.335384154    63.6737   6  13   0.0370   0.0834   0.0712   0.0101   0.0227  -0.0126   0.00    0.0
2026/01/15 04:20:00.000   22.434278907  114.335384145    63.6739   6  13   0.0370   0.0833   0.0712   0.0101   0.0228  -0.0126   0.00    0.0
2026/01/15 04:20:30.000   22.434278904  114.335384136    63.6742   6  13   0.0370   0.0833   0.0712   0.0100   0.0228  -0.0126   0.00    0.0
2026/01/15 04:21:00.000   22.434278901  114.335384129    63.6745   6  13   0.0370   0.0832   0.0712   0.0100   0.0228  -0.0126   0.00    0.0
2026/01/15 04:21:30.000   22.434278898  114.335384125    63.6746   6  13   0.0370   0.0831   0.0712   0.0100   0.0228  -0.0126   0.00    0.0
2026/01/15 04:22:00.000   22.434278896  114.335384121    63.6748   6  13   0.0369   0.0830   0.0711   0.0099   0.0229  -0.0126   0.00    0.0
2026/01/15 04:22:30.000   22.434278894  114.335384117    63.6749   6  13   0.0369   0.0829   0.0711   0.0099   0.0229  -0.0126   0.00    0.0
2026/01/15 04:23:00.000   22.434278893  114.335384111    63.6751   6  13   0.0369   0.0828   0.0711   0.0099   0.0229  -0.0126   0.00    0.0
2026/01/15 04:23:30.000   22.434278892  114.335384101    63.6752   6  13   0.0369   0.0828   0.0711   0.0098   0.0229  -0.0126   0.00    0.0
2026/01/15 04:24:00.000   22.434278890  114.335384089    63.6753   6  13   0.0369   0.0827   0.0711   0.0098   0.0230  -0.0126   0.00    0.0
2026/01/15 04:24:30.000   22.434278887  114.335384080    63.6756   6  13   0.0369   0.0826   0.0711   0.0098   0.0230  -0.0126   0.00    0.0
2026/01/15 04:25:00.000   22.434278884  114.335384074    63.6758   6  13   0.0368   0.0825   0.0710   0.0097   0.0230  -0.0126   0.00    0.0
2026/01/15 04:25:30.000   22.434278881  114.335384071    63.6760   6  13   0.0368   0.0824   0.0710   0.0097   0.0231  -0.0126   0.00    0.0
