% program   : RTKLIB ver.EX 2.5.0
% inp file  : C:\Users\tevin\Desktop\GNSS - MASTA\SPRING SEM\4.SAT NAV DATA PROCESSING\TEAM PROJECT\SNDP-PROJECT\Old_data\data\HKWS00HKG_R_20260150000_01D_30S_MO.rnx
% inp file  : C:\Users\tevin\Desktop\GNSS - MASTA\SPRING SEM\4.SAT NAV DATA PROCESSING\TEAM PROJECT\SNDP-PROJECT\Old_data\products\nav\BRDC00IGS_R_20260150000_01D_MN.rnx
% inp file  : C:\Users\tevin\Desktop\GNSS - MASTA\SPRING SEM\4.SAT NAV DATA PROCESSING\TEAM PROJECT\SNDP-PROJECT\Old_data\products\sp3\COD0MGXFIN_20260150000_01D_05M_ORB.SP3
% inp file  : C:\Users\tevin\Desktop\GNSS - MASTA\SPRING SEM\4.SAT NAV DATA PROCESSING\TEAM PROJECT\SNDP-PROJECT\Old_data\products\clk\COD0MGXFIN_20260150000_01D_30S_CLK.CLK
% inp file  : C:\Users\tevin\Desktop\GNSS - MASTA\SPRING SEM\4.SAT NAV DATA PROCESSING\TEAM PROJECT\SNDP-PROJECT\Old_data\products\bia\COD0MGXFIN_20260150000_01D_01D_OSB.BIA
% obs start : 2026/01/15 00:00:00.0 GPST (week2401 345600.0s)
% obs end   : 2026/01/15 23:59:30.0 GPST (week2401 431970.0s)
% pos mode  : PPP Static
% freqs     : L1+L2/E5b
% solution  : Forward
% elev mask : 15.0 deg
% dynamics  : on
% tidecorr  :
% ionos opt : Iono-Free LC
% tropo opt : Saastamoinen
% ephemeris : Precise
% navi sys  : GPS Galileo BDS
% antenna1  : LEIAR25.R4      LEIT  ( 0.0000  0.0000  0.0083)
%
% (lat/lon/height=WGS84/ellipsoidal,Q=1:fix,2:float,3:sbas,4:dgps,5:single,6:ppp,ns=# of satellites)
%  GPST                  latitude(deg) longitude(deg)  height(m)   Q  ns   sdn(m)   sde(m)   sdu(m)  sdne(m)  sdeu(m)  sdun(m) age(s)  ratio
2026/01/15 00:00:00.000   22.434275004  114.335384927    63.8547   6   7   2.3065   3.1223   6.6866  -0.6770   1.2544  -1.5041   0.00    0.0
2026/01/15 00:10:30.000   22.434272974  114.335387533    63.7570   6   4   0.4933   0.6691   1.4229  -0.1549   0.2713  -0.3105   0.00    0.0
2026/01/15 00:11:00.000   22.434272875  114.335387346    63.7153   6   6   0.4823   0.6543   1.3896  -0.1513   0.2665  -0.3043   0.00    0.0
2026/01/15 00:11:30.000   22.434272816  114.335387159    63.6754   6   6   0.4719   0.6405   1.3581  -0.1480   0.2619  -0.2986   0.00    0.0
2026/01/15 00:12:00.000   22.434272859  114.335387052    63.6541   6   7   0.4622   0.6275   1.3280  -0.1448   0.2577  -0.2932   0.00    0.0
2026/01/15 00:12:30.000   22.434272869  114.335387038    63.6315   6   7   0.4529   0.6152   1.2988  -0.1418   0.2536  -0.2882   0.00    0.0
2026/01/15 00:13:00.000   22.434272894  114.335387027    63.6110   6   7   0.4442   0.6036   1.2705  -0.1389   0.2497  -0.2835   0.00    0.0
2026/01/15 00:13:30.000   22.434272951  114.335386975    63.5844   6   7   0.4359   0.5926   1.2429  -0.1362   0.2459  -0.2791   0.00    0.0
2026/01/15 00:14:00.000   22.434273024  114.335386882    63.5758   6   7   0.4280   0.5822   1.2158  -0.1335   0.2423  -0.2750   0.00    0.0
2026/01/15 00:14:30.000   22.434273033  114.335386782    63.5620   6   7   0.4204   0.5723   1.1891  -0.1310   0.2387  -0.2712   0.00    0.0
2026/01/15 00:15:00.000   22.434273000  114.335386667    63.5430   6   7   0.4131   0.5628   1.1627  -0.1285   0.2352  -0.2676   0.00    0.0
2026/01/15 00:15:30.000   22.434272975  114.335386538    63.5172   6   7   0.4061   0.5538   1.1366  -0.1261   0.2318  -0.2643   0.00    0.0
2026/01/15 00:16:00.000   22.434272988  114.335386421    63.4852   6   7   0.3994   0.5451   1.1108  -0.1238   0.2284  -0.2612   0.00    0.0
2026/01/15 00:16:30.000   22.434273037  114.335386323    63.4398   6   8   0.3929   0.5368   1.0853  -0.1215   0.2251  -0.2582   0.00    0.0
2026/01/15 00:17:00.000   22.434273083  114.335386252    63.3819   6   8   0.3867   0.5288   1.0600  -0.1193   0.2218  -0.2555   0.00    0.0
2026/01/15 00:17:30.000   22.434273155  114.335386148    63.3168   6   8   0.3806   0.5211   1.0349  -0.1170   0.2185  -0.2529   0.00    0.0
2026/01/15 00:18:00.000   22.434273294  114.335385976    63.2480   6   8   0.3747   0.5137   1.0102  -0.1149   0.2153  -0.2505   0.00    0.0
2026/01/15 00:18:30.000   22.434273467  114.335385841    63.1782   6   8   0.3690   0.5065   0.9858  -0.1127   0.2121  -0.2481   0.00    0.0
2026/01/15 00:19:00.000   22.434273596  114.335385807    63.1237   6   8   0.3635   0.4995   0.9617  -0.1106   0.2090  -0.2459   0.00    0.0
2026/01/15 00:19:30.000   22.434273671  114.335385764    63.0944   6   8   0.3581   0.4928   0.9380  -0.1085   0.2059  -0.2438   0.00    0.0
2026/01/15 00:20:00.000   22.434273721  114.335385694    63.0789   6   8   0.3528   0.4862   0.9147  -0.1064   0.2028  -0.2417   0.00    0.0
2026/01/15 00:20:30.000   22.434273754  114.335385656    63.0798   6   8   0.3476   0.4799   0.8918  -0.1043   0.1997  -0.2397   0.00    0.0
2026/01/15 00:21:00.000   22.434273786  114.335385626    63.0854   6   8   0.3426   0.4737   0.8693  -0.1022   0.1967  -0.2377   0.00    0.0
2026/01/15 00:21:30.000   22.434273794  114.335385606    63.0909   6   8   0.3377   0.4676   0.8474  -0.1001   0.1937  -0.2358   0.00    0.0
2026/01/15 00:22:00.000   22.434273770  114.335385566    63.1019   6   8   0.3329   0.4617   0.8259  -0.0980   0.1908  -0.2339   0.00    0.0
2026/01/15 00:22:30.000   22.434273762  114.335385490    63.1121   6   8   0.3282   0.4559   0.8050  -0.0959   0.1879  -0.2320   0.00    0.0
2026/01/15 00:23:00.000   22.434273781  114.335385380    63.1300   6   8   0.3236   0.4503   0.7845  -0.0938   0.1850  -0.2302   0.00    0.0
2026/01/15 00:23:30.000   22.434273794  114.335385305    63.1559   6   8   0.3191   0.4448   0.7646  -0.0917   0.1821  -0.2283   0.00    0.0
2026/01/15 00:24:00.000   22.434273802  114.335385236    63.1774   6   8   0.3146   0.4390   0.7447  -0.0888   0.1779  -0.2259   0.00    0.0
2026/01/15 00:24:30.000   22.434273816  114.335385149    63.2073   6   7   0.3106   0.4337   0.7303  -0.0866   0.1744  -0.2245   0.00    0.0
2026/01/15 00:25:00.000   22.434273836  114.335385045    63.2348   6   7   0.3066   0.4285   0.7161  -0.0843   0.1710  -0.2232   0.00    0.0
2026/01/15 00:25:30.000   22.434273844  114.335384980    63.2545   6   8   0.3023   0.4230   0.7014  -0.0808   0.1674  -0.2219   0.00    0.0
2026/01/15 00:26:00.000   22.434273889  114.335384927    63.2669   6   8   0.2982   0.4177   0.6870  -0.0773   0.1640  -0.2205   0.00    0.0
2026/01/15 00:26:30.000   22.434273950  114.335384844    63.2722   6   8   0.2941   0.4125   0.6729  -0.0738   0.1607  -0.2192   0.00    0.0
2026/01/15 00:27:00.000   22.434274057  114.335384711    63.2745   6   8   0.2901   0.4073   0.6591  -0.0704   0.1577  -0.2179   0.00    0.0
2026/01/15 00:27:30.000   22.434274179  114.335384534    63.2760   6   8   0.2862   0.4023   0.6457  -0.0671   0.1547  -0.2165   0.00    0.0
2026/01/15 00:28:00.000   22.434274325  114.335384334    63.2719   6   8   0.2823   0.3973   0.6325  -0.0638   0.1520  -0.2150   0.00    0.0
2026/01/15 00:28:30.000   22.434274475  114.335384170    63.2635   6   8   0.2785   0.3925   0.6197  -0.0605   0.1494  -0.2136   0.00    0.0
2026/01/15 00:29:00.000   22.434274665  114.335384036    63.2558   6   8   0.2748   0.3877   0.6072  -0.0573   0.1469  -0.2120   0.00    0.0
2026/01/15 00:29:30.000   22.434274855  114.335383927    63.2443   6   8   0.2711   0.3829   0.5949  -0.0541   0.1446  -0.2105   0.00    0.0
2026/01/15 00:30:00.000   22.434275021  114.335383834    63.2342   6   8   0.2675   0.3783   0.5830  -0.0509   0.1423  -0.2089   0.00    0.0
2026/01/15 00:30:30.000   22.434275173  114.335383739    63.2233   6   8   0.2639   0.3737   0.5713  -0.0478   0.1402  -0.2073   0.00    0.0
2026/01/15 00:31:00.000   22.434275322  114.335383625    63.2157   6   8   0.2605   0.3693   0.5601  -0.0453   0.1379  -0.2054   0.00    0.0
2026/01/15 00:31:30.000   22.434275473  114.335383515    63.2102   6   8   0.2572   0.3649   0.5491  -0.0428   0.1358  -0.2035   0.00    0.0
2026/01/15 00:32:00.000   22.434275612  114.335383399    63.2019   6   8   0.2539   0.3605   0.5383  -0.0404   0.1337  -0.2016   0.00    0.0
2026/01/15 00:32:30.000   22.434275748  114.335383281    63.1942   6   8   0.2506   0.3562   0.5278  -0.0379   0.1318  -0.1997   0.00    0.0
2026/01/15 00:33:00.000   22.434275862  114.335383188    63.1904   6   8   0.2474   0.3520   0.5176  -0.0355   0.1300  -0.1978   0.00    0.0
2026/01/15 00:33:30.000   22.434275967  114.335383155    63.1914   6   8   0.2442   0.3478   0.5076  -0.0331   0.1283  -0.1959   0.00    0.0
2026/01/15 00:34:00.000   22.434276064  114.335383152    63.1965   6   8   0.2411   0.3437   0.4979  -0.0307   0.1267  -0.1940   0.00    0.0
2026/01/15 00:34:30.000   22.434276138  114.335383194    63.2045   6   8   0.2379   0.3396   0.4884  -0.0283   0.1251  -0.1920   0.00    0.0
2026/01/15 00:35:00.000   22.434276176  114.335383299    63.2142   6  12   0.2348   0.3355   0.4791  -0.0251   0.1238  -0.1902   0.00    0.0
2026/01/15 00:35:30.000   22.434276223  114.335383380    63.2284   6   8   0.2317   0.3315   0.4700  -0.0226   0.1224  -0.1882   0.00    0.0
2026/01/15 00:36:00.000   22.434276276  114.335383431    63.2329   6   8   0.2287   0.3276   0.4656  -0.0201   0.1226  -0.1862   0.00    0.0
2026/01/15 00:36:30.000   22.434276333  114.335383462    63.2371   6   8   0.2258   0.3237   0.4612  -0.0174   0.1229  -0.1843   0.00    0.0
2026/01/15 00:37:00.000   22.434276400  114.335383487    63.2384   6   8   0.2228   0.3199   0.4568  -0.0146   0.1231  -0.1823   0.00    0.0
2026/01/15 00:37:30.000   22.434276486  114.335383526    63.2373   6   8   0.2199   0.3161   0.4524  -0.0115   0.1233  -0.1804   0.00    0.0
2026/01/15 00:38:00.000   22.434276594  114.335383545    63.2328   6   8   0.2171   0.3124   0.4480  -0.0077   0.1235  -0.1785   0.00    0.0
2026/01/15 00:38:30.000   22.434276720  114.335383548    63.2263   6   8   0.2143   0.3087   0.4436   0.0020   0.1237  -0.1766   0.00    0.0
2026/01/15 00:39:00.000   22.434276857  114.335383518    63.2191   6   8   0.2115   0.3051   0.4393   0.0078   0.1238  -0.1748   0.00    0.0
2026/01/15 00:39:30.000   22.434276995  114.335383484    63.2099   6   8   0.2087   0.3015   0.4349   0.0105   0.1240  -0.1729   0.00    0.0
2026/01/15 00:40:00.000   22.434277122  114.335383452    63.1994   6   8   0.2060   0.2980   0.4306   0.0124   0.1241  -0.1711   0.00    0.0
2026/01/15 00:40:30.000   22.434277199  114.335383455    63.1854   6  13   0.2032   0.2944   0.4261   0.0151   0.1242  -0.1693   0.00    0.0
2026/01/15 00:41:00.000   22.434277246  114.335383470    63.1747   6  13   0.2005   0.2909   0.4217   0.0168   0.1243  -0.1675   0.00    0.0
2026/01/15 00:41:30.000   22.434277266  114.335383488    63.1700   6  14   0.1978   0.2874   0.4174   0.0182   0.1243  -0.1657   0.00    0.0
2026/01/15 00:42:00.000   22.434277264  114.335383492    63.1693   6  14   0.1952   0.2840   0.4130   0.0192   0.1244  -0.1640   0.00    0.0
2026/01/15 00:42:30.000   22.434277255  114.335383509    63.1729   6  14   0.1926   0.2806   0.4087   0.0201   0.1243  -0.1622   0.00    0.0
2026/01/15 00:43:00.000   22.434277249  114.335383535    63.1779   6  14   0.1900   0.2772   0.4044   0.0207   0.1242  -0.1605   0.00    0.0
2026/01/15 00:43:30.000   22.434277268  114.335383544    63.1869   6   8   0.1875   0.2740   0.4002   0.0208   0.1241  -0.1588   0.00    0.0
2026/01/15 00:44:00.000   22.434277272  114.335383571    63.1935   6  14   0.1850   0.2707   0.3959   0.0213   0.1239  -0.1571   0.00    0.0
2026/01/15 00:44:30.000   22.434277300  114.335383590    63.1993   6  14   0.1826   0.2675   0.3916   0.0217   0.1237  -0.1554   0.00    0.0
2026/01/15 00:45:00.000   22.434277339  114.335383620    63.2019   6  14   0.1801   0.2643   0.3873   0.0220   0.1234  -0.1536   0.00    0.0
2026/01/15 00:45:30.000   22.434277383  114.335383646    63.2015   6  14   0.1777   0.2611   0.3830   0.0222   0.1230  -0.1519   0.00    0.0
2026/01/15 00:46:00.000   22.434277402  114.335383647    63.1983   6  13   0.1761   0.2580   0.3790   0.0237   0.1228  -0.1495   0.00    0.0
2026/01/15 00:46:30.000   22.434277414  114.335383627    63.1977   6  12   0.1751   0.2552   0.3753   0.0279   0.1218  -0.1478   0.00    0.0
2026/01/15 00:47:00.000   22.434277439  114.335383622    63.1887   6   7   0.1744   0.2542   0.3742   0.0282   0.1209  -0.1469   0.00    0.0
2026/01/15 00:47:30.000   22.434277477  114.335383622    63.1809   6   7   0.1737   0.2532   0.3730   0.0284   0.1200  -0.1461   0.00    0.0
2026/01/15 00:48:00.000   22.434277517  114.335383620    63.1750   6   7   0.1731   0.2522   0.3717   0.0287   0.1191  -0.1452   0.00    0.0
2026/01/15 00:48:30.000   22.434277538  114.335383620    63.1696   6   7   0.1724   0.2512   0.3705   0.0290   0.1181  -0.1443   0.00    0.0
2026/01/15 00:49:00.000   22.434277538  114.335383623    63.1659   6   7   0.1718   0.2502   0.3692   0.0293   0.1171  -0.1434   0.00    0.0
2026/01/15 00:49:30.000   22.434277540  114.335383625    63.1634   6   7   0.1711   0.2493   0.3680   0.0297   0.1163  -0.1425   0.00    0.0
2026/01/15 00:50:00.000   22.434277546  114.335383634    63.1590   6   7   0.1704   0.2483   0.3668   0.0301   0.1154  -0.1415   0.00    0.0
2026/01/15 00:50:30.000   22.434277562  114.335383644    63.1547   6   7   0.1698   0.2474   0.3655   0.0305   0.1145  -0.1405   0.00    0.0
2026/01/15 00:51:00.000   22.434277577  114.335383651    63.1519   6   7   0.1691   0.2465   0.3641   0.0309   0.1136  -0.1395   0.00    0.0
2026/01/15 00:51:30.000   22.434277582  114.335383660    63.1498   6   7   0.1684   0.2455   0.3628   0.0313   0.1127  -0.1385   0.00    0.0
2026/01/15 00:52:00.000   22.434277574  114.335383671    63.1462   6   7   0.1678   0.2446   0.3614   0.0318   0.1118  -0.1375   0.00    0.0
2026/01/15 00:52:30.000   22.434277571  114.335383679    63.1412   6   7   0.1671   0.2437   0.3600   0.0322   0.1109  -0.1364   0.00    0.0
2026/01/15 00:53:00.000   22.434277568  114.335383692    63.1357   6   7   0.1664   0.2428   0.3585   0.0327   0.1099  -0.1354   0.00    0.0
2026/01/15 00:53:30.000   22.434277559  114.335383705    63.1303   6   7   0.1657   0.2419   0.3570   0.0331   0.1090  -0.1343   0.00    0.0
2026/01/15 00:54:00.000   22.434277555  114.335383701    63.1261   6   7   0.1650   0.2410   0.3555   0.0336   0.1080  -0.1332   0.00    0.0
2026/01/15 00:54:30.000   22.434277571  114.335383667    63.1226   6   7   0.1643   0.2401   0.3539   0.0340   0.1071  -0.1321   0.00    0.0
2026/01/15 00:55:00.000   22.434277590  114.335383641    63.1201   6   7   0.1636   0.2392   0.3523   0.0343   0.1060  -0.1309   0.00    0.0
2026/01/15 00:55:30.000   22.434277617  114.335383610    63.1172   6   7   0.1629   0.2383   0.3507   0.0347   0.1050  -0.1297   0.00    0.0
2026/01/15 00:56:00.000   22.434277652  114.335383566    63.1130   6   7   0.1622   0.2375   0.3490   0.0350   0.1040  -0.1285   0.00    0.0
2026/01/15 00:56:30.000   22.434277695  114.335383518    63.1079   6   7   0.1615   0.2366   0.3473   0.0354   0.1030  -0.1273   0.00    0.0
2026/01/15 00:57:00.000   22.434277743  114.335383474    63.1021   6   8   0.1608   0.2358   0.3456   0.0358   0.1019  -0.1261   0.00    0.0
2026/01/15 00:57:30.000   22.434277790  114.335383441    63.0966   6   8   0.1601   0.2349   0.3438   0.0362   0.1008  -0.1249   0.00    0.0
2026/01/15 00:58:00.000   22.434277841  114.335383414    63.0916   6   7   0.1594   0.2341   0.3419   0.0366   0.0998  -0.1236   0.00    0.0
2026/01/15 00:58:30.000   22.434277879  114.335383376    63.0873   6   7   0.1587   0.2332   0.3401   0.0370   0.0987  -0.1223   0.00    0.0
2026/01/15 00:59:00.000   22.434277908  114.335383341    63.0837   6   7   0.1580   0.2324   0.3382   0.0375   0.0976  -0.1210   0.00    0.0
2026/01/15 00:59:30.000   22.434277921  114.335383317    63.0811   6   7   0.1572   0.2315   0.3362   0.0379   0.0965  -0.1197   0.00    0.0
2026/01/15 01:00:00.000   22.434277929  114.335383289    63.0792   6   7   0.1565   0.2307   0.3343   0.0383   0.0954  -0.1184   0.00    0.0
2026/01/15 01:00:30.000   22.434277939  114.335383257    63.0770   6   7   0.1557   0.2299   0.3322   0.0387   0.0942  -0.1171   0.00    0.0
2026/01/15 01:01:00.000   22.434277958  114.335383240    63.0750   6   7   0.1550   0.2291   0.3302   0.0392   0.0931  -0.1158   0.00    0.0
2026/01/15 01:01:30.000   22.434277990  114.335383245    63.0728   6   7   0.1542   0.2283   0.3281   0.0396   0.0919  -0.1144   0.00    0.0
2026/01/15 01:02:00.000   22.434278009  114.335383264    63.0695   6   8   0.1534   0.2274   0.3260   0.0401   0.0908  -0.1131   0.00    0.0
2026/01/15 01:02:30.000   22.434278022  114.335383275    63.0661   6   7   0.1526   0.2266   0.3239   0.0406   0.0897  -0.1117   0.00    0.0
2026/01/15 01:03:00.000   22.434278032  114.335383285    63.0638   6   8   0.1518   0.2258   0.3217   0.0411   0.0885  -0.1104   0.00    0.0
2026/01/15 01:03:30.000   22.434278037  114.335383294    63.0629   6   7   0.1510   0.2250   0.3195   0.0416   0.0874  -0.1090   0.00    0.0
2026/01/15 01:04:00.000   22.434278037  114.335383296    63.0618   6   7   0.1502   0.2242   0.3173   0.0421   0.0862  -0.1077   0.00    0.0
2026/01/15 01:04:30.000   22.434278032  114.335383299    63.0621   6   7   0.1494   0.2234   0.3150   0.0426   0.0851  -0.1063   0.00    0.0
2026/01/15 01:05:00.000   22.434278014  114.335383313    63.0642   6   7   0.1486   0.2226   0.3127   0.0431   0.0839  -0.1049   0.00    0.0
2026/01/15 01:05:30.000   22.434277969  114.335383343    63.0678   6   7   0.1478   0.2218   0.3104   0.0435   0.0827  -0.1035   0.00    0.0
2026/01/15 01:06:00.000   22.434277920  114.335383370    63.0714   6   7   0.1469   0.2210   0.3081   0.0440   0.0816  -0.1021   0.00    0.0
2026/01/15 01:06:30.000   22.434277874  114.335383392    63.0754   6   7   0.1461   0.2202   0.3058   0.0445   0.0804  -0.1007   0.00    0.0
2026/01/15 01:07:00.000   22.434277833  114.335383401    63.0812   6   7   0.1453   0.2194   0.3034   0.0449   0.0792  -0.0993   0.00    0.0
2026/01/15 01:07:30.000   22.434277800  114.335383411    63.0866   6   6   0.1444   0.2187   0.3010   0.0453   0.0780  -0.0979   0.00    0.0
2026/01/15 01:09:00.000   22.434277727  114.335383429    63.0768   6   4   0.1435   0.2169   0.3000   0.0447   0.0771  -0.0969   0.00    0.0
2026/01/15 01:10:00.000   22.434277700  114.335383392    63.0632   6   4   0.1429   0.2158   0.2994   0.0443   0.0766  -0.0962   0.00    0.0
2026/01/15 01:13:30.000   22.434277727  114.335383281    63.0365   6   6   0.1398   0.2116   0.2933   0.0440   0.0731  -0.0920   0.00    0.0
2026/01/15 01:14:00.000   22.434277738  114.335383277    63.0487   6   6   0.1386   0.2108   0.2892   0.0447   0.0712  -0.0899   0.00    0.0
2026/01/15 01:14:30.000   22.434277742  114.335383280    63.0600   6   6   0.1374   0.2100   0.2853   0.0454   0.0693  -0.0878   0.00    0.0
2026/01/15 01:15:00.000   22.434277741  114.335383288    63.0698   6   6   0.1362   0.2092   0.2815   0.0460   0.0675  -0.0858   0.00    0.0
2026/01/15 01:15:30.000   22.434277742  114.335383286    63.0795   6   6   0.1350   0.2084   0.2778   0.0466   0.0657  -0.0838   0.00    0.0
2026/01/15 01:16:00.000   22.434277742  114.335383279    63.0894   6   6   0.1339   0.2077   0.2741   0.0472   0.0639  -0.0819   0.00    0.0
2026/01/15 01:16:30.000   22.434277740  114.335383264    63.0987   6   6   0.1328   0.2069   0.2706   0.0477   0.0622  -0.0801   0.00    0.0
2026/01/15 01:17:00.000   22.434277735  114.335383257    63.1071   6   6   0.1317   0.2062   0.2671   0.0482   0.0606  -0.0783   0.00    0.0
2026/01/15 01:17:30.000   22.434277729  114.335383243    63.1150   6   6   0.1306   0.2054   0.2638   0.0486   0.0590  -0.0765   0.00    0.0
2026/01/15 01:18:00.000   22.434277725  114.335383217    63.1246   6   7   0.1296   0.2047   0.2604   0.0490   0.0575  -0.0748   0.00    0.0
2026/01/15 01:18:30.000   22.434277721  114.335383191    63.1323   6   6   0.1285   0.2039   0.2572   0.0494   0.0560  -0.0732   0.00    0.0
2026/01/15 01:19:00.000   22.434277721  114.335383167    63.1397   6   6   0.1275   0.2031   0.2540   0.0498   0.0546  -0.0716   0.00    0.0
2026/01/15 01:19:30.000   22.434277721  114.335383137    63.1474   6   6   0.1264   0.2024   0.2509   0.0501   0.0532  -0.0700   0.00    0.0
2026/01/15 01:20:00.000   22.434277723  114.335383103    63.1544   6   6   0.1254   0.2017   0.2479   0.0504   0.0518  -0.0685   0.00    0.0
2026/01/15 01:20:30.000   22.434277725  114.335383065    63.1614   6   6   0.1244   0.2009   0.2449   0.0507   0.0504  -0.0670   0.00    0.0
2026/01/15 01:21:00.000   22.434277728  114.335383023    63.1684   6   6   0.1235   0.2002   0.2420   0.0510   0.0491  -0.0656   0.00    0.0
2026/01/15 01:21:30.000   22.434277732  114.335382978    63.1743   6   6   0.1225   0.1995   0.2392   0.0513   0.0478  -0.0642   0.00    0.0
2026/01/15 01:22:00.000   22.434277736  114.335382944    63.1809   6   6   0.1215   0.1988   0.2364   0.0515   0.0464  -0.0629   0.00    0.0
2026/01/15 01:22:30.000   22.434277740  114.335382915    63.1873   6   6   0.1206   0.1981   0.2336   0.0518   0.0451  -0.0616   0.00    0.0
2026/01/15 01:23:00.000   22.434277744  114.335382888    63.1943   6   6   0.1196   0.1974   0.2310   0.0520   0.0438  -0.0603   0.00    0.0
2026/01/15 01:23:30.000   22.434277753  114.335382852    63.2010   6   8   0.1187   0.1968   0.2283   0.0522   0.0425  -0.0590   0.00    0.0
2026/01/15 01:24:00.000   22.434277769  114.335382822    63.2081   6   9   0.1178   0.1961   0.2257   0.0523   0.0413  -0.0578   0.00    0.0
2026/01/15 01:24:30.000   22.434277788  114.335382787    63.2157   6   9   0.1169   0.1954   0.2232   0.0525   0.0400  -0.0566   0.00    0.0
2026/01/15 01:25:00.000   22.434277801  114.335382739    63.2233   6   9   0.1160   0.1947   0.2207   0.0527   0.0388  -0.0555   0.00    0.0
2026/01/15 01:25:30.000   22.434277803  114.335382674    63.2237   6   8   0.1154   0.1941   0.2199   0.0530   0.0384  -0.0542   0.00    0.0
2026/01/15 01:26:00.000   22.434277807  114.335382619    63.2222   6   4   0.1152   0.1937   0.2197   0.0529   0.0384  -0.0541   0.00    0.0
2026/01/15 01:26:30.000   22.434277809  114.335382575    63.2204   6   4   0.1151   0.1932   0.2196   0.0527   0.0384  -0.0541   0.00    0.0
2026/01/15 01:27:00.000   22.434277810  114.335382549    63.2186   6   4   0.1149   0.1928   0.2195   0.0525   0.0383  -0.0541   0.00    0.0
2026/01/15 01:27:30.000   22.434277812  114.335382525    63.2170   6   4   0.1147   0.1924   0.2194   0.0523   0.0383  -0.0540   0.00    0.0
2026/01/15 01:28:00.000   22.434277813  114.335382501    63.2153   6   4   0.1145   0.1920   0.2193   0.0522   0.0383  -0.0540   0.00    0.0
2026/01/15 01:28:30.000   22.434277817  114.335382483    63.2141   6   4   0.1144   0.1915   0.2192   0.0520   0.0383  -0.0540   0.00    0.0
2026/01/15 01:29:00.000   22.434277820  114.335382466    63.2129   6   4   0.1142   0.1911   0.2191   0.0518   0.0383  -0.0539   0.00    0.0
2026/01/15 01:29:30.000   22.434277825  114.335382446    63.2115   6   4   0.1140   0.1907   0.2189   0.0517   0.0383  -0.0539   0.00    0.0
2026/01/15 01:30:00.000   22.434277833  114.335382433    63.2098   6   5   0.1139   0.1903   0.2188   0.0515   0.0382  -0.0539   0.00    0.0
2026/01/15 01:30:30.000   22.434277844  114.335382423    63.2081   6   5   0.1137   0.1898   0.2187   0.0513   0.0382  -0.0539   0.00    0.0
2026/01/15 01:31:00.000   22.434277858  114.335382419    63.2069   6   5   0.1135   0.1894   0.2186   0.0511   0.0382  -0.0539   0.00    0.0
2026/01/15 01:31:30.000   22.434277869  114.335382414    63.2058   6   5   0.1133   0.1890   0.2185   0.0510   0.0382  -0.0539   0.00    0.0
2026/01/15 01:32:00.000   22.434277873  114.335382401    63.2045   6   5   0.1131   0.1886   0.2183   0.0508   0.0381  -0.0539   0.00    0.0
2026/01/15 01:32:30.000   22.434277871  114.335382379    63.2027   6   4   0.1130   0.1882   0.2182   0.0506   0.0381  -0.0539   0.00    0.0
2026/01/15 01:33:00.000   22.434277871  114.335382355    63.2009   6   4   0.1128   0.1878   0.2181   0.0504   0.0381  -0.0539   0.00    0.0
2026/01/15 01:33:30.000   22.434277870  114.335382328    63.1995   6   4   0.1126   0.1873   0.2179   0.0502   0.0380  -0.0540   0.00    0.0
2026/01/15 01:34:00.000   22.434277869  114.335382302    63.1985   6   4   0.1124   0.1869   0.2178   0.0500   0.0380  -0.0540   0.00    0.0
2026/01/15 01:34:30.000   22.434277873  114.335382284    63.1980   6   4   0.1124   0.1869   0.2178   0.0500   0.0380  -0.0541   0.00    0.0
2026/01/15 01:35:00.000   22.434277875  114.335382265    63.1980   6   4   0.1123   0.1868   0.2177   0.0499   0.0380  -0.0541   0.00    0.0
2026/01/15 01:35:30.000   22.434277875  114.335382243    63.1981   6   4   0.1123   0.1868   0.2176   0.0499   0.0379  -0.0542   0.00    0.0
2026/01/15 01:36:00.000   22.434277876  114.335382236    63.1977   6   5   0.1121   0.1864   0.2175   0.0497   0.0379  -0.0543   0.00    0.0
2026/01/15 01:36:30.000   22.434277877  114.335382237    63.1968   6   5   0.1119   0.1860   0.2173   0.0495   0.0378  -0.0543   0.00    0.0
2026/01/15 01:37:00.000   22.434277877  114.335382239    63.1954   6   9   0.1117   0.1856   0.2172   0.0493   0.0377  -0.0544   0.00    0.0
2026/01/15 01:37:30.000   22.434277878  114.335382243    63.1937   6   9   0.1115   0.1851   0.2170   0.0491   0.0376  -0.0545   0.00    0.0
2026/01/15 01:38:00.000   22.434277880  114.335382244    63.1919   6   8   0.1113   0.1847   0.2168   0.0489   0.0374  -0.0546   0.00    0.0
2026/01/15 01:38:30.000   22.434277889  114.335382246    63.1903   6   9   0.1111   0.1843   0.2166   0.0487   0.0373  -0.0546   0.00    0.0
2026/01/15 01:39:00.000   22.434277899  114.335382240    63.1887   6   9   0.1109   0.1839   0.2165   0.0485   0.0371  -0.0547   0.00    0.0
2026/01/15 01:39:30.000   22.434277908  114.335382216    63.1878   6  10   0.1107   0.1835   0.2163   0.0483   0.0370  -0.0549   0.00    0.0
2026/01/15 01:40:00.000   22.434277922  114.335382188    63.1874   6  11   0.1105   0.1831   0.2161   0.0481   0.0368  -0.0550   0.00    0.0
2026/01/15 01:40:30.000   22.434277931  114.335382153    63.1870   6   8   0.1103   0.1827   0.2159   0.0479   0.0366  -0.0551   0.00    0.0
2026/01/15 01:41:00.000   22.434277941  114.335382126    63.1864   6   6   0.1101   0.1823   0.2157   0.0477   0.0365  -0.0552   0.00    0.0
2026/01/15 01:41:30.000   22.434277951  114.335382115    63.1861   6  11   0.1099   0.1819   0.2154   0.0475   0.0363  -0.0554   0.00    0.0
2026/01/15 01:42:00.000   22.434277960  114.335382115    63.1857   6   9   0.1097   0.1815   0.2152   0.0473   0.0361  -0.0555   0.00    0.0
2026/01/15 01:42:30.000   22.434277971  114.335382119    63.1853   6   5   0.1095   0.1811   0.2150   0.0471   0.0359  -0.0557   0.00    0.0
2026/01/15 01:43:00.000   22.434277984  114.335382125    63.1853   6  11   0.1093   0.1807   0.2147   0.0469   0.0356  -0.0558   0.00    0.0
2026/01/15 01:43:30.000   22.434277999  114.335382132    63.1857   6  11   0.1091   0.1803   0.2145   0.0467   0.0354  -0.0560   0.00    0.0
2026/01/15 01:44:00.000   22.434278017  114.335382139    63.1849   6   6   0.1089   0.1799   0.2143   0.0465   0.0354  -0.0559   0.00    0.0
2026/01/15 01:44:30.000   22.434278040  114.335382142    63.1839   6   6   0.1088   0.1795   0.2142   0.0464   0.0354  -0.0558   0.00    0.0
2026/01/15 01:45:00.000   22.434278064  114.335382139    63.1830   6   6   0.1086   0.1792   0.2140   0.0463   0.0355  -0.0558   0.00    0.0
2026/01/15 01:45:30.000   22.434278086  114.335382127    63.1820   6   6   0.1085   0.1788   0.2139   0.0462   0.0355  -0.0557   0.00    0.0
2026/01/15 01:46:00.000   22.434278107  114.335382108    63.1810   6   7   0.1083   0.1784   0.2137   0.0461   0.0355  -0.0556   0.00    0.0
2026/01/15 01:46:30.000   22.434278125  114.335382079    63.1806   6   7   0.1081   0.1781   0.2135   0.0460   0.0354  -0.0555   0.00    0.0
2026/01/15 01:47:00.000   22.434278141  114.335382046    63.1805   6   7   0.1080   0.1777   0.2133   0.0459   0.0354  -0.0554   0.00    0.0
2026/01/15 01:47:30.000   22.434278156  114.335382011    63.1802   6   7   0.1078   0.1773   0.2131   0.0458   0.0354  -0.0553   0.00    0.0
2026/01/15 01:48:00.000   22.434278169  114.335381974    63.1792   6   7   0.1076   0.1769   0.2129   0.0457   0.0353  -0.0552   0.00    0.0
2026/01/15 01:48:30.000   22.434278190  114.335381945    63.1783   6   7   0.1075   0.1766   0.2127   0.0456   0.0353  -0.0551   0.00    0.0
2026/01/15 01:49:00.000   22.434278204  114.335381920    63.1775   6   7   0.1073   0.1762   0.2125   0.0455   0.0353  -0.0550   0.00    0.0
2026/01/15 01:49:30.000   22.434278225  114.335381909    63.1773   6   7   0.1071   0.1758   0.2122   0.0454   0.0352  -0.0549   0.00    0.0
2026/01/15 01:50:00.000   22.434278244  114.335381900    63.1769   6   7   0.1069   0.1755   0.2120   0.0452   0.0352  -0.0548   0.00    0.0
2026/01/15 01:50:30.000   22.434278257  114.335381889    63.1760   6   7   0.1068   0.1751   0.2117   0.0451   0.0351  -0.0546   0.00    0.0
2026/01/15 01:51:00.000   22.434278267  114.335381885    63.1754   6   7   0.1066   0.1747   0.2115   0.0450   0.0351  -0.0545   0.00    0.0
2026/01/15 01:51:30.000   22.434278275  114.335381889    63.1754   6   7   0.1064   0.1744   0.2112   0.0449   0.0351  -0.0544   0.00    0.0
2026/01/15 01:52:00.000   22.434278278  114.335381894    63.1756   6   7   0.1062   0.1740   0.2109   0.0448   0.0350  -0.0542   0.00    0.0
2026/01/15 01:52:30.000   22.434278279  114.335381889    63.1758   6   7   0.1060   0.1737   0.2106   0.0447   0.0350  -0.0541   0.00    0.0
2026/01/15 01:53:00.000   22.434278279  114.335381878    63.1765   6   7   0.1058   0.1733   0.2103   0.0446   0.0349  -0.0539   0.00    0.0
2026/01/15 01:53:30.000   22.434278281  114.335381860    63.1773   6   7   0.1056   0.1729   0.2100   0.0444   0.0348  -0.0538   0.00    0.0
2026/01/15 01:54:00.000   22.434278282  114.335381836    63.1781   6  10   0.1054   0.1726   0.2096   0.0443   0.0348  -0.0536   0.00    0.0
2026/01/15 01:54:30.000   22.434278275  114.335381804    63.1781   6   7   0.1052   0.1722   0.2093   0.0442   0.0347  -0.0535   0.00    0.0
2026/01/15 01:55:00.000   22.434278268  114.335381779    63.1778   6   7   0.1050   0.1719   0.2089   0.0441   0.0346  -0.0533   0.00    0.0
2026/01/15 01:55:30.000   22.434278274  114.335381761    63.1772   6   7   0.1048   0.1715   0.2085   0.0439   0.0346  -0.0531   0.00    0.0
2026/01/15 01:56:00.000   22.434278280  114.335381734    63.1773   6   6   0.1046   0.1712   0.2082   0.0438   0.0344  -0.0530   0.00    0.0
2026/01/15 01:56:30.000   22.434278292  114.335381703    63.1775   6   6   0.1044   0.1708   0.2080   0.0437   0.0342  -0.0529   0.00    0.0
2026/01/15 01:57:00.000   22.434278306  114.335381672    63.1779   6   6   0.1042   0.1705   0.2077   0.0436   0.0340  -0.0527   0.00    0.0
2026/01/15 01:58:00.000   22.434278305  114.335381590    63.1763   6   7   0.1038   0.1699   0.2073   0.0435   0.0340  -0.0525   0.00    0.0
2026/01/15 01:58:30.000   22.434278298  114.335381544    63.1766   6   6   0.1036   0.1695   0.2070   0.0434   0.0338  -0.0523   0.00    0.0
2026/01/15 01:59:00.000   22.434278288  114.335381501    63.1775   6   6   0.1034   0.1692   0.2066   0.0433   0.0336  -0.0521   0.00    0.0
2026/01/15 01:59:30.000   22.434278277  114.335381460    63.1789   6   6   0.1031   0.1689   0.2062   0.0432   0.0334  -0.0520   0.00    0.0
2026/01/15 02:00:00.000   22.434278260  114.335381420    63.1805   6   6   0.1029   0.1686   0.2059   0.0431   0.0332  -0.0518   0.00    0.0
2026/01/15 02:00:30.000   22.434278241  114.335381383    63.1821   6   6   0.1026   0.1682   0.2055   0.0430   0.0330  -0.0516   0.00    0.0
2026/01/15 02:01:00.000   22.434278223  114.335381350    63.1839   6   6   0.1024   0.1679   0.2050   0.0428   0.0327  -0.0514   0.00    0.0
2026/01/15 02:01:30.000   22.434278208  114.335381317    63.1859   6   6   0.1021   0.1675   0.2046   0.0427   0.0325  -0.0513   0.00    0.0
2026/01/15 02:02:00.000   22.434278200  114.335381295    63.1879   6   6   0.1018   0.1672   0.2042   0.0425   0.0322  -0.0511   0.00    0.0
2026/01/15 02:02:30.000   22.434278191  114.335381274    63.1900   6   6   0.1016   0.1668   0.2037   0.0423   0.0319  -0.0509   0.00    0.0
2026/01/15 02:03:00.000   22.434278185  114.335381254    63.1922   6   6   0.1013   0.1665   0.2033   0.0422   0.0317  -0.0507   0.00    0.0
2026/01/15 02:03:30.000   22.434278181  114.335381231    63.1941   6   6   0.1010   0.1662   0.2028   0.0420   0.0314  -0.0505   0.00    0.0
2026/01/15 02:04:00.000   22.434278178  114.335381214    63.1962   6   6   0.1008   0.1658   0.2023   0.0418   0.0311  -0.0502   0.00    0.0
2026/01/15 02:04:30.000   22.434278182  114.335381201    63.1985   6   6   0.1005   0.1655   0.2018   0.0417   0.0308  -0.0500   0.00    0.0
2026/01/15 02:05:00.000   22.434278188  114.335381192    63.2011   6   6   0.1002   0.1651   0.2013   0.0415   0.0306  -0.0498   0.00    0.0
2026/01/15 02:05:30.000   22.434278195  114.335381179    63.2033   6   6   0.0999   0.1648   0.2008   0.0413   0.0303  -0.0495   0.00    0.0
2026/01/15 02:06:00.000   22.434278205  114.335381164    63.2057   6   6   0.0996   0.1644   0.2002   0.0411   0.0300  -0.0493   0.00    0.0
2026/01/15 02:06:30.000   22.434278212  114.335381139    63.2074   6   6   0.0993   0.1641   0.1996   0.0409   0.0297  -0.0490   0.00    0.0
2026/01/15 02:07:00.000   22.434278221  114.335381113    63.2097   6   6   0.0990   0.1638   0.1991   0.0408   0.0293  -0.0488   0.00    0.0
2026/01/15 02:07:30.000   22.434278231  114.335381095    63.2119   6   6   0.0987   0.1634   0.1985   0.0406   0.0290  -0.0485   0.00    0.0
2026/01/15 02:08:00.000   22.434278242  114.335381084    63.2146   6   6   0.0984   0.1631   0.1979   0.0404   0.0287  -0.0482   0.00    0.0
2026/01/15 02:08:30.000   22.434278247  114.335381071    63.2169   6   9   0.0981   0.1627   0.1973   0.0402   0.0284  -0.0480   0.00    0.0
2026/01/15 02:09:00.000   22.434278251  114.335381063    63.2195   6   6   0.0977   0.1624   0.1967   0.0400   0.0280  -0.0477   0.00    0.0
2026/01/15 02:09:30.000   22.434278251  114.335381049    63.2224   6   6   0.0974   0.1621   0.1960   0.0398   0.0278  -0.0474   0.00    0.0
2026/01/15 02:10:00.000   22.434278250  114.335381033    63.2255   6   6   0.0971   0.1617   0.1954   0.0396   0.0274  -0.0470   0.00    0.0
2026/01/15 02:10:30.000   22.434278249  114.335381013    63.2295   6   6   0.0968   0.1614   0.1947   0.0393   0.0271  -0.0467   0.00    0.0
2026/01/15 02:11:00.000   22.434278245  114.335380994    63.2338   6   6   0.0964   0.1611   0.1940   0.0391   0.0267  -0.0464   0.00    0.0
2026/01/15 02:11:30.000   22.434278242  114.335380979    63.2377   6   6   0.0961   0.1608   0.1933   0.0389   0.0264  -0.0461   0.00    0.0
2026/01/15 02:12:00.000   22.434278240  114.335380975    63.2413   6   6   0.0958   0.1604   0.1926   0.0387   0.0260  -0.0458   0.00    0.0
2026/01/15 02:12:30.000   22.434278236  114.335380972    63.2448   6   6   0.0954   0.1601   0.1919   0.0385   0.0257  -0.0454   0.00    0.0
2026/01/15 02:13:00.000   22.434278233  114.335380972    63.2487   6   6   0.0951   0.1598   0.1912   0.0382   0.0253  -0.0451   0.00    0.0
2026/01/15 02:13:30.000   22.434278232  114.335380976    63.2529   6   6   0.0948   0.1594   0.1904   0.0380   0.0249  -0.0447   0.00    0.0
2026/01/15 02:14:00.000   22.434278235  114.335380981    63.2571   6   6   0.0944   0.1591   0.1897   0.0378   0.0246  -0.0444   0.00    0.0
2026/01/15 02:14:30.000   22.434278240  114.335380981    63.2611   6   6   0.0941   0.1588   0.1889   0.0375   0.0242  -0.0440   0.00    0.0
2026/01/15 02:15:00.000   22.434278245  114.335380972    63.2653   6   6   0.0937   0.1585   0.1881   0.0373   0.0238  -0.0436   0.00    0.0
2026/01/15 02:15:30.000   22.434278251  114.335380954    63.2693   6   6   0.0933   0.1581   0.1873   0.0370   0.0235  -0.0432   0.00    0.0
2026/01/15 02:16:00.000   22.434278254  114.335380933    63.2727   6   6   0.0930   0.1578   0.1865   0.0368   0.0231  -0.0429   0.00    0.0
2026/01/15 02:16:30.000   22.434278257  114.335380920    63.2757   6   6   0.0926   0.1575   0.1857   0.0365   0.0227  -0.0425   0.00    0.0
2026/01/15 02:17:00.000   22.434278261  114.335380916    63.2791   6   6   0.0923   0.1572   0.1849   0.0363   0.0223  -0.0421   0.00    0.0
2026/01/15 02:17:30.000   22.434278264  114.335380916    63.2825   6   6   0.0919   0.1568   0.1840   0.0360   0.0219  -0.0417   0.00    0.0
2026/01/15 02:18:00.000   22.434278267  114.335380913    63.2859   6   6   0.0915   0.1565   0.1832   0.0357   0.0215  -0.0413   0.00    0.0
2026/01/15 02:18:30.000   22.434278269  114.335380907    63.2894   6   6   0.0911   0.1562   0.1823   0.0354   0.0211  -0.0408   0.00    0.0
2026/01/15 02:19:00.000   22.434278271  114.335380897    63.2934   6   6   0.0908   0.1559   0.1815   0.0351   0.0207  -0.0404   0.00    0.0
2026/01/15 02:19:30.000   22.434278275  114.335380881    63.2976   6   6   0.0904   0.1555   0.1806   0.0349   0.0202  -0.0400   0.00    0.0
2026/01/15 02:20:00.000   22.434278279  114.335380868    63.3021   6   6   0.0900   0.1552   0.1797   0.0346   0.0198  -0.0396   0.00    0.0
2026/01/15 02:20:30.000   22.434278285  114.335380847    63.3070   6   6   0.0896   0.1549   0.1788   0.0342   0.0194  -0.0391   0.00    0.0
2026/01/15 02:21:00.000   22.434278291  114.335380826    63.3121   6   6   0.0892   0.1545   0.1779   0.0339   0.0189  -0.0387   0.00    0.0
2026/01/15 02:21:30.000   22.434278297  114.335380806    63.3173   6   6   0.0889   0.1542   0.1770   0.0336   0.0185  -0.0383   0.00    0.0
2026/01/15 02:22:00.000   22.434278299  114.335380787    63.3223   6   6   0.0885   0.1539   0.1761   0.0333   0.0180  -0.0378   0.00    0.0
2026/01/15 02:22:30.000   22.434278303  114.335380774    63.3274   6   6   0.0881   0.1536   0.1752   0.0330   0.0176  -0.0374   0.00    0.0
2026/01/15 02:23:00.000   22.434278308  114.335380759    63.3323   6   6   0.0877   0.1532   0.1743   0.0326   0.0171  -0.0369   0.00    0.0
2026/01/15 02:23:30.000   22.434278313  114.335380741    63.3368   6   7   0.0873   0.1529   0.1734   0.0323   0.0166  -0.0364   0.00    0.0
2026/01/15 02:24:00.000   22.434278324  114.335380729    63.3416   6   6   0.0869   0.1526   0.1724   0.0319   0.0162  -0.0360   0.00    0.0
2026/01/15 02:24:30.000   22.434278332  114.335380717    63.3460   6   7   0.0865   0.1523   0.1715   0.0316   0.0157  -0.0355   0.00    0.0
2026/01/15 02:25:00.000   22.434278342  114.335380707    63.3503   6   8   0.0861   0.1519   0.1705   0.0312   0.0152  -0.0350   0.00    0.0
2026/01/15 02:25:30.000   22.434278350  114.335380695    63.3546   6   6   0.0857   0.1516   0.1696   0.0308   0.0147  -0.0346   0.00    0.0
2026/01/15 02:26:00.000   22.434278357  114.335380684    63.3589   6   7   0.0853   0.1513   0.1686   0.0305   0.0142  -0.0341   0.00    0.0
2026/01/15 02:26:30.000   22.434278368  114.335380680    63.3631   6   9   0.0849   0.1510   0.1677   0.0301   0.0136  -0.0336   0.00    0.0
2026/01/15 02:27:00.000   22.434278379  114.335380676    63.3672   6   9   0.0845   0.1506   0.1667   0.0297   0.0131  -0.0331   0.00    0.0
2026/01/15 02:27:30.000   22.434278392  114.335380672    63.3707   6  11   0.0841   0.1503   0.1657   0.0293   0.0125  -0.0326   0.00    0.0
2026/01/15 02:28:00.000   22.434278401  114.335380663    63.3740   6   6   0.0837   0.1500   0.1648   0.0289   0.0119  -0.0321   0.00    0.0
2026/01/15 02:28:30.000   22.434278414  114.335380656    63.3776   6   6   0.0833   0.1496   0.1638   0.0285   0.0113  -0.0316   0.00    0.0
2026/01/15 02:29:00.000   22.434278429  114.335380649    63.3817   6  11   0.0829   0.1493   0.1628   0.0280   0.0107  -0.0311   0.00    0.0
2026/01/15 02:29:30.000   22.434278446  114.335380636    63.3866   6  12   0.0825   0.1490   0.1619   0.0276   0.0100  -0.0306   0.00    0.0
2026/01/15 02:30:00.000   22.434278460  114.335380622    63.3918   6  13   0.0821   0.1487   0.1609   0.0272   0.0094  -0.0301   0.00    0.0
2026/01/15 02:30:30.000   22.434278472  114.335380608    63.3971   6  14   0.0817   0.1483   0.1599   0.0267   0.0087  -0.0296   0.00    0.0
2026/01/15 02:31:00.000   22.434278481  114.335380603    63.4024   6  14   0.0813   0.1480   0.1589   0.0262   0.0080  -0.0290   0.00    0.0
2026/01/15 02:31:30.000   22.434278481  114.335380590    63.4041   6   9   0.0812   0.1478   0.1589   0.0262   0.0082  -0.0291   0.00    0.0
2026/01/15 02:32:00.000   22.434278477  114.335380574    63.4058   6   8   0.0812   0.1476   0.1588   0.0262   0.0084  -0.0291   0.00    0.0
2026/01/15 02:32:30.000   22.434278472  114.335380555    63.4075   6   8   0.0811   0.1474   0.1588   0.0261   0.0087  -0.0291   0.00    0.0
2026/01/15 02:33:00.000   22.434278466  114.335380539    63.4091   6   8   0.0810   0.1472   0.1587   0.0261   0.0089  -0.0291   0.00    0.0
2026/01/15 02:33:30.000   22.434278458  114.335380529    63.4104   6   8   0.0810   0.1470   0.1587   0.0261   0.0092  -0.0291   0.00    0.0
2026/01/15 02:34:00.000   22.434278450  114.335380532    63.4113   6   8   0.0809   0.1468   0.1586   0.0260   0.0095  -0.0291   0.00    0.0
2026/01/15 02:34:30.000   22.434278445  114.335380544    63.4120   6   8   0.0808   0.1465   0.1585   0.0260   0.0098  -0.0292   0.00    0.0
2026/01/15 02:35:00.000   22.434278442  114.335380551    63.4129   6   8   0.0808   0.1463   0.1585   0.0259   0.0102  -0.0292   0.00    0.0
2026/01/15 02:35:30.000   22.434278441  114.335380552    63.4139   6   8   0.0807   0.1461   0.1584   0.0259   0.0105  -0.0292   0.00    0.0
2026/01/15 02:36:00.000   22.434278454  114.335380566    63.4202   6   6   0.0802   0.1458   0.1571   0.0252   0.0097  -0.0285   0.00    0.0
2026/01/15 02:36:30.000   22.434278469  114.335380574    63.4260   6   6   0.0797   0.1454   0.1558   0.0246   0.0089  -0.0277   0.00    0.0
2026/01/15 02:37:00.000   22.434278487  114.335380576    63.4319   6   6   0.0792   0.1450   0.1545   0.0239   0.0080  -0.0270   0.00    0.0
2026/01/15 02:37:30.000   22.434278504  114.335380567    63.4380   6  14   0.0786   0.1447   0.1531   0.0232   0.0076  -0.0263   0.00    0.0
2026/01/15 02:38:00.000   22.434278517  114.335380547    63.4440   6  14   0.0781   0.1443   0.1518   0.0224   0.0073  -0.0256   0.00    0.0
2026/01/15 02:38:30.000   22.434278528  114.335380526    63.4502   6  14   0.0776   0.1439   0.1504   0.0217   0.0069  -0.0250   0.00    0.0
2026/01/15 02:39:00.000   22.434278536  114.335380506    63.4561   6  14   0.0771   0.1435   0.1491   0.0209   0.0066  -0.0243   0.00    0.0
2026/01/15 02:39:30.000   22.434278543  114.335380490    63.4616   6  14   0.0766   0.1431   0.1478   0.0201   0.0064  -0.0236   0.00    0.0
2026/01/15 02:40:00.000   22.434278554  114.335380473    63.4673   6  14   0.0761   0.1428   0.1465   0.0193   0.0061  -0.0230   0.00    0.0
2026/01/15 02:40:30.000   22.434278566  114.335380456    63.4728   6  14   0.0756   0.1424   0.1453   0.0185   0.0059  -0.0223   0.00    0.0
2026/01/15 02:41:00.000   22.434278580  114.335380443    63.4784   6  14   0.0751   0.1420   0.1440   0.0177   0.0058  -0.0217   0.00    0.0
2026/01/15 02:41:30.000   22.434278592  114.335380439    63.4834   6  14   0.0746   0.1416   0.1427   0.0168   0.0057  -0.0210   0.00    0.0
2026/01/15 02:42:00.000   22.434278599  114.335380431    63.4848   6   9   0.0746   0.1414   0.1426   0.0167   0.0069  -0.0211   0.00    0.0
2026/01/15 02:42:30.000   22.434278607  114.335380423    63.4857   6   8   0.0745   0.1412   0.1425   0.0167   0.0079  -0.0212   0.00    0.0
2026/01/15 02:43:00.000   22.434278614  114.335380412    63.4865   6   8   0.0744   0.1410   0.1423   0.0166   0.0088  -0.0213   0.00    0.0
2026/01/15 02:43:30.000   22.434278621  114.335380401    63.4872   6   8   0.0743   0.1408   0.1422   0.0166   0.0097  -0.0214   0.00    0.0
2026/01/15 02:44:00.000   22.434278625  114.335380389    63.4879   6   8   0.0742   0.1405   0.1420   0.0165   0.0105  -0.0215   0.00    0.0
2026/01/15 02:44:30.000   22.434278628  114.335380376    63.4886   6   8   0.0742   0.1403   0.1419   0.0164   0.0114  -0.0216   0.00    0.0
2026/01/15 02:45:00.000   22.434278628  114.335380362    63.4896   6   8   0.0741   0.1401   0.1417   0.0164   0.0121  -0.0217   0.00    0.0
2026/01/15 02:45:30.000   22.434278626  114.335380348    63.4906   6   8   0.0740   0.1399   0.1415   0.0163   0.0129  -0.0218   0.00    0.0
2026/01/15 02:46:00.000   22.434278623  114.335380336    63.4918   6   8   0.0739   0.1397   0.1413   0.0162   0.0136  -0.0219   0.00    0.0
2026/01/15 02:46:30.000   22.434278618  114.335380322    63.4930   6   8   0.0738   0.1394   0.1411   0.0161   0.0143  -0.0220   0.00    0.0
2026/01/15 02:47:00.000   22.434278613  114.335380308    63.4943   6   8   0.0737   0.1392   0.1409   0.0161   0.0151  -0.0221   0.00    0.0
2026/01/15 02:47:30.000   22.434278609  114.335380295    63.4956   6   8   0.0736   0.1390   0.1407   0.0160   0.0158  -0.0223   0.00    0.0
2026/01/15 02:48:00.000   22.434278605  114.335380278    63.4967   6   8   0.0735   0.1387   0.1405   0.0159   0.0164  -0.0224   0.00    0.0
2026/01/15 02:48:30.000   22.434278601  114.335380256    63.4978   6   8   0.0734   0.1385   0.1403   0.0158   0.0171  -0.0225   0.00    0.0
2026/01/15 02:49:00.000   22.434278595  114.335380230    63.4987   6   8   0.0733   0.1383   0.1401   0.0157   0.0178  -0.0226   0.00    0.0
2026/01/15 02:49:30.000   22.434278590  114.335380199    63.4995   6   8   0.0732   0.1381   0.1398   0.0156   0.0185  -0.0228   0.00    0.0
2026/01/15 02:50:00.000   22.434278584  114.335380166    63.5002   6   8   0.0731   0.1378   0.1396   0.0154   0.0191  -0.0229   0.00    0.0
2026/01/15 02:50:30.000   22.434278581  114.335380136    63.5010   6   8   0.0730   0.1376   0.1393   0.0153   0.0198  -0.0231   0.00    0.0
2026/01/15 02:51:00.000   22.434278580  114.335380105    63.5018   6   8   0.0729   0.1374   0.1391   0.0152   0.0204  -0.0232   0.00    0.0
2026/01/15 02:51:30.000   22.434278578  114.335380077    63.5027   6   8   0.0727   0.1371   0.1388   0.0151   0.0211  -0.0233   0.00    0.0
2026/01/15 02:52:00.000   22.434278577  114.335380051    63.5037   6   8   0.0726   0.1369   0.1385   0.0149   0.0217  -0.0235   0.00    0.0
2026/01/15 02:52:30.000   22.434278576  114.335380025    63.5047   6   8   0.0725   0.1366   0.1382   0.0148   0.0224  -0.0237   0.00    0.0
2026/01/15 02:53:00.000   22.434278576  114.335380002    63.5055   6   8   0.0724   0.1364   0.1379   0.0146   0.0230  -0.0238   0.00    0.0
2026/01/15 02:53:30.000   22.434278577  114.335379980    63.5065   6   8   0.0722   0.1361   0.1376   0.0145   0.0236  -0.0240   0.00    0.0
2026/01/15 02:54:00.000   22.434278579  114.335379960    63.5077   6   8   0.0721   0.1359   0.1373   0.0143   0.0243  -0.0241   0.00    0.0
2026/01/15 02:54:30.000   22.434278579  114.335379940    63.5088   6   8   0.0720   0.1357   0.1370   0.0142   0.0249  -0.0243   0.00    0.0
2026/01/15 02:55:00.000   22.434278579  114.335379918    63.5100   6   8   0.0719   0.1354   0.1367   0.0140   0.0255  -0.0245   0.00    0.0
2026/01/15 02:55:30.000   22.434278579  114.335379898    63.5113   6   8   0.0717   0.1352   0.1363   0.0138   0.0261  -0.0247   0.00    0.0
2026/01/15 02:56:00.000   22.434278578  114.335379883    63.5129   6   8   0.0716   0.1349   0.1360   0.0136   0.0267  -0.0248   0.00    0.0
2026/01/15 02:56:30.000   22.434278578  114.335379871    63.5144   6   9   0.0714   0.1347   0.1356   0.0134   0.0273  -0.0250   0.00    0.0
2026/01/15 02:57:00.000   22.434278577  114.335379856    63.5159   6   9   0.0713   0.1344   0.1353   0.0132   0.0279  -0.0252   0.00    0.0
2026/01/15 02:57:30.000   22.434278577  114.335379840    63.5173   6   9   0.0711   0.1341   0.1349   0.0130   0.0285  -0.0253   0.00    0.0
2026/01/15 02:58:00.000   22.434278578  114.335379828    63.5187   6   9   0.0710   0.1339   0.1345   0.0128   0.0290  -0.0255   0.00    0.0
2026/01/15 02:58:30.000   22.434278581  114.335379822    63.5196   6   9   0.0708   0.1336   0.1342   0.0125   0.0296  -0.0257   0.00    0.0
2026/01/15 02:59:00.000   22.434278585  114.335379816    63.5202   6   9   0.0707   0.1333   0.1338   0.0123   0.0302  -0.0259   0.00    0.0
2026/01/15 02:59:30.000   22.434278588  114.335379807    63.5207   6   9   0.0705   0.1331   0.1334   0.0120   0.0307  -0.0261   0.00    0.0
2026/01/15 03:00:00.000   22.434278590  114.335379790    63.5210   6   9   0.0703   0.1328   0.1330   0.0118   0.0313  -0.0263   0.00    0.0
2026/01/15 03:00:30.000   22.434278593  114.335379769    63.5213   6   9   0.0702   0.1325   0.1326   0.0115   0.0319  -0.0264   0.00    0.0
2026/01/15 03:01:00.000   22.434278595  114.335379750    63.5216   6   9   0.0700   0.1323   0.1321   0.0112   0.0324  -0.0266   0.00    0.0
2026/01/15 03:01:30.000   22.434278598  114.335379737    63.5218   6   9   0.0698   0.1320   0.1317   0.0109   0.0330  -0.0268   0.00    0.0
2026/01/15 03:02:00.000   22.434278599  114.335379728    63.5220   6   9   0.0697   0.1317   0.1313   0.0106   0.0335  -0.0270   0.00    0.0
2026/01/15 03:02:30.000   22.434278599  114.335379719    63.5222   6   9   0.0695   0.1315   0.1309   0.0102   0.0340  -0.0272   0.00    0.0
2026/01/15 03:03:00.000   22.434278599  114.335379709    63.5225   6   9   0.0693   0.1312   0.1304   0.0099   0.0346  -0.0274   0.00    0.0
2026/01/15 03:03:30.000   22.434278598  114.335379703    63.5223   6   9   0.0691   0.1309   0.1300   0.0095   0.0351  -0.0276   0.00    0.0
2026/01/15 03:04:00.000   22.434278597  114.335379697    63.5221   6   9   0.0689   0.1306   0.1295   0.0091   0.0356  -0.0278   0.00    0.0
2026/01/15 03:04:30.000   22.434278596  114.335379687    63.5222   6   9   0.0687   0.1303   0.1290   0.0086   0.0362  -0.0279   0.00    0.0
2026/01/15 03:05:00.000   22.434278595  114.335379675    63.5222   6   9   0.0685   0.1301   0.1286   0.0081   0.0367  -0.0281   0.00    0.0
2026/01/15 03:05:30.000   22.434278593  114.335379662    63.5223   6   9   0.0684   0.1298   0.1281   0.0076   0.0372  -0.0283   0.00    0.0
2026/01/15 03:06:00.000   22.434278593  114.335379654    63.5222   6   9   0.0682   0.1295   0.1276   0.0070   0.0377  -0.0285   0.00    0.0
2026/01/15 03:06:30.000   22.434278591  114.335379642    63.5216   6   9   0.0680   0.1292   0.1272   0.0064   0.0382  -0.0287   0.00    0.0
2026/01/15 03:07:00.000   22.434278591  114.335379629    63.5210   6   9   0.0678   0.1289   0.1267   0.0057   0.0387  -0.0289   0.00    0.0
2026/01/15 03:07:30.000   22.434278592  114.335379614    63.5203   6   9   0.0676   0.1286   0.1262   0.0048   0.0392  -0.0290   0.00    0.0
2026/01/15 03:08:00.000   22.434278592  114.335379599    63.5197   6   9   0.0673   0.1284   0.1257   0.0038   0.0397  -0.0292   0.00    0.0
2026/01/15 03:08:30.000   22.434278592  114.335379585    63.5191   6   9   0.0671   0.1281   0.1252   0.0023   0.0401  -0.0294   0.00    0.0
2026/01/15 03:09:00.000   22.434278593  114.335379567    63.5185   6   9   0.0669   0.1278   0.1247  -0.0020   0.0406  -0.0296   0.00    0.0
2026/01/15 03:09:30.000   22.434278593  114.335379551    63.5179   6   9   0.0667   0.1275   0.1242  -0.0037   0.0411  -0.0297   0.00    0.0
2026/01/15 03:10:00.000   22.434278596  114.335379538    63.5168   6   9   0.0665   0.1272   0.1237  -0.0048   0.0415  -0.0299   0.00    0.0
2026/01/15 03:10:30.000   22.434278601  114.335379523    63.5156   6   9   0.0663   0.1269   0.1232  -0.0057   0.0420  -0.0301   0.00    0.0
2026/01/15 03:11:00.000   22.434278605  114.335379507    63.5144   6   9   0.0661   0.1266   0.1227  -0.0066   0.0424  -0.0303   0.00    0.0
2026/01/15 03:11:30.000   22.434278612  114.335379494    63.5131   6   9   0.0658   0.1263   0.1222  -0.0073   0.0429  -0.0304   0.00    0.0
2026/01/15 03:12:00.000   22.434278616  114.335379483    63.5118   6   9   0.0656   0.1260   0.1216  -0.0079   0.0433  -0.0306   0.00    0.0
2026/01/15 03:12:30.000   22.434278620  114.335379471    63.5105   6   9   0.0654   0.1257   0.1211  -0.0086   0.0438  -0.0308   0.00    0.0
2026/01/15 04:05:00.000   22.434278437  114.335378638    63.5337   6   8   0.0634   0.1156   0.1194  -0.0096   0.0450  -0.0282   0.00    0.0
2026/01/15 04:05:30.000   22.434278434  114.335378609    63.5341   6   8   0.0634   0.1155   0.1194  -0.0097   0.0450  -0.0282   0.00    0.0
2026/01/15 04:06:00.000   22.434278430  114.335378578    63.5343   6   8   0.0634   0.1154   0.1193  -0.0097   0.0450  -0.0282   0.00    0.0
2026/01/15 04:06:30.000   22.434278425  114.335378548    63.5345   6   8   0.0634   0.1153   0.1193  -0.0098   0.0450  -0.0282   0.00    0.0
2026/01/15 04:07:00.000   22.434278420  114.335378521    63.5346   6   8   0.0634   0.1152   0.1193  -0.0098   0.0451  -0.0282   0.00    0.0
2026/01/15 04:07:30.000   22.434278414  114.335378494    63.5348   6   8   0.0633   0.1151   0.1193  -0.0099   0.0451  -0.0281   0.00    0.0
2026/01/15 04:08:00.000   22.434278409  114.335378464    63.5352   6   8   0.0633   0.1150   0.1193  -0.0100   0.0451  -0.0281   0.00    0.0
2026/01/15 04:08:30.000   22.434278405  114.335378432    63.5356   6   8   0.0633   0.1149   0.1192  -0.0100   0.0451  -0.0281   0.00    0.0
2026/01/15 04:09:00.000   22.434278401  114.335378399    63.5359   6   8   0.0633   0.1148   0.1192  -0.0101   0.0452  -0.0281   0.00    0.0
2026/01/15 04:09:30.000   22.434278397  114.335378368    63.5361   6   8   0.0633   0.1147   0.1192  -0.0101   0.0452  -0.0280   0.00    0.0
2026/01/15 04:10:00.000   22.434278394  114.335378337    63.5360   6   8   0.0632   0.1146   0.1192  -0.0102   0.0452  -0.0280   0.00    0.0
2026/01/15 04:10:30.000   22.434278390  114.335378306    63.5358   6   8   0.0632   0.1145   0.1192  -0.0102   0.0452  -0.0280   0.00    0.0
2026/01/15 04:11:00.000   22.434278387  114.335378272    63.5356   6   8   0.0632   0.1144   0.1191  -0.0103   0.0452  -0.0280   0.00    0.0
2026/01/15 04:11:30.000   22.434278385  114.335378236    63.5354   6   8   0.0632   0.1143   0.1191  -0.0104   0.0453  -0.0280   0.00    0.0
2026/01/15 04:12:00.000   22.434278382  114.335378200    63.5351   6   8   0.0631   0.1142   0.1191  -0.0105   0.0453  -0.0279   0.00    0.0
2026/01/15 04:12:30.000   22.434278381  114.335378167    63.5349   6   8   0.0631   0.1140   0.1191  -0.0105   0.0453  -0.0279   0.00    0.0
2026/01/15 04:13:00.000   22.434278381  114.335378138    63.5346   6   8   0.0631   0.1139   0.1191  -0.0106   0.0453  -0.0279   0.00    0.0
2026/01/15 04:13:30.000   22.434278380  114.335378110    63.5344   6   8   0.0630   0.1138   0.1190  -0.0107   0.0454  -0.0279   0.00    0.0
2026/01/15 04:14:00.000   22.434278378  114.335378081    63.5343   6   8   0.0630   0.1137   0.1190  -0.0107   0.0454  -0.0279   0.00    0.0
2026/01/15 04:14:30.000   22.434278377  114.335378054    63.5341   6   8   0.0630   0.1136   0.1190  -0.0108   0.0454  -0.0279   0.00    0.0
2026/01/15 04:15:00.000   22.434278376  114.335378025    63.5340   6   8   0.0629   0.1135   0.1190  -0.0109   0.0455  -0.0278   0.00    0.0
2026/01/15 04:15:30.000   22.434278373  114.335377993    63.5339   6   8   0.0629   0.1134   0.1189  -0.0110   0.0455  -0.0278   0.00    0.0
2026/01/15 04:16:00.000   22.434278369  114.335377961    63.5338   6   8   0.0629   0.1133   0.1189  -0.0111   0.0455  -0.0278   0.00    0.0
2026/01/15 04:16:30.000   22.434278365  114.335377930    63.5335   6   8   0.0628   0.1132   0.1189  -0.0112   0.0456  -0.0278   0.00    0.0
2026/01/15 04:17:00.000   22.434278359  114.335377900    63.5331   6   8   0.0628   0.1131   0.1188  -0.0113   0.0456  -0.0278   0.00    0.0
2026/01/15 04:17:30.000   22.434278353  114.335377871    63.5327   6   8   0.0628   0.1129   0.1188  -0.0114   0.0456  -0.0278   0.00    0.0
2026/01/15 04:18:00.000   22.434278347  114.335377841    63.5325   6   8   0.0627   0.1128   0.1188  -0.0115   0.0456  -0.0278   0.00    0.0
2026/01/15 04:18:30.000   22.434278341  114.335377812    63.5325   6   8   0.0627   0.1127   0.1188  -0.0116   0.0457  -0.0277   0.00    0.0
2026/01/15 04:19:00.000   22.434278336  114.335377788    63.5326   6   8   0.0626   0.1126   0.1187  -0.0117   0.0457  -0.0277   0.00    0.0
2026/01/15 04:19:30.000   22.434278332  114.335377768    63.5326   6   8   0.0626   0.1125   0.1187  -0.0118   0.0457  -0.0277   0.00    0.0
2026/01/15 04:20:00.000   22.434278327  114.335377749    63.5327   6   8   0.0626   0.1124   0.1186  -0.0119   0.0458  -0.0277   0.00    0.0
2026/01/15 04:20:30.000   22.434278322  114.335377729    63.5328   6   8   0.0625   0.1122   0.1186  -0.0120   0.0458  -0.0277   0.00    0.0
2026/01/15 04:21:00.000   22.434278317  114.335377713    63.5329   6   8   0.0625   0.1121   0.1186  -0.0121   0.0459  -0.0277   0.00    0.0
2026/01/15 04:21:30.000   22.434278312  114.335377701    63.5329   6   8   0.0624   0.1120   0.1185  -0.0122   0.0459  -0.0277   0.00    0.0
2026/01/15 04:22:00.000   22.434278309  114.335377691    63.5327   6   8   0.0624   0.1119   0.1185  -0.0123   0.0459  -0.0277   0.00    0.0
2026/01/15 04:22:30.000   22.434278307  114.335377680    63.5323   6   8   0.0623   0.1118   0.1185  -0.0124   0.0460  -0.0276   0.00    0.0
2026/01/15 04:23:00.000   22.434278307  114.335377664    63.5320   6   8   0.0623   0.1117   0.1184  -0.0125   0.0460  -0.0276   0.00    0.0
2026/01/15 04:23:30.000   22.434278307  114.335377645    63.5317   6   8   0.0622   0.1115   0.1184  -0.0126   0.0461  -0.0276   0.00    0.0
2026/01/15 04:24:00.000   22.434278305  114.335377624    63.5315   6   8   0.0621   0.1114   0.1183  -0.0127   0.0461  -0.0276   0.00    0.0
2026/01/15 04:24:30.000   22.434278302  114.335377606    63.5316   6   8   0.0621   0.1113   0.1183  -0.0129   0.0462  -0.0276   0.00    0.0
2026/01/15 04:25:00.000   22.434278298  114.335377592    63.5317   6   8   0.0620   0.1112   0.1183  -0.0130   0.0462  -0.0275   0.00    0.0
2026/01/15 04:25:30.000   22.434278294  114.335377580    63.5319   6   8   0.0620   0.1111   0.1182  -0.0131   0.0463  -0.0275   0.00    0.0
2026/01/15 04:26:00.000   22.434278290  114.335377567    63.5320   6   8   0.0619   0.1109   0.1182  -0.0132   0.0463  -0.0275   0.00    0.0
2026/01/15 04:26:30.000   22.434278287  114.335377553    63.5320   6   8   0.0618   0.1108   0.1181  -0.0133   0.0464  -0.0275   0.00    0.0
2026/01/15 04:27:00.000   22.434278286  114.335377541    63.5318   6   8   0.0618   0.1107   0.1181  -0.0134   0.0465  -0.0275   0.00    0.0
2026/01/15 04:27:30.000   22.434278287  114.335377531    63.5315   6   8   0.0617   0.1106   0.1180  -0.0135   0.0465  -0.0274   0.00    0.0
2026/01/15 04:28:00.000   22.434278288  114.335377519    63.5311   6   8   0.0616   0.1104   0.1180  -0.0137   0.0466  -0.0274   0.00    0.0
2026/01/15 04:28:30.000   22.434278291  114.335377504    63.5306   6   8   0.0616   0.1103   0.1179  -0.0138   0.0466  -0.0274   0.00    0.0
2026/01/15 04:29:00.000   22.434278293  114.335377486    63.5299   6   8   0.0615   0.1102   0.1179  -0.0139   0.0467  -0.0274   0.00    0.0
2026/01/15 04:29:30.000   22.434278294  114.335377469    63.5294   6   8   0.0614   0.1101   0.1178  -0.0140   0.0467  -0.0274   0.00    0.0
2026/01/15 04:30:00.000   22.434278294  114.335377452    63.5288   6   8   0.0613   0.1099   0.1178  -0.0141   0.0468  -0.0273   0.00    0.0
2026/01/15 04:30:30.000   22.434278294  114.335377435    63.5282   6   8   0.0612   0.1098   0.1177  -0.0142   0.0469  -0.0273   0.00    0.0
2026/01/15 04:31:00.000   22.434278294  114.335377415    63.5277   6   9   0.0612   0.1097   0.1177  -0.0143   0.0469  -0.0273   0.00    0.0
2026/01/15 04:31:30.000   22.434278294  114.335377394    63.5272   6   9   0.0611   0.1095   0.1176  -0.0145   0.0469  -0.0273   0.00    0.0
2026/01/15 04:32:00.000   22.434278295  114.335377375    63.5266   6   9   0.0610   0.1094   0.1175  -0.0146   0.0470  -0.0272   0.00    0.0
2026/01/15 04:32:30.000   22.434278296  114.335377360    63.5261   6   8   0.0609   0.1092   0.1175  -0.0147   0.0470  -0.0272   0.00    0.0
2026/01/15 04:33:00.000   22.434278297  114.335377352    63.5256   6   8   0.0608   0.1091   0.1174  -0.0148   0.0471  -0.0272   0.00    0.0
2026/01/15 04:33:30.000   22.434278298  114.335377346    63.5251   6   8   0.0607   0.1090   0.1173  -0.0149   0.0471  -0.0271   0.00    0.0
