% program   : RTKPOST-EX 2.5.0
% inp file  : C:\Users\tevin\Desktop\GNSS - MASTA\SPRING SEM\4.SAT NAV DATA PROCESSING\TEAM PROJECT\SNDP-PROJECT\Old_data\data\HKWS00HKG_R_20260150000_01D_30S_MO.rnx
% inp file  : C:\Users\tevin\Desktop\GNSS - MASTA\SPRING SEM\4.SAT NAV DATA PROCESSING\TEAM PROJECT\SNDP-PROJECT\Old_data\products\nav\BRDC00IGS_R_20260150000_01D_MN.rnx
% inp file  : C:\Users\tevin\Desktop\GNSS - MASTA\SPRING SEM\4.SAT NAV DATA PROCESSING\TEAM PROJECT\SNDP-PROJECT\Old_data\products\sp3\COD0MGXFIN_20260150000_01D_05M_ORB.SP3
% inp file  : C:\Users\tevin\Desktop\GNSS - MASTA\SPRING SEM\4.SAT NAV DATA PROCESSING\TEAM PROJECT\SNDP-PROJECT\New_Data\DATA_FINAL_ANT_EXTRA\COD0MGXFIN_20260150000_01D_05M_ORB.SP3
% inp file  : C:\Users\tevin\Desktop\GNSS - MASTA\SPRING SEM\4.SAT NAV DATA PROCESSING\TEAM PROJECT\SNDP-PROJECT\Old_data\products\atx\igs20_2401.atx
% obs start : 2026/01/15 00:00:00.0 GPST (week2401 345600.0s)
% obs end   : 2026/01/15 23:59:30.0 GPST (week2401 431970.0s)
% pos mode  : PPP Static
% freqs     : L1+L2/E5b
% solution  : Forward
% elev mask : 15.0 deg
% dynamics  : on
% tidecorr  :
% ionos opt : Iono-Free LC
% tropo opt : Saastamoinen
% ephemeris : Precise
% navi sys  : GPS
% antenna1  : LEIAR25.R4      LEIT  ( 0.0000  0.0000  0.0083)
%
% (lat/lon/height=WGS84/ellipsoidal,Q=1:fix,2:float,3:sbas,4:dgps,5:single,6:ppp,ns=# of satellites)
%  GPST                  latitude(deg) longitude(deg)  height(m)   Q  ns   sdn(m)   sde(m)   sdu(m)  sdne(m)  sdeu(m)  sdun(m) age(s)  ratio
2026/01/15 00:00:00.000   22.434285097  114.335384482    65.9338   6   8   3.5952   4.3752  10.6164  -1.9547   3.0999  -2.6136   0.00    0.0
2026/01/15 00:00:30.000   22.434284291  114.335386836    66.3045   6   8   2.5485   3.1046   7.5325  -1.3856   2.2016  -1.8645   0.00    0.0
2026/01/15 00:01:00.000   22.434283452  114.335388485    66.3713   6   8   2.0806   2.5362   6.1066  -1.1301   1.7911  -1.5259   0.00    0.0
2026/01/15 00:01:30.000   22.434283091  114.335389461    66.2643   6   8   1.7998   2.1955   5.2267  -0.9761   1.5403  -1.3223   0.00    0.0
2026/01/15 00:02:00.000   22.434283114  114.335390088    65.9894   6   8   1.6070   1.9618   4.6069  -0.8698   1.3652  -1.1827   0.00    0.0
2026/01/15 00:02:30.000   22.434283114  114.335390233    65.8182   6   8   1.4639   1.7886   4.1366  -0.7906   1.2334  -1.0792   0.00    0.0
2026/01/15 00:03:00.000   22.434283172  114.335389802    65.6672   6   8   1.3511   1.6527   3.7495  -0.7276   1.1265  -0.9982   0.00    0.0
2026/01/15 00:03:30.000   22.434283365  114.335389416    65.4746   6   8   1.2589   1.5421   3.4220  -0.6755   1.0370  -0.9325   0.00    0.0
2026/01/15 00:04:00.000   22.434283568  114.335389276    65.3175   6   8   1.1814   1.4497   3.1404  -0.6314   0.9606  -0.8777   0.00    0.0
2026/01/15 00:04:30.000   22.434283624  114.335389185    65.1681   6   8   1.1150   1.3708   2.8958  -0.5932   0.8946  -0.8308   0.00    0.0
2026/01/15 00:05:00.000   22.434283550  114.335389021    65.0508   6   8   1.0572   1.3024   2.6825  -0.5596   0.8371  -0.7901   0.00    0.0
2026/01/15 00:05:30.000   22.434283485  114.335389010    64.9247   6   8   1.0064   1.2424   2.4959  -0.5299   0.7866  -0.7543   0.00    0.0
2026/01/15 00:06:00.000   22.434283451  114.335388883    64.8350   6   8   0.9612   1.1892   2.3323  -0.5033   0.7422  -0.7224   0.00    0.0
2026/01/15 00:06:30.000   22.434283522  114.335388677    64.7450   6   8   0.9208   1.1417   2.1889  -0.4794   0.7030  -0.6938   0.00    0.0
2026/01/15 00:07:00.000   22.434283599  114.335388555    64.6947   6   8   0.8844   1.0989   2.0627  -0.4579   0.6683  -0.6679   0.00    0.0
2026/01/15 00:07:30.000   22.434283579  114.335388541    64.6683   6   8   0.8516   1.0603   1.9515  -0.4383   0.6374  -0.6445   0.00    0.0
2026/01/15 00:08:00.000   22.434283379  114.335388547    64.6408   6   8   0.8205   1.0242   1.8434  -0.4195   0.6076  -0.6225   0.00    0.0
2026/01/15 00:08:30.000   22.434283149  114.335388443    64.6029   6   8   0.7911   0.9903   1.7400  -0.4012   0.5791  -0.6018   0.00    0.0
2026/01/15 00:09:00.000   22.434282930  114.335388291    64.5625   6   8   0.7634   0.9586   1.6428  -0.3836   0.5522  -0.5823   0.00    0.0
2026/01/15 00:09:30.000   22.434282802  114.335388146    64.5055   6   8   0.7372   0.9288   1.5528  -0.3668   0.5270  -0.5639   0.00    0.0
2026/01/15 00:10:00.000   22.434282631  114.335388021    64.4309   6   8   0.7126   0.9009   1.4705  -0.3509   0.5037  -0.5465   0.00    0.0
2026/01/15 00:10:30.000   22.434282541  114.335387832    64.3344   6   8   0.6897   0.8748   1.3961  -0.3360   0.4824  -0.5301   0.00    0.0
2026/01/15 00:11:00.000   22.434282533  114.335387478    64.2419   6   8   0.6684   0.8505   1.3294  -0.3221   0.4629  -0.5148   0.00    0.0
2026/01/15 00:11:30.000   22.434282599  114.335387166    64.1677   6   8   0.6486   0.8278   1.2699  -0.3093   0.4453  -0.5005   0.00    0.0
2026/01/15 00:12:00.000   22.434282709  114.335387047    64.1055   6   8   0.6303   0.8067   1.2168  -0.2975   0.4293  -0.4873   0.00    0.0
2026/01/15 00:12:30.000   22.434282779  114.335387030    64.0622   6   8   0.6134   0.7871   1.1695  -0.2867   0.4148  -0.4749   0.00    0.0
2026/01/15 00:13:00.000   22.434282803  114.335387067    64.0287   6   8   0.5966   0.7678   1.1220  -0.2756   0.4003  -0.4627   0.00    0.0
2026/01/15 00:13:30.000   22.434282880  114.335387111    63.9643   6   8   0.5801   0.7489   1.0752  -0.2644   0.3858  -0.4507   0.00    0.0
2026/01/15 00:14:00.000   22.434282861  114.335387138    63.9273   6   8   0.5639   0.7306   1.0299  -0.2532   0.3717  -0.4389   0.00    0.0
2026/01/15 00:14:30.000   22.434282765  114.335387152    63.8803   6   8   0.5482   0.7128   0.9869  -0.2423   0.3580  -0.4275   0.00    0.0
2026/01/15 00:15:00.000   22.434282647  114.335387116    63.8463   6   8   0.5332   0.6958   0.9468  -0.2317   0.3451  -0.4166   0.00    0.0
2026/01/15 00:15:30.000   22.434282578  114.335387041    63.8308   6   8   0.5190   0.6796   0.9099  -0.2217   0.3331  -0.4061   0.00    0.0
2026/01/15 00:16:00.000   22.434282472  114.335387040    63.8155   6   8   0.5056   0.6642   0.8763  -0.2123   0.3219  -0.3963   0.00    0.0
2026/01/15 00:16:30.000   22.434282359  114.335387091    63.7908   6   8   0.4932   0.6498   0.8459  -0.2036   0.3117  -0.3871   0.00    0.0
2026/01/15 00:17:00.000   22.434282285  114.335387150    63.7694   6   8   0.4817   0.6363   0.8186  -0.1957   0.3023  -0.3785   0.00    0.0
2026/01/15 00:17:30.000   22.434282268  114.335387240    63.7464   6   8   0.4710   0.6236   0.7941  -0.1885   0.2938  -0.3705   0.00    0.0
2026/01/15 00:18:00.000   22.434282279  114.335387268    63.7212   6   8   0.4602   0.6109   0.7691  -0.1808   0.2851  -0.3624   0.00    0.0
2026/01/15 00:18:30.000   22.434282277  114.335387336    63.6877   6   8   0.4493   0.5982   0.7440  -0.1730   0.2763  -0.3543   0.00    0.0
2026/01/15 00:19:00.000   22.434282265  114.335387503    63.6642   6   8   0.4385   0.5856   0.7193  -0.1650   0.2674  -0.3463   0.00    0.0
2026/01/15 00:19:30.000   22.434282207  114.335387654    63.6434   6   8   0.4279   0.5732   0.6955  -0.1571   0.2588  -0.3384   0.00    0.0
2026/01/15 00:20:00.000   22.434282161  114.335387726    63.6285   6   8   0.4176   0.5612   0.6729  -0.1493   0.2506  -0.3308   0.00    0.0
2026/01/15 00:20:30.000   22.434282136  114.335387704    63.6155   6   8   0.4079   0.5497   0.6519  -0.1420   0.2427  -0.3235   0.00    0.0
2026/01/15 00:21:00.000   22.434282106  114.335387745    63.6073   6   8   0.3987   0.5388   0.6325  -0.1351   0.2355  -0.3166   0.00    0.0
2026/01/15 00:21:30.000   22.434282056  114.335387862    63.5977   6   8   0.3902   0.5285   0.6148  -0.1287   0.2288  -0.3101   0.00    0.0
2026/01/15 00:22:00.000   22.434282022  114.335387957    63.5893   6   8   0.3823   0.5188   0.5988  -0.1229   0.2226  -0.3042   0.00    0.0
2026/01/15 00:22:30.000   22.434282026  114.335387955    63.5779   6   8   0.3750   0.5098   0.5844  -0.1176   0.2171  -0.2986   0.00    0.0
2026/01/15 00:23:00.000   22.434282082  114.335387876    63.5573   6   8   0.3675   0.5006   0.5695  -0.1119   0.2113  -0.2930   0.00    0.0
2026/01/15 00:23:30.000   22.434282096  114.335387819    63.5436   6   8   0.3598   0.4913   0.5544  -0.1059   0.2053  -0.2872   0.00    0.0
2026/01/15 00:24:00.000   22.434282069  114.335387763    63.5204   6   8   0.3522   0.4820   0.5394  -0.0997   0.1993  -0.2814   0.00    0.0
2026/01/15 00:24:30.000   22.434281980  114.335387775    63.5178   6   7   0.3453   0.4733   0.5300  -0.0950   0.1970  -0.2785   0.00    0.0
2026/01/15 00:25:00.000   22.434281892  114.335387810    63.5199   6   7   0.3386   0.4648   0.5207  -0.0904   0.1945  -0.2755   0.00    0.0
2026/01/15 00:25:30.000   22.434281840  114.335387798    63.5206   6   8   0.3320   0.4564   0.5115  -0.0851   0.1913  -0.2721   0.00    0.0
2026/01/15 00:26:00.000   22.434281821  114.335387712    63.5169   6   8   0.3258   0.4483   0.5027  -0.0800   0.1882  -0.2688   0.00    0.0
2026/01/15 00:26:30.000   22.434281761  114.335387633    63.5165   6   8   0.3200   0.4407   0.4944  -0.0753   0.1852  -0.2655   0.00    0.0
2026/01/15 00:27:00.000   22.434281713  114.335387555    63.5132   6   8   0.3146   0.4336   0.4866  -0.0710   0.1823  -0.2624   0.00    0.0
2026/01/15 00:27:30.000   22.434281667  114.335387514    63.5100   6   8   0.3095   0.4269   0.4794  -0.0670   0.1796  -0.2594   0.00    0.0
2026/01/15 00:28:00.000   22.434281610  114.335387532    63.5090   6   8   0.3043   0.4200   0.4719  -0.0628   0.1768  -0.2563   0.00    0.0
2026/01/15 00:28:30.000   22.434281557  114.335387578    63.5049   6   8   0.2990   0.4130   0.4640  -0.0583   0.1739  -0.2530   0.00    0.0
2026/01/15 00:29:00.000   22.434281533  114.335387676    63.4996   6   8   0.2936   0.4059   0.4560  -0.0537   0.1710  -0.2496   0.00    0.0
2026/01/15 00:29:30.000   22.434281541  114.335387734    63.4905   6   8   0.2882   0.3989   0.4480  -0.0489   0.1680  -0.2462   0.00    0.0
2026/01/15 00:30:00.000   22.434281545  114.335387741    63.4842   6   8   0.2829   0.3919   0.4401  -0.0442   0.1651  -0.2428   0.00    0.0
2026/01/15 00:30:30.000   22.434281562  114.335387693    63.4741   6   8   0.2779   0.3853   0.4325  -0.0394   0.1623  -0.2394   0.00    0.0
2026/01/15 00:31:00.000   22.434281543  114.335387647    63.4671   6   8   0.2731   0.3789   0.4252  -0.0347   0.1595  -0.2361   0.00    0.0
2026/01/15 00:31:30.000   22.434281526  114.335387612    63.4625   6   8   0.2686   0.3728   0.4184  -0.0300   0.1570  -0.2329   0.00    0.0
2026/01/15 00:32:00.000   22.434281496  114.335387597    63.4572   6   8   0.2643   0.3672   0.4121  -0.0254   0.1546  -0.2300   0.00    0.0
2026/01/15 00:32:30.000   22.434281461  114.335387607    63.4514   6   8   0.2605   0.3620   0.4062  -0.0206   0.1523  -0.2271   0.00    0.0
2026/01/15 00:33:00.000   22.434281389  114.335387663    63.4486   6   8   0.2564   0.3565   0.4000  -0.0144   0.1500  -0.2242   0.00    0.0
2026/01/15 00:33:30.000   22.434281303  114.335387746    63.4465   6   8   0.2522   0.3509   0.3936   0.0024   0.1476  -0.2211   0.00    0.0
2026/01/15 00:34:00.000   22.434281232  114.335387806    63.4494   6   8   0.2479   0.3452   0.3871   0.0144   0.1451  -0.2179   0.00    0.0
2026/01/15 00:34:30.000   22.434281184  114.335387873    63.4526   6   8   0.2437   0.3395   0.3805   0.0198   0.1427  -0.2147   0.00    0.0
2026/01/15 00:35:00.000   22.434281154  114.335387886    63.4543   6   8   0.2395   0.3339   0.3741   0.0237   0.1403  -0.2115   0.00    0.0
2026/01/15 00:35:30.000   22.434281120  114.335387898    63.4551   6   8   0.2354   0.3285   0.3678   0.0266   0.1380  -0.2084   0.00    0.0
2026/01/15 00:36:00.000   22.434281091  114.335387942    63.4603   6   8   0.2316   0.3236   0.3650   0.0284   0.1381  -0.2056   0.00    0.0
2026/01/15 00:36:30.000   22.434281087  114.335387966    63.4608   6   8   0.2280   0.3190   0.3623   0.0298   0.1381  -0.2029   0.00    0.0
2026/01/15 00:37:00.000   22.434281074  114.335387982    63.4622   6   8   0.2246   0.3147   0.3598   0.0308   0.1381  -0.2005   0.00    0.0
2026/01/15 00:37:30.000   22.434281062  114.335387991    63.4634   6   8   0.2215   0.3107   0.3573   0.0316   0.1380  -0.1982   0.00    0.0
2026/01/15 00:38:00.000   22.434281040  114.335387972    63.4646   6   8   0.2183   0.3065   0.3548   0.0322   0.1379  -0.1958   0.00    0.0
2026/01/15 00:38:30.000   22.434281019  114.335387935    63.4665   6   8   0.2149   0.3022   0.3520   0.0328   0.1378  -0.1933   0.00    0.0
2026/01/15 00:39:00.000   22.434281023  114.335387908    63.4692   6   8   0.2115   0.2978   0.3492   0.0333   0.1376  -0.1907   0.00    0.0
2026/01/15 00:39:30.000   22.434281036  114.335387901    63.4668   6   8   0.2081   0.2934   0.3463   0.0336   0.1374  -0.1882   0.00    0.0
2026/01/15 00:40:00.000   22.434281050  114.335387885    63.4640   6   8   0.2047   0.2890   0.3435   0.0339   0.1372  -0.1856   0.00    0.0
2026/01/15 00:40:30.000   22.434281056  114.335387844    63.4608   6   8   0.2014   0.2848   0.3406   0.0340   0.1369  -0.1832   0.00    0.0
2026/01/15 00:41:00.000   22.434281047  114.335387788    63.4612   6   8   0.1983   0.2808   0.3378   0.0340   0.1365  -0.1808   0.00    0.0
2026/01/15 00:41:30.000   22.434281029  114.335387759    63.4630   6   8   0.1954   0.2770   0.3352   0.0340   0.1362  -0.1786   0.00    0.0
2026/01/15 00:42:00.000   22.434280995  114.335387745    63.4674   6   8   0.1927   0.2735   0.3327   0.0339   0.1357  -0.1766   0.00    0.0
2026/01/15 00:42:30.000   22.434280957  114.335387742    63.4752   6   8   0.1902   0.2702   0.3303   0.0337   0.1353  -0.1746   0.00    0.0
2026/01/15 00:43:00.000   22.434280914  114.335387745    63.4831   6   8   0.1876   0.2667   0.3278   0.0335   0.1349  -0.1726   0.00    0.0
2026/01/15 00:43:30.000   22.434280871  114.335387751    63.4931   6   8   0.1849   0.2631   0.3251   0.0333   0.1344  -0.1705   0.00    0.0
2026/01/15 00:44:00.000   22.434280826  114.335387750    63.5021   6   8   0.1821   0.2595   0.3224   0.0330   0.1338  -0.1683   0.00    0.0
2026/01/15 00:44:30.000   22.434280797  114.335387762    63.5075   6   8   0.1793   0.2558   0.3195   0.0326   0.1332  -0.1662   0.00    0.0
2026/01/15 00:45:00.000   22.434280791  114.335387766    63.5099   6   8   0.1766   0.2522   0.3167   0.0323   0.1326  -0.1640   0.00    0.0
2026/01/15 00:45:30.000   22.434280773  114.335387833    63.5154   6   8   0.1739   0.2487   0.3139   0.0319   0.1319  -0.1619   0.00    0.0
2026/01/15 00:46:00.000   22.434280751  114.335387870    63.5211   6   8   0.1714   0.2454   0.3112   0.0315   0.1312  -0.1599   0.00    0.0
2026/01/15 00:46:30.000   22.434280739  114.335387865    63.5264   6   8   0.1690   0.2422   0.3086   0.0311   0.1305  -0.1581   0.00    0.0
2026/01/15 00:47:00.000   22.434280723  114.335387876    63.5316   6   8   0.1668   0.2392   0.3062   0.0307   0.1298  -0.1563   0.00    0.0
2026/01/15 00:47:30.000   22.434280724  114.335387894    63.5344   6   8   0.1648   0.2365   0.3039   0.0303   0.1291  -0.1547   0.00    0.0
2026/01/15 00:48:00.000   22.434280724  114.335387892    63.5352   6   8   0.1626   0.2336   0.3015   0.0299   0.1284  -0.1529   0.00    0.0
2026/01/15 00:48:30.000   22.434280707  114.335387887    63.5383   6   7   0.1604   0.2306   0.2989   0.0295   0.1276  -0.1511   0.00    0.0
2026/01/15 00:49:00.000   22.434280693  114.335387899    63.5422   6   7   0.1582   0.2276   0.2962   0.0290   0.1268  -0.1493   0.00    0.0
2026/01/15 00:49:30.000   22.434280671  114.335387927    63.5467   6   7   0.1559   0.2245   0.2935   0.0285   0.1259  -0.1474   0.00    0.0
2026/01/15 00:50:00.000   22.434280663  114.335387922    63.5480   6   7   0.1536   0.2214   0.2908   0.0280   0.1250  -0.1456   0.00    0.0
2026/01/15 00:50:30.000   22.434280651  114.335387891    63.5492   6   7   0.1515   0.2185   0.2881   0.0275   0.1241  -0.1438   0.00    0.0
2026/01/15 00:51:00.000   22.434280654  114.335387837    63.5472   6   7   0.1494   0.2156   0.2855   0.0271   0.1232  -0.1421   0.00    0.0
2026/01/15 00:51:30.000   22.434280668  114.335387792    63.5437   6   7   0.1475   0.2130   0.2831   0.0266   0.1223  -0.1405   0.00    0.0
2026/01/15 00:52:00.000   22.434280681  114.335387757    63.5384   6   7   0.1457   0.2105   0.2808   0.0262   0.1214  -0.1390   0.00    0.0
2026/01/15 00:52:30.000   22.434280682  114.335387746    63.5349   6   7   0.1440   0.2082   0.2786   0.0258   0.1206  -0.1376   0.00    0.0
2026/01/15 00:53:00.000   22.434280680  114.335387728    63.5307   6   7   0.1422   0.2057   0.2763   0.0253   0.1197  -0.1361   0.00    0.0
2026/01/15 00:53:30.000   22.434280685  114.335387700    63.5247   6   7   0.1404   0.2032   0.2738   0.0249   0.1188  -0.1346   0.00    0.0
2026/01/15 00:54:00.000   22.434280690  114.335387668    63.5173   6   7   0.1385   0.2006   0.2713   0.0244   0.1178  -0.1330   0.00    0.0
2026/01/15 00:54:30.000   22.434280691  114.335387624    63.5126   6   7   0.1367   0.1980   0.2687   0.0239   0.1167  -0.1314   0.00    0.0
2026/01/15 00:55:00.000   22.434280683  114.335387599    63.5121   6   7   0.1348   0.1954   0.2662   0.0235   0.1157  -0.1298   0.00    0.0
2026/01/15 00:55:30.000   22.434280679  114.335387562    63.5115   6   7   0.1330   0.1929   0.2637   0.0230   0.1146  -0.1283   0.00    0.0
2026/01/15 00:56:00.000   22.434280686  114.335387507    63.5074   6   7   0.1313   0.1905   0.2612   0.0226   0.1136  -0.1268   0.00    0.0
2026/01/15 00:56:30.000   22.434280684  114.335387479    63.5032   6   7   0.1297   0.1882   0.2589   0.0221   0.1126  -0.1254   0.00    0.0
2026/01/15 00:57:00.000   22.434280681  114.335387436    63.4986   6   7   0.1282   0.1861   0.2567   0.0218   0.1116  -0.1241   0.00    0.0
2026/01/15 00:57:30.000   22.434280676  114.335387387    63.4960   6   7   0.1268   0.1841   0.2547   0.0214   0.1108  -0.1229   0.00    0.0
2026/01/15 00:58:00.000   22.434280667  114.335387348    63.4945   6   7   0.1254   0.1821   0.2526   0.0210   0.1098  -0.1217   0.00    0.0
2026/01/15 00:58:30.000   22.434280656  114.335387307    63.4936   6   7   0.1238   0.1799   0.2503   0.0206   0.1088  -0.1203   0.00    0.0
2026/01/15 00:59:00.000   22.434280635  114.335387284    63.4956   6   7   0.1223   0.1777   0.2480   0.0202   0.1077  -0.1190   0.00    0.0
2026/01/15 00:59:30.000   22.434280615  114.335387287    63.4990   6   7   0.1207   0.1755   0.2456   0.0198   0.1066  -0.1176   0.00    0.0
2026/01/15 01:00:00.000   22.434280607  114.335387276    63.4992   6   7   0.1192   0.1732   0.2432   0.0194   0.1055  -0.1163   0.00    0.0
2026/01/15 01:00:30.000   22.434280597  114.335387272    63.5013   6   7   0.1177   0.1711   0.2408   0.0191   0.1044  -0.1149   0.00    0.0
2026/01/15 01:01:00.000   22.434280594  114.335387269    63.5022   6   7   0.1162   0.1690   0.2386   0.0187   0.1033  -0.1137   0.00    0.0
2026/01/15 01:01:30.000   22.434280594  114.335387275    63.5023   6   7   0.1149   0.1671   0.2365   0.0184   0.1023  -0.1125   0.00    0.0
2026/01/15 01:02:00.000   22.434280578  114.335387286    63.5049   6   7   0.1137   0.1653   0.2345   0.0181   0.1013  -0.1114   0.00    0.0
2026/01/15 01:02:30.000   22.434280550  114.335387293    63.5096   6   7   0.1125   0.1636   0.2326   0.0178   0.1004  -0.1103   0.00    0.0
2026/01/15 01:03:00.000   22.434280520  114.335387306    63.5150   6   7   0.1113   0.1619   0.2306   0.0175   0.0994  -0.1093   0.00    0.0
2026/01/15 01:03:30.000   22.434280487  114.335387316    63.5206   6   7   0.1100   0.1600   0.2285   0.0172   0.0984  -0.1081   0.00    0.0
2026/01/15 01:04:00.000   22.434280457  114.335387310    63.5263   6   7   0.1087   0.1581   0.2264   0.0169   0.0973  -0.1069   0.00    0.0
2026/01/15 01:04:30.000   22.434280428  114.335387296    63.5309   6   7   0.1074   0.1562   0.2242   0.0166   0.0962  -0.1058   0.00    0.0
2026/01/15 01:05:00.000   22.434280421  114.335387276    63.5305   6   7   0.1061   0.1543   0.2220   0.0163   0.0951  -0.1046   0.00    0.0
2026/01/15 01:05:30.000   22.434280414  114.335387260    63.5309   6   7   0.1049   0.1525   0.2199   0.0161   0.0940  -0.1034   0.00    0.0
2026/01/15 01:06:00.000   22.434280406  114.335387236    63.5305   6   7   0.1037   0.1507   0.2178   0.0158   0.0930  -0.1024   0.00    0.0
2026/01/15 01:06:30.000   22.434280396  114.335387231    63.5313   6   7   0.1025   0.1491   0.2159   0.0156   0.0920  -0.1013   0.00    0.0
2026/01/15 01:07:00.000   22.434280384  114.335387242    63.5338   6   7   0.1015   0.1475   0.2141   0.0154   0.0910  -0.1004   0.00    0.0
2026/01/15 01:07:30.000   22.434280374  114.335387255    63.5364   6   7   0.1005   0.1461   0.2124   0.0152   0.0901  -0.0995   0.00    0.0
2026/01/15 01:08:00.000   22.434280367  114.335387261    63.5374   6   7   0.0995   0.1446   0.2106   0.0150   0.0892  -0.0985   0.00    0.0
2026/01/15 01:08:30.000   22.434280365  114.335387257    63.5375   6   7   0.0984   0.1430   0.2087   0.0147   0.0882  -0.0975   0.00    0.0
2026/01/15 01:09:00.000   22.434280360  114.335387251    63.5361   6   7   0.0973   0.1414   0.2068   0.0145   0.0872  -0.0965   0.00    0.0
2026/01/15 01:09:30.000   22.434280355  114.335387240    63.5348   6   7   0.0962   0.1398   0.2048   0.0143   0.0861  -0.0955   0.00    0.0
2026/01/15 01:10:00.000   22.434280347  114.335387231    63.5351   6   7   0.0951   0.1381   0.2028   0.0141   0.0850  -0.0945   0.00    0.0
2026/01/15 01:10:30.000   22.434280340  114.335387218    63.5350   6   7   0.0941   0.1366   0.2009   0.0140   0.0840  -0.0935   0.00    0.0
2026/01/15 01:11:00.000   22.434280339  114.335387199    63.5322   6   7   0.0931   0.1351   0.1990   0.0138   0.0830  -0.0925   0.00    0.0
2026/01/15 01:11:30.000   22.434280338  114.335387176    63.5301   6   7   0.0921   0.1336   0.1973   0.0136   0.0820  -0.0917   0.00    0.0
2026/01/15 01:12:00.000   22.434280338  114.335387166    63.5293   6   7   0.0912   0.1323   0.1956   0.0135   0.0811  -0.0908   0.00    0.0
2026/01/15 01:12:30.000   22.434280331  114.335387158    63.5295   6   7   0.0904   0.1311   0.1941   0.0134   0.0803  -0.0901   0.00    0.0
2026/01/15 01:13:00.000   22.434280330  114.335387144    63.5283   6   7   0.0895   0.1298   0.1925   0.0133   0.0794  -0.0892   0.00    0.0
2026/01/15 01:13:30.000   22.434280329  114.335387126    63.5279   6   8   0.0886   0.1284   0.1908   0.0131   0.0785  -0.0884   0.00    0.0
2026/01/15 01:14:00.000   22.434280324  114.335387119    63.5285   6   8   0.0877   0.1271   0.1891   0.0130   0.0775  -0.0875   0.00    0.0
2026/01/15 01:14:30.000   22.434280318  114.335387110    63.5290   6   8   0.0868   0.1256   0.1873   0.0128   0.0765  -0.0866   0.00    0.0
2026/01/15 01:15:00.000   22.434280317  114.335387086    63.5282   6   8   0.0858   0.1243   0.1855   0.0127   0.0755  -0.0857   0.00    0.0
2026/01/15 01:15:30.000   22.434280319  114.335387073    63.5266   6   8   0.0849   0.1229   0.1838   0.0126   0.0745  -0.0849   0.00    0.0
2026/01/15 01:16:00.000   22.434280317  114.335387067    63.5259   6   8   0.0840   0.1216   0.1821   0.0125   0.0736  -0.0840   0.00    0.0
2026/01/15 01:16:30.000   22.434280314  114.335387052    63.5255   6   8   0.0832   0.1204   0.1806   0.0124   0.0727  -0.0833   0.00    0.0
2026/01/15 01:17:00.000   22.434280305  114.335387043    63.5254   6   8   0.0825   0.1192   0.1791   0.0123   0.0719  -0.0825   0.00    0.0
2026/01/15 01:17:30.000   22.434280299  114.335387027    63.5244   6   8   0.0818   0.1182   0.1777   0.0123   0.0711  -0.0819   0.00    0.0
2026/01/15 01:18:00.000   22.434280292  114.335387015    63.5235   6   8   0.0810   0.1171   0.1763   0.0122   0.0703  -0.0812   0.00    0.0
2026/01/15 01:18:30.000   22.434280289  114.335386995    63.5238   6   8   0.0803   0.1159   0.1748   0.0121   0.0694  -0.0804   0.00    0.0
2026/01/15 01:19:00.000   22.434280286  114.335386983    63.5237   6   8   0.0795   0.1147   0.1732   0.0120   0.0685  -0.0796   0.00    0.0
2026/01/15 01:19:30.000   22.434280289  114.335386956    63.5208   6   8   0.0787   0.1135   0.1716   0.0120   0.0675  -0.0789   0.00    0.0
2026/01/15 01:20:00.000   22.434280291  114.335386936    63.5196   6   8   0.0779   0.1123   0.1700   0.0119   0.0666  -0.0781   0.00    0.0
2026/01/15 01:20:30.000   22.434280292  114.335386924    63.5180   6   8   0.0771   0.1111   0.1685   0.0119   0.0657  -0.0773   0.00    0.0
2026/01/15 01:21:00.000   22.434280294  114.335386921    63.5176   6   8   0.0763   0.1100   0.1670   0.0118   0.0648  -0.0766   0.00    0.0
2026/01/15 01:21:30.000   22.434280291  114.335386924    63.5182   6   7   0.0758   0.1093   0.1661   0.0095   0.0650  -0.0764   0.00    0.0
2026/01/15 01:22:00.000   22.434280289  114.335386928    63.5187   6   7   0.0754   0.1087   0.1654   0.0066   0.0651  -0.0762   0.00    0.0
2026/01/15 01:22:30.000   22.434280286  114.335386926    63.5200   6   7   0.0749   0.1081   0.1647   0.0018   0.0652  -0.0761   0.00    0.0
2026/01/15 01:23:00.000   22.434280282  114.335386918    63.5217   6   7   0.0745   0.1075   0.1639  -0.0063   0.0653  -0.0759   0.00    0.0
2026/01/15 01:23:30.000   22.434280278  114.335386909    63.5231   6   7   0.0740   0.1068   0.1631  -0.0091   0.0654  -0.0757   0.00    0.0
2026/01/15 01:24:00.000   22.434280271  114.335386890    63.5240   6   7   0.0735   0.1061   0.1622  -0.0113   0.0654  -0.0755   0.00    0.0
2026/01/15 01:24:30.000   22.434280267  114.335386871    63.5249   6   7   0.0730   0.1055   0.1614  -0.0131   0.0655  -0.0753   0.00    0.0
2026/01/15 01:25:00.000   22.434280262  114.335386854    63.5256   6   7   0.0725   0.1048   0.1605  -0.0146   0.0655  -0.0751   0.00    0.0
2026/01/15 01:25:30.000   22.434280256  114.335386836    63.5257   6   7   0.0720   0.1041   0.1596  -0.0159   0.0656  -0.0749   0.00    0.0
2026/01/15 01:26:00.000   22.434280251  114.335386824    63.5257   6   7   0.0716   0.1034   0.1588  -0.0170   0.0656  -0.0747   0.00    0.0
2026/01/15 01:26:30.000   22.434280247  114.335386813    63.5259   6   7   0.0711   0.1028   0.1580  -0.0180   0.0656  -0.0745   0.00    0.0
2026/01/15 01:27:00.000   22.434280243  114.335386797    63.5259   6   7   0.0707   0.1022   0.1573  -0.0188   0.0655  -0.0743   0.00    0.0
2026/01/15 01:27:30.000   22.434280239  114.335386779    63.5260   6   7   0.0703   0.1017   0.1566  -0.0195   0.0655  -0.0741   0.00    0.0
2026/01/15 01:28:00.000   22.434280233  114.335386765    63.5258   6   7   0.0699   0.1011   0.1558  -0.0203   0.0655  -0.0739   0.00    0.0
2026/01/15 01:28:30.000   22.434280225  114.335386750    63.5255   6   7   0.0695   0.1005   0.1550  -0.0210   0.0654  -0.0736   0.00    0.0
2026/01/15 01:29:00.000   22.434280217  114.335386736    63.5258   6   7   0.0691   0.0999   0.1542  -0.0216   0.0653  -0.0734   0.00    0.0
2026/01/15 01:29:30.000   22.434280211  114.335386727    63.5264   6   7   0.0686   0.0993   0.1534  -0.0223   0.0653  -0.0732   0.00    0.0
2026/01/15 01:30:00.000   22.434280206  114.335386717    63.5272   6   7   0.0682   0.0987   0.1525  -0.0229   0.0652  -0.0729   0.00    0.0
2026/01/15 01:30:30.000   22.434280202  114.335386709    63.5285   6   7   0.0677   0.0980   0.1517  -0.0234   0.0650  -0.0727   0.00    0.0
2026/01/15 01:31:00.000   22.434280198  114.335386712    63.5292   6   7   0.0673   0.0974   0.1508  -0.0239   0.0649  -0.0724   0.00    0.0
2026/01/15 01:31:30.000   22.434280193  114.335386718    63.5296   6   7   0.0669   0.0969   0.1501  -0.0244   0.0648  -0.0722   0.00    0.0
2026/01/15 01:32:00.000   22.434280187  114.335386724    63.5300   6   7   0.0665   0.0963   0.1493  -0.0248   0.0647  -0.0720   0.00    0.0
2026/01/15 01:32:30.000   22.434280181  114.335386730    63.5303   6   7   0.0662   0.0959   0.1486  -0.0251   0.0646  -0.0717   0.00    0.0
2026/01/15 01:33:00.000   22.434280174  114.335386738    63.5304   6   7   0.0658   0.0953   0.1479  -0.0254   0.0644  -0.0715   0.00    0.0
2026/01/15 01:33:30.000   22.434280165  114.335386741    63.5298   6   7   0.0654   0.0948   0.1471  -0.0258   0.0643  -0.0712   0.00    0.0
2026/01/15 01:34:00.000   22.434280158  114.335386737    63.5297   6   7   0.0650   0.0942   0.1463  -0.0261   0.0641  -0.0710   0.00    0.0
2026/01/15 01:34:30.000   22.434280151  114.335386724    63.5310   6   7   0.0646   0.0936   0.1455  -0.0264   0.0639  -0.0707   0.00    0.0
2026/01/15 01:35:00.000   22.434280143  114.335386718    63.5325   6   7   0.0642   0.0930   0.1446  -0.0267   0.0637  -0.0704   0.00    0.0
2026/01/15 01:35:30.000   22.434280135  114.335386715    63.5340   6   7   0.0638   0.0925   0.1438  -0.0270   0.0635  -0.0701   0.00    0.0
2026/01/15 01:36:00.000   22.434280128  114.335386708    63.5357   6   7   0.0634   0.0919   0.1430  -0.0273   0.0633  -0.0699   0.00    0.0
2026/01/15 01:36:30.000   22.434280124  114.335386700    63.5371   6   7   0.0631   0.0914   0.1422  -0.0275   0.0631  -0.0696   0.00    0.0
2026/01/15 01:37:00.000   22.434280122  114.335386685    63.5385   6   8   0.0627   0.0909   0.1415  -0.0276   0.0629  -0.0693   0.00    0.0
2026/01/15 01:37:30.000   22.434280122  114.335386672    63.5396   6   8   0.0624   0.0904   0.1408  -0.0278   0.0626  -0.0691   0.00    0.0
2026/01/15 01:38:00.000   22.434280120  114.335386664    63.5409   6   8   0.0621   0.0899   0.1401  -0.0280   0.0624  -0.0688   0.00    0.0
2026/01/15 01:38:30.000   22.434280117  114.335386658    63.5421   6   8   0.0617   0.0894   0.1393  -0.0281   0.0622  -0.0685   0.00    0.0
2026/01/15 01:39:00.000   22.434280113  114.335386650    63.5438   6   8   0.0613   0.0889   0.1385  -0.0283   0.0619  -0.0682   0.00    0.0
2026/01/15 01:39:30.000   22.434280107  114.335386644    63.5449   6   8   0.0609   0.0883   0.1376  -0.0284   0.0616  -0.0679   0.00    0.0
2026/01/15 01:40:00.000   22.434280099  114.335386637    63.5461   6   8   0.0606   0.0878   0.1368  -0.0285   0.0613  -0.0676   0.00    0.0
2026/01/15 01:40:30.000   22.434280093  114.335386629    63.5470   6   8   0.0602   0.0872   0.1359  -0.0286   0.0611  -0.0673   0.00    0.0
2026/01/15 01:41:00.000   22.434280090  114.335386620    63.5481   6   8   0.0598   0.0867   0.1351  -0.0287   0.0608  -0.0670   0.00    0.0
2026/01/15 01:41:30.000   22.434280085  114.335386612    63.5488   6   8   0.0595   0.0862   0.1344  -0.0288   0.0605  -0.0667   0.00    0.0
2026/01/15 01:42:00.000   22.434280080  114.335386607    63.5495   6   8   0.0592   0.0858   0.1336  -0.0289   0.0602  -0.0664   0.00    0.0
2026/01/15 01:42:30.000   22.434280076  114.335386604    63.5501   6   8   0.0589   0.0853   0.1330  -0.0289   0.0600  -0.0661   0.00    0.0
2026/01/15 01:43:00.000   22.434280073  114.335386598    63.5506   6   8   0.0586   0.0849   0.1322  -0.0290   0.0597  -0.0659   0.00    0.0
2026/01/15 01:43:30.000   22.434280067  114.335386590    63.5513   6   8   0.0582   0.0844   0.1315  -0.0290   0.0594  -0.0655   0.00    0.0
2026/01/15 01:44:00.000   22.434280064  114.335386576    63.5522   6   8   0.0579   0.0839   0.1307  -0.0291   0.0591  -0.0652   0.00    0.0
2026/01/15 01:44:30.000   22.434280061  114.335386566    63.5535   6   8   0.0575   0.0834   0.1298  -0.0291   0.0587  -0.0649   0.00    0.0
2026/01/15 01:45:00.000   22.434280057  114.335386557    63.5537   6   8   0.0572   0.0829   0.1290  -0.0291   0.0584  -0.0646   0.00    0.0
2026/01/15 01:45:30.000   22.434280051  114.335386553    63.5534   6   8   0.0568   0.0824   0.1282  -0.0292   0.0581  -0.0642   0.00    0.0
2026/01/15 01:46:00.000   22.434280045  114.335386554    63.5536   6   8   0.0565   0.0819   0.1274  -0.0292   0.0577  -0.0639   0.00    0.0
2026/01/15 01:46:30.000   22.434280039  114.335386557    63.5543   6   8   0.0562   0.0814   0.1266  -0.0292   0.0574  -0.0636   0.00    0.0
2026/01/15 01:47:00.000   22.434280032  114.335386562    63.5556   6   8   0.0559   0.0810   0.1259  -0.0292   0.0571  -0.0633   0.00    0.0
2026/01/15 01:47:30.000   22.434280025  114.335386570    63.5566   6   8   0.0556   0.0806   0.1253  -0.0291   0.0568  -0.0630   0.00    0.0
2026/01/15 01:48:00.000   22.434280017  114.335386579    63.5575   6   8   0.0553   0.0802   0.1246  -0.0291   0.0565  -0.0627   0.00    0.0
2026/01/15 01:48:30.000   22.434280009  114.335386584    63.5588   6   8   0.0550   0.0797   0.1238  -0.0291   0.0562  -0.0624   0.00    0.0
2026/01/15 01:49:00.000   22.434280000  114.335386582    63.5599   6   8   0.0546   0.0793   0.1230  -0.0291   0.0558  -0.0621   0.00    0.0
2026/01/15 01:49:30.000   22.434279993  114.335386576    63.5612   6   8   0.0543   0.0788   0.1222  -0.0290   0.0554  -0.0617   0.00    0.0
2026/01/15 01:50:00.000   22.434279988  114.335386572    63.5625   6   8   0.0540   0.0783   0.1214  -0.0290   0.0551  -0.0614   0.00    0.0
2026/01/15 01:50:30.000   22.434279981  114.335386569    63.5638   6   8   0.0537   0.0778   0.1206  -0.0289   0.0547  -0.0610   0.00    0.0
2026/01/15 01:51:00.000   22.434279976  114.335386566    63.5652   6   8   0.0533   0.0774   0.1198  -0.0289   0.0543  -0.0607   0.00    0.0
2026/01/15 01:51:30.000   22.434279972  114.335386566    63.5666   6   8   0.0530   0.0770   0.1191  -0.0288   0.0540  -0.0604   0.00    0.0
2026/01/15 01:52:00.000   22.434279968  114.335386565    63.5679   6   8   0.0528   0.0766   0.1184  -0.0288   0.0536  -0.0600   0.00    0.0
2026/01/15 01:52:30.000   22.434279966  114.335386563    63.5691   6   8   0.0525   0.0762   0.1177  -0.0287   0.0533  -0.0598   0.00    0.0
2026/01/15 01:53:00.000   22.434279963  114.335386561    63.5704   6   8   0.0522   0.0758   0.1171  -0.0287   0.0530  -0.0595   0.00    0.0
2026/01/15 01:53:30.000   22.434279958  114.335386557    63.5711   6   8   0.0519   0.0754   0.1163  -0.0286   0.0526  -0.0591   0.00    0.0
2026/01/15 01:54:00.000   22.434279951  114.335386555    63.5717   6   8   0.0516   0.0749   0.1156  -0.0285   0.0523  -0.0588   0.00    0.0
2026/01/15 01:54:30.000   22.434279945  114.335386551    63.5725   6   8   0.0513   0.0745   0.1148  -0.0284   0.0519  -0.0584   0.00    0.0
2026/01/15 01:55:00.000   22.434279938  114.335386546    63.5737   6   8   0.0510   0.0741   0.1140  -0.0284   0.0515  -0.0581   0.00    0.0
2026/01/15 01:55:30.000   22.434279932  114.335386540    63.5750   6   8   0.0507   0.0736   0.1132  -0.0283   0.0511  -0.0577   0.00    0.0
2026/01/15 01:56:00.000   22.434279926  114.335386533    63.5760   6   8   0.0504   0.0732   0.1125  -0.0282   0.0507  -0.0574   0.00    0.0
2026/01/15 01:56:30.000   22.434279922  114.335386529    63.5768   6   8   0.0501   0.0728   0.1117  -0.0281   0.0504  -0.0571   0.00    0.0
2026/01/15 01:57:00.000   22.434279917  114.335386527    63.5772   6   8   0.0498   0.0724   0.1111  -0.0280   0.0500  -0.0567   0.00    0.0
2026/01/15 01:57:30.000   22.434279913  114.335386525    63.5776   6   8   0.0496   0.0721   0.1105  -0.0279   0.0497  -0.0565   0.00    0.0
2026/01/15 01:58:00.000   22.434279909  114.335386520    63.5782   6   8   0.0493   0.0717   0.1098  -0.0278   0.0494  -0.0562   0.00    0.0
2026/01/15 01:58:30.000   22.434279904  114.335386520    63.5794   6   8   0.0490   0.0713   0.1091  -0.0277   0.0490  -0.0558   0.00    0.0
2026/01/15 01:59:00.000   22.434279898  114.335386521    63.5808   6   8   0.0487   0.0709   0.1083  -0.0276   0.0486  -0.0555   0.00    0.0
2026/01/15 01:59:30.000   22.434279892  114.335386518    63.5817   6   8   0.0484   0.0705   0.1076  -0.0275   0.0482  -0.0551   0.00    0.0
2026/01/15 02:00:00.000   22.434279887  114.335386510    63.5824   6   8   0.0482   0.0701   0.1068  -0.0274   0.0478  -0.0548   0.00    0.0
2026/01/15 02:00:30.000   22.434279880  114.335386499    63.5828   6   8   0.0479   0.0697   0.1061  -0.0273   0.0474  -0.0544   0.00    0.0
2026/01/15 02:01:00.000   22.434279873  114.335386489    63.5832   6   8   0.0476   0.0693   0.1054  -0.0272   0.0471  -0.0541   0.00    0.0
2026/01/15 02:01:30.000   22.434279867  114.335386484    63.5836   6   8   0.0473   0.0690   0.1047  -0.0271   0.0467  -0.0538   0.00    0.0
2026/01/15 02:02:00.000   22.434279864  114.335386477    63.5841   6   8   0.0471   0.0686   0.1041  -0.0270   0.0464  -0.0535   0.00    0.0
2026/01/15 02:02:30.000   22.434279860  114.335386470    63.5845   6   8   0.0468   0.0683   0.1035  -0.0269   0.0461  -0.0532   0.00    0.0
2026/01/15 02:03:00.000   22.434279855  114.335386465    63.5847   6   8   0.0466   0.0680   0.1028  -0.0268   0.0457  -0.0529   0.00    0.0
2026/01/15 02:03:30.000   22.434279849  114.335386458    63.5848   6   8   0.0463   0.0676   0.1022  -0.0267   0.0453  -0.0526   0.00    0.0
2026/01/15 02:04:00.000   22.434279842  114.335386453    63.5850   6   8   0.0461   0.0672   0.1015  -0.0265   0.0450  -0.0522   0.00    0.0
2026/01/15 02:04:30.000   22.434279837  114.335386447    63.5851   6   8   0.0458   0.0669   0.1007  -0.0264   0.0446  -0.0519   0.00    0.0
2026/01/15 02:05:00.000   22.434279832  114.335386444    63.5855   6   8   0.0455   0.0665   0.1000  -0.0263   0.0442  -0.0515   0.00    0.0
2026/01/15 02:05:30.000   22.434279826  114.335386441    63.5860   6   8   0.0452   0.0661   0.0993  -0.0262   0.0438  -0.0512   0.00    0.0
2026/01/15 02:06:00.000   22.434279821  114.335386437    63.5863   6   8   0.0450   0.0658   0.0986  -0.0260   0.0434  -0.0509   0.00    0.0
2026/01/15 02:06:30.000   22.434279816  114.335386436    63.5868   6   8   0.0447   0.0654   0.0980  -0.0259   0.0431  -0.0505   0.00    0.0
2026/01/15 02:07:00.000   22.434279809  114.335386436    63.5874   6   8   0.0445   0.0651   0.0974  -0.0258   0.0428  -0.0503   0.00    0.0
2026/01/15 02:07:30.000   22.434279803  114.335386437    63.5879   6   8   0.0443   0.0648   0.0968  -0.0257   0.0425  -0.0500   0.00    0.0
2026/01/15 02:08:00.000   22.434279796  114.335386440    63.5884   6   8   0.0440   0.0645   0.0962  -0.0256   0.0421  -0.0497   0.00    0.0
2026/01/15 02:08:30.000   22.434279788  114.335386442    63.5889   6   8   0.0438   0.0642   0.0956  -0.0255   0.0418  -0.0494   0.00    0.0
2026/01/15 02:09:00.000   22.434279782  114.335386445    63.5895   6   8   0.0435   0.0639   0.0949  -0.0254   0.0414  -0.0490   0.00    0.0
2026/01/15 02:09:30.000   22.434279778  114.335386441    63.5898   6   8   0.0433   0.0635   0.0943  -0.0252   0.0410  -0.0487   0.00    0.0
2026/01/15 02:10:00.000   22.434279775  114.335386435    63.5899   6   8   0.0430   0.0632   0.0936  -0.0251   0.0407  -0.0484   0.00    0.0
2026/01/15 02:10:30.000   22.434279769  114.335386437    63.5911   6   8   0.0428   0.0629   0.0932  -0.0250   0.0406  -0.0481   0.00    0.0
2026/01/15 02:11:00.000   22.434279761  114.335386443    63.5923   6   8   0.0425   0.0627   0.0929  -0.0249   0.0406  -0.0478   0.00    0.0
2026/01/15 02:11:30.000   22.434279754  114.335386450    63.5934   6   8   0.0423   0.0625   0.0925  -0.0248   0.0406  -0.0475   0.00    0.0
2026/01/15 02:12:00.000   22.434279747  114.335386455    63.5942   6   9   0.0421   0.0623   0.0922  -0.0247   0.0405  -0.0472   0.00    0.0
2026/01/15 02:12:30.000   22.434279741  114.335386459    63.5950   6   9   0.0419   0.0621   0.0919  -0.0246   0.0405  -0.0470   0.00    0.0
2026/01/15 02:13:00.000   22.434279735  114.335386460    63.5957   6   9   0.0417   0.0619   0.0916  -0.0245   0.0404  -0.0467   0.00    0.0
2026/01/15 02:13:30.000   22.434279730  114.335386461    63.5965   6   9   0.0414   0.0617   0.0913  -0.0244   0.0404  -0.0465   0.00    0.0
2026/01/15 02:14:00.000   22.434279723  114.335386463    63.5974   6   9   0.0412   0.0615   0.0909  -0.0243   0.0403  -0.0462   0.00    0.0
2026/01/15 02:14:30.000   22.434279718  114.335386463    63.5986   6   9   0.0409   0.0613   0.0905  -0.0242   0.0403  -0.0459   0.00    0.0
2026/01/15 02:15:00.000   22.434279715  114.335386460    63.5995   6   9   0.0407   0.0611   0.0902  -0.0241   0.0402  -0.0456   0.00    0.0
2026/01/15 02:15:30.000   22.434279712  114.335386458    63.6002   6   9   0.0405   0.0609   0.0898  -0.0240   0.0402  -0.0453   0.00    0.0
2026/01/15 02:16:00.000   22.434279709  114.335386452    63.6009   6   9   0.0402   0.0607   0.0895  -0.0239   0.0401  -0.0450   0.00    0.0
2026/01/15 02:16:30.000   22.434279709  114.335386443    63.6014   6   9   0.0400   0.0605   0.0891  -0.0238   0.0401  -0.0448   0.00    0.0
2026/01/15 02:17:00.000   22.434279709  114.335386437    63.6018   6   9   0.0398   0.0603   0.0888  -0.0237   0.0400  -0.0445   0.00    0.0
2026/01/15 02:17:30.000   22.434279706  114.335386433    63.6022   6   9   0.0396   0.0601   0.0885  -0.0236   0.0400  -0.0443   0.00    0.0
2026/01/15 02:18:00.000   22.434279703  114.335386428    63.6026   6   9   0.0394   0.0599   0.0882  -0.0235   0.0399  -0.0441   0.00    0.0
2026/01/15 02:18:30.000   22.434279701  114.335386423    63.6031   6   9   0.0392   0.0597   0.0879  -0.0234   0.0399  -0.0438   0.00    0.0
2026/01/15 02:19:00.000   22.434279698  114.335386422    63.6040   6   9   0.0390   0.0595   0.0875  -0.0233   0.0398  -0.0436   0.00    0.0
2026/01/15 02:19:30.000   22.434279695  114.335386419    63.6050   6   9   0.0388   0.0593   0.0872  -0.0232   0.0397  -0.0433   0.00    0.0
2026/01/15 02:20:00.000   22.434279690  114.335386418    63.6059   6   9   0.0386   0.0591   0.0868  -0.0231   0.0396  -0.0430   0.00    0.0
2026/01/15 02:20:30.000   22.434279685  114.335386417    63.6067   6   9   0.0383   0.0589   0.0865  -0.0230   0.0396  -0.0427   0.00    0.0
2026/01/15 02:21:00.000   22.434279681  114.335386415    63.6074   6   9   0.0381   0.0587   0.0861  -0.0229   0.0395  -0.0425   0.00    0.0
2026/01/15 02:21:30.000   22.434279679  114.335386409    63.6080   6   9   0.0379   0.0586   0.0858  -0.0228   0.0394  -0.0422   0.00    0.0
2026/01/15 02:22:00.000   22.434279676  114.335386407    63.6086   6   9   0.0378   0.0584   0.0855  -0.0227   0.0394  -0.0420   0.00    0.0
2026/01/15 02:22:30.000   22.434279672  114.335386404    63.6094   6   9   0.0376   0.0582   0.0852  -0.0227   0.0393  -0.0418   0.00    0.0
2026/01/15 02:23:00.000   22.434279670  114.335386403    63.6103   6   9   0.0374   0.0581   0.0849  -0.0226   0.0392  -0.0416   0.00    0.0
2026/01/15 02:23:30.000   22.434279669  114.335386402    63.6111   6   9   0.0372   0.0579   0.0845  -0.0225   0.0392  -0.0413   0.00    0.0
2026/01/15 02:24:00.000   22.434279667  114.335386401    63.6119   6   9   0.0370   0.0577   0.0842  -0.0224   0.0391  -0.0411   0.00    0.0
2026/01/15 02:24:30.000   22.434279665  114.335386398    63.6126   6   9   0.0368   0.0575   0.0839  -0.0223   0.0390  -0.0408   0.00    0.0
2026/01/15 02:25:00.000   22.434279661  114.335386395    63.6134   6   9   0.0366   0.0573   0.0835  -0.0222   0.0389  -0.0406   0.00    0.0
2026/01/15 02:25:30.000   22.434279655  114.335386395    63.6141   6   9   0.0364   0.0572   0.0831  -0.0221   0.0388  -0.0403   0.00    0.0
2026/01/15 02:26:00.000   22.434279649  114.335386398    63.6149   6   9   0.0362   0.0570   0.0828  -0.0220   0.0387  -0.0401   0.00    0.0
2026/01/15 02:26:30.000   22.434279643  114.335386398    63.6154   6   9   0.0360   0.0568   0.0825  -0.0219   0.0387  -0.0398   0.00    0.0
2026/01/15 02:27:00.000   22.434279641  114.335386393    63.6156   6   9   0.0358   0.0566   0.0822  -0.0218   0.0386  -0.0396   0.00    0.0
2026/01/15 02:27:30.000   22.434279638  114.335386391    63.6160   6   9   0.0357   0.0565   0.0819  -0.0218   0.0385  -0.0394   0.00    0.0
2026/01/15 02:28:00.000   22.434279634  114.335386389    63.6164   6   8   0.0355   0.0563   0.0816  -0.0217   0.0384  -0.0392   0.00    0.0
2026/01/15 02:28:30.000   22.434279631  114.335386386    63.6169   6   8   0.0353   0.0562   0.0813  -0.0216   0.0384  -0.0390   0.00    0.0
2026/01/15 02:29:00.000   22.434279626  114.335386384    63.6174   6   8   0.0351   0.0560   0.0809  -0.0215   0.0383  -0.0388   0.00    0.0
2026/01/15 02:29:30.000   22.434279622  114.335386381    63.6180   6   8   0.0349   0.0558   0.0806  -0.0214   0.0382  -0.0385   0.00    0.0
2026/01/15 02:30:00.000   22.434279618  114.335386381    63.6186   6   8   0.0347   0.0557   0.0802  -0.0213   0.0381  -0.0383   0.00    0.0
2026/01/15 02:30:30.000   22.434279614  114.335386382    63.6193   6   8   0.0346   0.0555   0.0799  -0.0212   0.0380  -0.0381   0.00    0.0
2026/01/15 02:31:00.000   22.434279610  114.335386384    63.6201   6   8   0.0344   0.0553   0.0796  -0.0211   0.0379  -0.0378   0.00    0.0
2026/01/15 02:31:30.000   22.434279604  114.335386389    63.6209   6   8   0.0342   0.0552   0.0793  -0.0211   0.0378  -0.0376   0.00    0.0
2026/01/15 02:32:00.000   22.434279600  114.335386389    63.6217   6   8   0.0340   0.0550   0.0790  -0.0210   0.0377  -0.0374   0.00    0.0
2026/01/15 02:32:30.000   22.434279596  114.335386387    63.6223   6   8   0.0339   0.0549   0.0787  -0.0209   0.0377  -0.0372   0.00    0.0
2026/01/15 02:33:00.000   22.434279593  114.335386384    63.6231   6   8   0.0337   0.0547   0.0784  -0.0208   0.0376  -0.0370   0.00    0.0
2026/01/15 02:33:30.000   22.434279590  114.335386379    63.6239   6   8   0.0336   0.0546   0.0781  -0.0208   0.0375  -0.0368   0.00    0.0
2026/01/15 02:34:00.000   22.434279588  114.335386376    63.6247   6   8   0.0334   0.0544   0.0777  -0.0207   0.0374  -0.0366   0.00    0.0
2026/01/15 02:34:30.000   22.434279586  114.335386370    63.6254   6   8   0.0332   0.0543   0.0774  -0.0206   0.0373  -0.0364   0.00    0.0
2026/01/15 02:35:00.000   22.434279582  114.335386369    63.6262   6   8   0.0331   0.0541   0.0771  -0.0205   0.0372  -0.0362   0.00    0.0
2026/01/15 02:35:30.000   22.434279578  114.335386364    63.6269   6   8   0.0329   0.0540   0.0767  -0.0204   0.0371  -0.0360   0.00    0.0
2026/01/15 02:36:00.000   22.434279574  114.335386361    63.6275   6   8   0.0327   0.0538   0.0764  -0.0203   0.0370  -0.0357   0.00    0.0
2026/01/15 02:36:30.000   22.434279571  114.335386357    63.6280   6   8   0.0326   0.0537   0.0761  -0.0203   0.0369  -0.0356   0.00    0.0
2026/01/15 02:37:00.000   22.434279566  114.335386354    63.6286   6   8   0.0324   0.0535   0.0758  -0.0202   0.0368  -0.0354   0.00    0.0
2026/01/15 02:37:30.000   22.434279562  114.335386352    63.6292   6   8   0.0323   0.0534   0.0756  -0.0201   0.0368  -0.0352   0.00    0.0
2026/01/15 02:38:00.000   22.434279556  114.335386350    63.6297   6   8   0.0321   0.0533   0.0753  -0.0201   0.0367  -0.0350   0.00    0.0
2026/01/15 02:38:30.000   22.434279551  114.335386347    63.6304   6   8   0.0320   0.0531   0.0750  -0.0200   0.0366  -0.0348   0.00    0.0
2026/01/15 02:39:00.000   22.434279547  114.335386344    63.6311   6   8   0.0318   0.0530   0.0746  -0.0199   0.0365  -0.0346   0.00    0.0
2026/01/15 02:39:30.000   22.434279543  114.335386340    63.6318   6   8   0.0317   0.0528   0.0743  -0.0198   0.0364  -0.0344   0.00    0.0
2026/01/15 02:40:00.000   22.434279539  114.335386336    63.6325   6   8   0.0315   0.0527   0.0740  -0.0198   0.0363  -0.0342   0.00    0.0
2026/01/15 02:40:30.000   22.434279536  114.335386334    63.6332   6   8   0.0313   0.0525   0.0737  -0.0197   0.0362  -0.0340   0.00    0.0
2026/01/15 02:41:00.000   22.434279531  114.335386334    63.6340   6   8   0.0312   0.0524   0.0734  -0.0196   0.0361  -0.0338   0.00    0.0
2026/01/15 02:41:30.000   22.434279526  114.335386336    63.6347   6   8   0.0310   0.0522   0.0731  -0.0195   0.0360  -0.0336   0.00    0.0
2026/01/15 02:42:00.000   22.434279522  114.335386338    63.6354   6   8   0.0309   0.0521   0.0728  -0.0195   0.0359  -0.0335   0.00    0.0
2026/01/15 02:42:30.000   22.434279517  114.335386340    63.6360   6   8   0.0308   0.0520   0.0725  -0.0194   0.0358  -0.0333   0.00    0.0
2026/01/15 02:43:00.000   22.434279512  114.335386340    63.6367   6   8   0.0306   0.0519   0.0722  -0.0194   0.0358  -0.0331   0.00    0.0
2026/01/15 02:43:30.000   22.434279506  114.335386341    63.6375   6   8   0.0305   0.0517   0.0720  -0.0193   0.0357  -0.0330   0.00    0.0
2026/01/15 02:44:00.000   22.434279500  114.335386343    63.6383   6   8   0.0303   0.0516   0.0716  -0.0192   0.0356  -0.0328   0.00    0.0
2026/01/15 02:44:30.000   22.434279495  114.335386342    63.6389   6   8   0.0302   0.0515   0.0713  -0.0192   0.0355  -0.0326   0.00    0.0
2026/01/15 02:45:00.000   22.434279492  114.335386339    63.6394   6   8   0.0300   0.0513   0.0710  -0.0191   0.0354  -0.0324   0.00    0.0
2026/01/15 02:45:30.000   22.434279489  114.335386335    63.6399   6   8   0.0299   0.0512   0.0707  -0.0190   0.0353  -0.0322   0.00    0.0
2026/01/15 02:46:00.000   22.434279484  114.335386329    63.6404   6   8   0.0298   0.0511   0.0704  -0.0190   0.0352  -0.0320   0.00    0.0
2026/01/15 02:46:30.000   22.434279479  114.335386325    63.6410   6   8   0.0296   0.0509   0.0701  -0.0189   0.0351  -0.0319   0.00    0.0
2026/01/15 02:47:00.000   22.434279473  114.335386323    63.6417   6   8   0.0295   0.0508   0.0698  -0.0188   0.0350  -0.0317   0.00    0.0
2026/01/15 02:47:30.000   22.434279469  114.335386320    63.6423   6   8   0.0294   0.0507   0.0696  -0.0188   0.0349  -0.0316   0.00    0.0
2026/01/15 02:48:00.000   22.434279464  114.335386319    63.6431   6   8   0.0293   0.0506   0.0693  -0.0187   0.0349  -0.0314   0.00    0.0
2026/01/15 02:48:30.000   22.434279457  114.335386320    63.6439   6   8   0.0291   0.0505   0.0690  -0.0187   0.0348  -0.0313   0.00    0.0
2026/01/15 02:49:00.000   22.434279452  114.335386320    63.6446   6   8   0.0290   0.0504   0.0688  -0.0186   0.0347  -0.0311   0.00    0.0
2026/01/15 02:49:30.000   22.434279448  114.335386316    63.6452   6   8   0.0289   0.0502   0.0684  -0.0185   0.0346  -0.0309   0.00    0.0
2026/01/15 02:50:00.000   22.434279444  114.335386312    63.6456   6   8   0.0287   0.0501   0.0681  -0.0185   0.0345  -0.0307   0.00    0.0
2026/01/15 02:50:30.000   22.434279441  114.335386309    63.6461   6   8   0.0286   0.0500   0.0678  -0.0184   0.0344  -0.0306   0.00    0.0
2026/01/15 02:51:00.000   22.434279439  114.335386304    63.6465   6   8   0.0284   0.0499   0.0676  -0.0184   0.0343  -0.0304   0.00    0.0
2026/01/15 02:51:30.000   22.434279437  114.335386298    63.6467   6   8   0.0283   0.0497   0.0673  -0.0183   0.0342  -0.0303   0.00    0.0
2026/01/15 02:52:00.000   22.434279436  114.335386293    63.6470   6   8   0.0282   0.0496   0.0670  -0.0183   0.0341  -0.0301   0.00    0.0
2026/01/15 02:52:30.000   22.434279434  114.335386287    63.6473   6   8   0.0281   0.0495   0.0668  -0.0182   0.0341  -0.0300   0.00    0.0
2026/01/15 02:53:00.000   22.434279431  114.335386282    63.6476   6   8   0.0280   0.0494   0.0665  -0.0182   0.0340  -0.0298   0.00    0.0
2026/01/15 02:53:30.000   22.434279428  114.335386276    63.6480   6   8   0.0279   0.0493   0.0663  -0.0181   0.0339  -0.0297   0.00    0.0
2026/01/15 02:54:00.000   22.434279424  114.335386272    63.6484   6   8   0.0277   0.0492   0.0660  -0.0181   0.0338  -0.0295   0.00    0.0
2026/01/15 02:54:30.000   22.434279420  114.335386269    63.6488   6   8   0.0276   0.0491   0.0657  -0.0180   0.0337  -0.0294   0.00    0.0
2026/01/15 02:55:00.000   22.434279417  114.335386266    63.6493   6   8   0.0275   0.0490   0.0654  -0.0179   0.0336  -0.0292   0.00    0.0
2026/01/15 02:55:30.000   22.434279414  114.335386261    63.6496   6   8   0.0274   0.0488   0.0651  -0.0179   0.0335  -0.0291   0.00    0.0
2026/01/15 02:56:00.000   22.434279412  114.335386256    63.6499   6   8   0.0272   0.0487   0.0648  -0.0178   0.0334  -0.0289   0.00    0.0
2026/01/15 02:56:30.000   22.434279409  114.335386253    63.6504   6   9   0.0271   0.0486   0.0646  -0.0178   0.0334  -0.0288   0.00    0.0
2026/01/15 02:57:00.000   22.434279405  114.335386250    63.6508   6   9   0.0270   0.0485   0.0643  -0.0177   0.0333  -0.0286   0.00    0.0
2026/01/15 02:57:30.000   22.434279402  114.335386248    63.6512   6   9   0.0269   0.0484   0.0641  -0.0177   0.0332  -0.0285   0.00    0.0
2026/01/15 02:58:00.000   22.434279399  114.335386246    63.6516   6   9   0.0268   0.0483   0.0639  -0.0177   0.0331  -0.0284   0.00    0.0
2026/01/15 02:58:30.000   22.434279396  114.335386243    63.6519   6   9   0.0267   0.0482   0.0636  -0.0176   0.0331  -0.0283   0.00    0.0
2026/01/15 02:59:00.000   22.434279394  114.335386240    63.6521   6   9   0.0266   0.0481   0.0633  -0.0176   0.0330  -0.0281   0.00    0.0
2026/01/15 02:59:30.000   22.434279390  114.335386237    63.6524   6   9   0.0265   0.0480   0.0631  -0.0175   0.0329  -0.0280   0.00    0.0
2026/01/15 03:00:00.000   22.434279386  114.335386232    63.6527   6   9   0.0263   0.0479   0.0628  -0.0175   0.0328  -0.0278   0.00    0.0
2026/01/15 03:00:30.000   22.434279383  114.335386226    63.6529   6   9   0.0262   0.0478   0.0625  -0.0174   0.0327  -0.0277   0.00    0.0
2026/01/15 03:01:00.000   22.434279381  114.335386218    63.6529   6   9   0.0261   0.0477   0.0623  -0.0174   0.0326  -0.0276   0.00    0.0
2026/01/15 03:01:30.000   22.434279380  114.335386209    63.6527   6   9   0.0260   0.0476   0.0620  -0.0173   0.0325  -0.0274   0.00    0.0
2026/01/15 03:02:00.000   22.434279379  114.335386203    63.6526   6   9   0.0259   0.0475   0.0618  -0.0173   0.0325  -0.0273   0.00    0.0
2026/01/15 03:02:30.000   22.434279378  114.335386197    63.6526   6   9   0.0258   0.0474   0.0616  -0.0173   0.0324  -0.0272   0.00    0.0
2026/01/15 03:03:00.000   22.434279375  114.335386191    63.6528   6   9   0.0257   0.0473   0.0613  -0.0172   0.0323  -0.0271   0.00    0.0
2026/01/15 03:03:30.000   22.434279372  114.335386184    63.6528   6   9   0.0256   0.0472   0.0611  -0.0172   0.0323  -0.0270   0.00    0.0
2026/01/15 03:04:00.000   22.434279368  114.335386179    63.6528   6   9   0.0255   0.0471   0.0608  -0.0171   0.0322  -0.0268   0.00    0.0
2026/01/15 03:04:30.000   22.434279363  114.335386173    63.6531   6   9   0.0254   0.0470   0.0606  -0.0171   0.0321  -0.0267   0.00    0.0
2026/01/15 03:05:00.000   22.434279360  114.335386168    63.6533   6   9   0.0253   0.0469   0.0603  -0.0170   0.0320  -0.0266   0.00    0.0
2026/01/15 03:05:30.000   22.434279356  114.335386162    63.6534   6   9   0.0252   0.0468   0.0601  -0.0170   0.0319  -0.0264   0.00    0.0
2026/01/15 03:06:00.000   22.434279353  114.335386157    63.6535   6   9   0.0251   0.0467   0.0598  -0.0170   0.0319  -0.0263   0.00    0.0
2026/01/15 03:06:30.000   22.434279349  114.335386151    63.6536   6   9   0.0250   0.0466   0.0596  -0.0169   0.0318  -0.0262   0.00    0.0
2026/01/15 03:07:00.000   22.434279346  114.335386146    63.6536   6   9   0.0249   0.0466   0.0594  -0.0169   0.0317  -0.0261   0.00    0.0
2026/01/15 03:07:30.000   22.434279344  114.335386140    63.6534   6   9   0.0248   0.0465   0.0592  -0.0169   0.0317  -0.0260   0.00    0.0
2026/01/15 03:08:00.000   22.434279342  114.335386133    63.6532   6   9   0.0247   0.0464   0.0589  -0.0168   0.0316  -0.0259   0.00    0.0
2026/01/15 03:08:30.000   22.434279339  114.335386126    63.6531   6   9   0.0246   0.0463   0.0587  -0.0168   0.0315  -0.0258   0.00    0.0
2026/01/15 03:09:00.000   22.434279334  114.335386120    63.6531   6   9   0.0245   0.0462   0.0585  -0.0168   0.0314  -0.0256   0.00    0.0
2026/01/15 03:09:30.000   22.434279330  114.335386113    63.6530   6   9   0.0244   0.0461   0.0582  -0.0167   0.0314  -0.0255   0.00    0.0
2026/01/15 03:10:00.000   22.434279327  114.335386105    63.6528   6   9   0.0243   0.0460   0.0580  -0.0167   0.0313  -0.0254   0.00    0.0
2026/01/15 03:10:30.000   22.434279324  114.335386096    63.6525   6   9   0.0242   0.0459   0.0577  -0.0166   0.0312  -0.0253   0.00    0.0
2026/01/15 03:11:00.000   22.434279322  114.335386089    63.6523   6   9   0.0241   0.0458   0.0575  -0.0166   0.0312  -0.0252   0.00    0.0
2026/01/15 03:11:30.000   22.434279320  114.335386080    63.6520   6   9   0.0240   0.0458   0.0573  -0.0166   0.0311  -0.0251   0.00    0.0
2026/01/15 03:12:00.000   22.434279319  114.335386073    63.6517   6   9   0.0240   0.0457   0.0571  -0.0166   0.0310  -0.0250   0.00    0.0
2026/01/15 03:12:30.000   22.434279315  114.335386065    63.6514   6   9   0.0239   0.0456   0.0569  -0.0165   0.0310  -0.0249   0.00    0.0
2026/01/15 03:13:00.000   22.434279313  114.335386066    63.6519   6   8   0.0238   0.0456   0.0567  -0.0165   0.0309  -0.0248   0.00    0.0
2026/01/15 03:13:30.000   22.434279310  114.335386068    63.6524   6   8   0.0237   0.0455   0.0565  -0.0164   0.0309  -0.0247   0.00    0.0
2026/01/15 03:14:00.000   22.434279307  114.335386071    63.6528   6   8   0.0236   0.0455   0.0563  -0.0163   0.0309  -0.0245   0.00    0.0
2026/01/15 03:14:30.000   22.434279304  114.335386073    63.6534   6   8   0.0235   0.0454   0.0561  -0.0163   0.0309  -0.0244   0.00    0.0
2026/01/15 03:15:00.000   22.434279302  114.335386074    63.6539   6   8   0.0235   0.0454   0.0559  -0.0162   0.0308  -0.0243   0.00    0.0
2026/01/15 03:15:30.000   22.434279299  114.335386074    63.6544   6   8   0.0234   0.0453   0.0557  -0.0162   0.0308  -0.0242   0.00    0.0
2026/01/15 03:16:00.000   22.434279296  114.335386074    63.6548   6   8   0.0233   0.0453   0.0555  -0.0161   0.0308  -0.0241   0.00    0.0
2026/01/15 03:16:30.000   22.434279295  114.335386075    63.6552   6   8   0.0232   0.0452   0.0553  -0.0161   0.0308  -0.0239   0.00    0.0
2026/01/15 03:17:00.000   22.434279294  114.335386076    63.6556   6   8   0.0232   0.0452   0.0551  -0.0160   0.0308  -0.0238   0.00    0.0
2026/01/15 03:17:30.000   22.434279293  114.335386076    63.6561   6   8   0.0231   0.0452   0.0550  -0.0159   0.0307  -0.0237   0.00    0.0
2026/01/15 03:18:00.000   22.434279293  114.335386074    63.6565   6   8   0.0230   0.0451   0.0548  -0.0159   0.0307  -0.0236   0.00    0.0
2026/01/15 03:18:30.000   22.434279292  114.335386072    63.6570   6   8   0.0230   0.0451   0.0547  -0.0158   0.0307  -0.0235   0.00    0.0
2026/01/15 03:19:00.000   22.434279292  114.335386071    63.6575   6   8   0.0229   0.0451   0.0545  -0.0158   0.0307  -0.0233   0.00    0.0
2026/01/15 03:19:30.000   22.434279291  114.335386071    63.6581   6   8   0.0228   0.0450   0.0543  -0.0157   0.0307  -0.0232   0.00    0.0
2026/01/15 03:20:00.000   22.434279290  114.335386071    63.6586   6   8   0.0227   0.0450   0.0541  -0.0157   0.0307  -0.0231   0.00    0.0
2026/01/15 03:20:30.000   22.434279289  114.335386071    63.6590   6   8   0.0227   0.0449   0.0540  -0.0156   0.0307  -0.0229   0.00    0.0
2026/01/15 03:21:00.000   22.434279289  114.335386070    63.6593   6   8   0.0226   0.0449   0.0538  -0.0155   0.0307  -0.0228   0.00    0.0
2026/01/15 03:21:30.000   22.434279288  114.335386069    63.6595   6   8   0.0225   0.0448   0.0536  -0.0155   0.0306  -0.0227   0.00    0.0
2026/01/15 03:22:00.000   22.434279288  114.335386069    63.6599   6   8   0.0225   0.0448   0.0535  -0.0154   0.0306  -0.0226   0.00    0.0
2026/01/15 03:22:30.000   22.434279287  114.335386070    63.6604   6   8   0.0224   0.0448   0.0534  -0.0154   0.0306  -0.0225   0.00    0.0
2026/01/15 03:23:00.000   22.434279286  114.335386069    63.6608   6   8   0.0223   0.0447   0.0532  -0.0153   0.0306  -0.0224   0.00    0.0
2026/01/15 03:23:30.000   22.434279286  114.335386067    63.6610   6   8   0.0223   0.0447   0.0531  -0.0153   0.0306  -0.0223   0.00    0.0
2026/01/15 03:24:00.000   22.434279286  114.335386065    63.6612   6   8   0.0222   0.0447   0.0529  -0.0152   0.0306  -0.0222   0.00    0.0
2026/01/15 03:24:30.000   22.434279286  114.335386064    63.6615   6   8   0.0221   0.0446   0.0527  -0.0152   0.0306  -0.0220   0.00    0.0
2026/01/15 03:25:00.000   22.434279285  114.335386063    63.6617   6   8   0.0221   0.0446   0.0526  -0.0151   0.0306  -0.0219   0.00    0.0
2026/01/15 03:25:30.000   22.434279284  114.335386063    63.6621   6   8   0.0220   0.0446   0.0524  -0.0151   0.0306  -0.0218   0.00    0.0
2026/01/15 03:26:00.000   22.434279283  114.335386062    63.6625   6   8   0.0219   0.0445   0.0523  -0.0150   0.0306  -0.0217   0.00    0.0
2026/01/15 03:26:30.000   22.434279282  114.335386061    63.6629   6   8   0.0219   0.0445   0.0521  -0.0150   0.0306  -0.0216   0.00    0.0
