% program   : RTKPOST-EX 2.5.0
% inp file  : C:\Users\tevin\Desktop\GNSS - MASTA\SPRING SEM\4.SAT NAV DATA PROCESSING\TEAM PROJECT\SNDP-PROJECT\Old_data\data\HKWS00HKG_R_20260150000_01D_30S_MO.rnx
% inp file  : C:\Users\tevin\Desktop\GNSS - MASTA\SPRING SEM\4.SAT NAV DATA PROCESSING\TEAM PROJECT\SNDP-PROJECT\Old_data\products\nav\BRD400DLR_S_20260150000_01D_MN.rnx
% obs start : 2026/01/15 00:00:00.0 GPST (week2401 345600.0s)
% obs end   : 2026/01/15 23:59:30.0 GPST (week2401 431970.0s)
% pos mode  : PPP Static
% freqs     : L1+L2/E5b
% solution  : Forward
% elev mask : 15.0 deg
% dynamics  : on
% tidecorr  :
% ionos opt : Broadcast
% tropo opt : Saastamoinen
% ephemeris : Broadcast
% navi sys  : GPS
% antenna1  :                       ( 0.0000  0.0000  0.0083)
%
% (lat/lon/height=WGS84/ellipsoidal,Q=1:fix,2:float,3:sbas,4:dgps,5:single,6:ppp,ns=# of satellites)
%  GPST                  latitude(deg) longitude(deg)  height(m)   Q  ns   sdn(m)   sde(m)   sdu(m)  sdne(m)  sdeu(m)  sdun(m) age(s)  ratio
2026/01/15 00:31:30.000   22.434308716  114.335359126    57.9584   6   4   0.2275   0.2714   0.6064  -0.1172   0.2021  -0.1369   0.00    0.0
2026/01/15 00:32:00.000   22.434308638  114.335359525    58.0020   6   4   0.2257   0.2689   0.6006  -0.1153   0.1983  -0.1343   0.00    0.0
2026/01/15 00:32:30.000   22.434308564  114.335359911    58.0438   6   4   0.2240   0.2664   0.5949  -0.1134   0.1947  -0.1318   0.00    0.0
2026/01/15 00:33:00.000   22.434308489  114.335360290    58.0860   6   4   0.2223   0.2641   0.5895  -0.1116   0.1913  -0.1294   0.00    0.0
2026/01/15 00:33:30.000   22.434308417  114.335360661    58.1276   6   4   0.2207   0.2618   0.5842  -0.1098   0.1880  -0.1270   0.00    0.0
2026/01/15 00:38:00.000   22.434307960  114.335363632    58.4820   6   5   0.2076   0.2439   0.5431  -0.0964   0.1631  -0.1092   0.00    0.0
2026/01/15 00:38:30.000   22.434307927  114.335363898    58.5085   6   5   0.2064   0.2422   0.5391  -0.0951   0.1608  -0.1075   0.00    0.0
2026/01/15 00:39:00.000   22.434307902  114.335364149    58.5351   6   6   0.2051   0.2405   0.5352  -0.0939   0.1586  -0.1059   0.00    0.0
2026/01/15 00:39:30.000   22.434307879  114.335364405    58.5600   6   6   0.2039   0.2388   0.5314  -0.0927   0.1565  -0.1043   0.00    0.0
2026/01/15 00:40:00.000   22.434307857  114.335364659    58.5829   6   6   0.2027   0.2372   0.5277  -0.0916   0.1544  -0.1027   0.00    0.0
2026/01/15 00:40:30.000   22.434307836  114.335364909    58.6053   6   6   0.2016   0.2356   0.5241  -0.0904   0.1524  -0.1012   0.00    0.0
2026/01/15 00:41:00.000   22.434307814  114.335365156    58.6274   6   6   0.2004   0.2341   0.5206  -0.0893   0.1505  -0.0997   0.00    0.0
2026/01/15 00:41:30.000   22.434307791  114.335365400    58.6499   6   6   0.1993   0.2325   0.5172  -0.0883   0.1486  -0.0983   0.00    0.0
2026/01/15 00:42:00.000   22.434307764  114.335365649    58.6727   6   6   0.1982   0.2311   0.5138  -0.0872   0.1468  -0.0969   0.00    0.0
2026/01/15 00:42:30.000   22.434307738  114.335365900    58.6955   6   6   0.1972   0.2296   0.5106  -0.0862   0.1451  -0.0955   0.00    0.0
2026/01/15 00:43:00.000   22.434307720  114.335366153    58.7179   6   6   0.1961   0.2282   0.5074  -0.0852   0.1434  -0.0942   0.00    0.0
2026/01/15 00:43:30.000   22.434307706  114.335366401    58.7398   6   6   0.1951   0.2268   0.5042  -0.0843   0.1418  -0.0929   0.00    0.0
2026/01/15 00:45:00.000   22.434307664  114.335367084    58.8056   6   6   0.1922   0.2228   0.4953  -0.0816   0.1372  -0.0892   0.00    0.0
2026/01/15 00:45:30.000   22.434307654  114.335367288    58.8248   6   6   0.1912   0.2215   0.4924  -0.0807   0.1358  -0.0880   0.00    0.0
2026/01/15 00:46:00.000   22.434307643  114.335367481    58.8425   6   6   0.1903   0.2202   0.4896  -0.0799   0.1344  -0.0868   0.00    0.0
2026/01/15 00:46:30.000   22.434307631  114.335367672    58.8605   6   6   0.1894   0.2190   0.4868  -0.0790   0.1331  -0.0857   0.00    0.0
2026/01/15 00:47:00.000   22.434307622  114.335367847    58.8781   6   6   0.1885   0.2178   0.4841  -0.0782   0.1318  -0.0846   0.00    0.0
2026/01/15 00:47:30.000   22.434307620  114.335368012    58.8958   6   6   0.1877   0.2166   0.4815  -0.0775   0.1306  -0.0835   0.00    0.0
2026/01/15 00:48:00.000   22.434307623  114.335368175    58.9136   6   6   0.1868   0.2154   0.4789  -0.0767   0.1294  -0.0824   0.00    0.0
2026/01/15 00:48:30.000   22.434307577  114.335368344    58.9176   6   6   0.1862   0.2143   0.4768  -0.0760   0.1281  -0.0804   0.00    0.0
2026/01/15 00:49:00.000   22.434307529  114.335368518    58.9214   6   6   0.1855   0.2132   0.4747  -0.0753   0.1269  -0.0784   0.00    0.0
2026/01/15 00:49:30.000   22.434307483  114.335368693    58.9257   6   6   0.1849   0.2120   0.4727  -0.0747   0.1257  -0.0764   0.00    0.0
2026/01/15 00:50:00.000   22.434307439  114.335368872    58.9299   6   4   0.1842   0.2110   0.4707  -0.0740   0.1246  -0.0744   0.00    0.0
2026/01/15 00:50:30.000   22.434307391  114.335369052    58.9337   6   6   0.1836   0.2099   0.4687  -0.0734   0.1235  -0.0724   0.00    0.0
2026/01/15 00:51:00.000   22.434307343  114.335369229    58.9355   6   6   0.1830   0.2088   0.4668  -0.0728   0.1224  -0.0705   0.00    0.0
2026/01/15 00:51:30.000   22.434307293  114.335369406    58.9360   6   6   0.1824   0.2078   0.4649  -0.0722   0.1214  -0.0685   0.00    0.0
2026/01/15 00:52:00.000   22.434307243  114.335369578    58.9350   6   6   0.1818   0.2068   0.4630  -0.0716   0.1204  -0.0666   0.00    0.0
2026/01/15 00:52:30.000   22.434307197  114.335369735    58.9341   6   6   0.1812   0.2058   0.4612  -0.0711   0.1194  -0.0646   0.00    0.0
2026/01/15 00:53:00.000   22.434307154  114.335369886    58.9330   6   6   0.1806   0.2048   0.4594  -0.0705   0.1184  -0.0627   0.00    0.0
2026/01/15 00:53:30.000   22.434307112  114.335370033    58.9308   6   6   0.1801   0.2038   0.4576  -0.0699   0.1175  -0.0607   0.00    0.0
2026/01/15 00:54:00.000   22.434307067  114.335370184    58.9290   6   6   0.1795   0.2029   0.4559  -0.0694   0.1166  -0.0588   0.00    0.0
2026/01/15 00:54:30.000   22.434307022  114.335370333    58.9272   6   6   0.1790   0.2019   0.4542  -0.0689   0.1158  -0.0568   0.00    0.0
2026/01/15 00:55:00.000   22.434306975  114.335370480    58.9267   6   6   0.1784   0.2010   0.4526  -0.0684   0.1150  -0.0549   0.00    0.0
2026/01/15 00:55:30.000   22.434306930  114.335370623    58.9266   6   6   0.1779   0.2001   0.4509  -0.0678   0.1142  -0.0529   0.00    0.0
2026/01/15 00:56:00.000   22.434306888  114.335370760    58.9265   6   6   0.1773   0.1992   0.4493  -0.0673   0.1134  -0.0509   0.00    0.0
2026/01/15 00:56:30.000   22.434306853  114.335370891    58.9274   6   6   0.1768   0.1983   0.4477  -0.0669   0.1126  -0.0489   0.00    0.0
2026/01/15 00:57:00.000   22.434306817  114.335371021    58.9282   6   6   0.1763   0.1975   0.4461  -0.0664   0.1119  -0.0469   0.00    0.0
2026/01/15 00:57:30.000   22.434306779  114.335371152    58.9291   6   6   0.1758   0.1966   0.4446  -0.0659   0.1112  -0.0449   0.00    0.0
2026/01/15 00:58:00.000   22.434306740  114.335371286    58.9303   6   6   0.1753   0.1958   0.4431  -0.0654   0.1105  -0.0428   0.00    0.0
2026/01/15 00:58:30.000   22.434306701  114.335371423    58.9315   6   6   0.1748   0.1949   0.4416  -0.0650   0.1099  -0.0407   0.00    0.0
2026/01/15 00:59:00.000   22.434306659  114.335371562    58.9329   6   6   0.1743   0.1941   0.4401  -0.0645   0.1093  -0.0386   0.00    0.0
2026/01/15 00:59:30.000   22.434306615  114.335371697    58.9338   6   6   0.1738   0.1933   0.4386  -0.0641   0.1086  -0.0364   0.00    0.0
2026/01/15 01:00:00.000   22.434306557  114.335371826    58.9365   6   5   0.1733   0.1925   0.4372  -0.0637   0.1080  -0.0342   0.00    0.0
2026/01/15 01:00:30.000   22.434306502  114.335371952    58.9390   6   5   0.1729   0.1917   0.4358  -0.0633   0.1075  -0.0318   0.00    0.0
2026/01/15 01:01:00.000   22.434306450  114.335372080    58.9413   6   5   0.1724   0.1909   0.4344  -0.0628   0.1069  -0.0294   0.00    0.0
2026/01/15 01:01:30.000   22.434306398  114.335372212    58.9444   6   6   0.1719   0.1902   0.4331  -0.0624   0.1064  -0.0268   0.00    0.0
2026/01/15 01:02:00.000   22.434306343  114.335372340    58.9482   6   6   0.1715   0.1894   0.4317  -0.0620   0.1059  -0.0241   0.00    0.0
2026/01/15 01:02:30.000   22.434306284  114.335372462    58.9522   6   6   0.1710   0.1887   0.4304  -0.0616   0.1054  -0.0211   0.00    0.0
2026/01/15 01:03:00.000   22.434306225  114.335372584    58.9567   6   6   0.1706   0.1879   0.4290  -0.0613   0.1049  -0.0178   0.00    0.0
2026/01/15 01:03:30.000   22.434306164  114.335372711    58.9602   6   5   0.1701   0.1872   0.4278  -0.0609   0.1044  -0.0137   0.00    0.0
2026/01/15 01:04:00.000   22.434306106  114.335372837    58.9633   6   5   0.1697   0.1865   0.4265  -0.0605   0.1040  -0.0079   0.00    0.0
2026/01/15 01:04:30.000   22.434306049  114.335372961    58.9664   6   5   0.1693   0.1858   0.4253  -0.0601   0.1035   0.0076   0.00    0.0
2026/01/15 01:05:00.000   22.434305996  114.335373081    58.9692   6   5   0.1688   0.1851   0.4240  -0.0598   0.1031   0.0131   0.00    0.0
2026/01/15 01:05:30.000   22.434305944  114.335373197    58.9717   6   5   0.1684   0.1844   0.4228  -0.0594   0.1027   0.0168   0.00    0.0
2026/01/15 01:06:00.000   22.434305894  114.335373307    58.9742   6   5   0.1680   0.1837   0.4215  -0.0591   0.1023   0.0197   0.00    0.0
2026/01/15 01:06:30.000   22.434305844  114.335373419    58.9767   6   4   0.1676   0.1830   0.4204  -0.0587   0.1019   0.0223   0.00    0.0
2026/01/15 01:08:30.000   22.434305670  114.335373847    58.9893   6   4   0.1660   0.1804   0.4158  -0.0574   0.1005   0.0298   0.00    0.0
2026/01/15 01:09:00.000   22.434305633  114.335373947    58.9906   6   6   0.1656   0.1798   0.4146  -0.0571   0.1002   0.0311   0.00    0.0
2026/01/15 01:09:30.000   22.434305597  114.335374042    58.9904   6   6   0.1652   0.1792   0.4134  -0.0568   0.0999   0.0324   0.00    0.0
2026/01/15 01:10:00.000   22.434305561  114.335374137    58.9899   6   6   0.1648   0.1786   0.4123  -0.0565   0.0996   0.0335   0.00    0.0
2026/01/15 01:10:30.000   22.434305525  114.335374232    58.9907   6   6   0.1644   0.1779   0.4112  -0.0562   0.0994   0.0345   0.00    0.0
2026/01/15 01:11:00.000   22.434305489  114.335374329    58.9924   6   6   0.1640   0.1773   0.4100  -0.0559   0.0991   0.0355   0.00    0.0
2026/01/15 01:11:30.000   22.434305452  114.335374426    58.9951   6   6   0.1636   0.1767   0.4089  -0.0556   0.0988   0.0364   0.00    0.0
2026/01/15 01:12:00.000   22.434305416  114.335374521    58.9993   6   5   0.1633   0.1762   0.4078  -0.0553   0.0986   0.0372   0.00    0.0
2026/01/15 01:12:30.000   22.434305376  114.335374614    59.0026   6   6   0.1629   0.1756   0.4068  -0.0550   0.0983   0.0380   0.00    0.0
2026/01/15 01:13:00.000   22.434305340  114.335374705    59.0054   6   6   0.1625   0.1750   0.4057  -0.0547   0.0981   0.0387   0.00    0.0
2026/01/15 01:20:30.000   22.434305729  114.335375933    59.2559   6   4   0.1556   0.1671   0.3872  -0.0519   0.0945   0.0290   0.00    0.0
2026/01/15 01:21:00.000   22.434305759  114.335376012    59.2716   6   4   0.1552   0.1666   0.3860  -0.0517   0.0943   0.0278   0.00    0.0
2026/01/15 01:21:30.000   22.434305786  114.335376083    59.2854   6   5   0.1547   0.1662   0.3850  -0.0515   0.0939   0.0261   0.00    0.0
2026/01/15 01:22:00.000   22.434305807  114.335376152    59.2989   6   5   0.1543   0.1657   0.3841  -0.0513   0.0935   0.0241   0.00    0.0
2026/01/15 01:22:30.000   22.434305830  114.335376221    59.3140   6   4   0.1539   0.1653   0.3831  -0.0511   0.0931   0.0222   0.00    0.0
2026/01/15 01:33:00.000   22.434306406  114.335377553    59.6897   6   4   0.1459   0.1570   0.3666  -0.0476   0.0871  -0.0336   0.00    0.0
2026/01/15 01:33:30.000   22.434306433  114.335377612    59.7069   6   4   0.1456   0.1566   0.3659  -0.0474   0.0869  -0.0346   0.00    0.0
2026/01/15 01:34:00.000   22.434306457  114.335377672    59.7245   6   4   0.1453   0.1563   0.3652  -0.0473   0.0867  -0.0357   0.00    0.0
2026/01/15 01:34:30.000   22.434306477  114.335377732    59.7420   6   4   0.1449   0.1559   0.3645  -0.0472   0.0865  -0.0367   0.00    0.0
2026/01/15 01:35:00.000   22.434306497  114.335377795    59.7595   6   4   0.1446   0.1556   0.3639  -0.0470   0.0863  -0.0376   0.00    0.0
2026/01/15 01:35:30.000   22.434306515  114.335377860    59.7766   6   4   0.1443   0.1552   0.3632  -0.0469   0.0861  -0.0386   0.00    0.0
2026/01/15 01:36:00.000   22.434306531  114.335377925    59.7936   6   4   0.1439   0.1549   0.3625  -0.0468   0.0859  -0.0395   0.00    0.0
2026/01/15 01:37:00.000   22.434306539  114.335378079    59.8383   6   4   0.1432   0.1541   0.3609  -0.0464   0.0852  -0.0406   0.00    0.0
2026/01/15 01:37:30.000   22.434306535  114.335378170    59.8654   6   4   0.1429   0.1537   0.3599  -0.0461   0.0846  -0.0408   0.00    0.0
2026/01/15 01:38:00.000   22.434306533  114.335378260    59.8915   6   4   0.1425   0.1533   0.3589  -0.0459   0.0840  -0.0411   0.00    0.0
2026/01/15 01:38:30.000   22.434306535  114.335378347    59.9172   6   4   0.1422   0.1529   0.3580  -0.0456   0.0835  -0.0413   0.00    0.0
2026/01/15 01:39:00.000   22.434306538  114.335378431    59.9419   6   4   0.1418   0.1525   0.3570  -0.0453   0.0829  -0.0415   0.00    0.0
2026/01/15 01:39:30.000   22.434306541  114.335378512    59.9659   6   4   0.1415   0.1521   0.3561  -0.0451   0.0824  -0.0418   0.00    0.0
2026/01/15 01:40:00.000   22.434306541  114.335378592    59.9894   6   4   0.1411   0.1517   0.3552  -0.0448   0.0819  -0.0420   0.00    0.0
2026/01/15 01:40:30.000   22.434306540  114.335378673    60.0136   6   4   0.1408   0.1513   0.3543  -0.0446   0.0814  -0.0423   0.00    0.0
2026/01/15 01:41:00.000   22.434306540  114.335378758    60.0380   6   4   0.1404   0.1509   0.3534  -0.0443   0.0808  -0.0425   0.00    0.0
2026/01/15 01:41:30.000   22.434306540  114.335378839    60.0613   6   4   0.1401   0.1505   0.3525  -0.0440   0.0803  -0.0428   0.00    0.0
2026/01/15 01:42:00.000   22.434306544  114.335378916    60.0837   6   4   0.1398   0.1501   0.3516  -0.0438   0.0798  -0.0430   0.00    0.0
2026/01/15 01:42:30.000   22.434306546  114.335378990    60.1059   6   4   0.1394   0.1498   0.3507  -0.0436   0.0794  -0.0432   0.00    0.0
2026/01/15 01:43:00.000   22.434306550  114.335379064    60.1285   6   4   0.1391   0.1494   0.3499  -0.0433   0.0789  -0.0435   0.00    0.0
2026/01/15 01:43:30.000   22.434306553  114.335379138    60.1513   6   4   0.1388   0.1490   0.3491  -0.0431   0.0784  -0.0437   0.00    0.0
2026/01/15 01:44:00.000   22.434306556  114.335379209    60.1739   6   4   0.1384   0.1486   0.3482  -0.0428   0.0780  -0.0440   0.00    0.0
2026/01/15 01:44:30.000   22.434306561  114.335379277    60.1958   6   4   0.1381   0.1483   0.3474  -0.0426   0.0775  -0.0442   0.00    0.0
2026/01/15 01:45:00.000   22.434306566  114.335379343    60.2161   6   4   0.1378   0.1479   0.3466  -0.0424   0.0771  -0.0445   0.00    0.0
2026/01/15 01:45:30.000   22.434306572  114.335379407    60.2353   6   4   0.1375   0.1475   0.3458  -0.0421   0.0766  -0.0447   0.00    0.0
2026/01/15 01:46:00.000   22.434306577  114.335379470    60.2548   6   4   0.1372   0.1472   0.3450  -0.0419   0.0762  -0.0450   0.00    0.0
2026/01/15 01:46:30.000   22.434306580  114.335379533    60.2744   6   4   0.1368   0.1468   0.3442  -0.0417   0.0758  -0.0452   0.00    0.0
2026/01/15 01:47:00.000   22.434306582  114.335379594    60.2944   6   4   0.1365   0.1465   0.3434  -0.0415   0.0754  -0.0455   0.00    0.0
2026/01/15 01:47:30.000   22.434306582  114.335379653    60.3139   6   4   0.1362   0.1461   0.3427  -0.0413   0.0750  -0.0457   0.00    0.0
2026/01/15 01:48:00.000   22.434306580  114.335379714    60.3330   6   4   0.1359   0.1458   0.3419  -0.0410   0.0746  -0.0460   0.00    0.0
2026/01/15 01:48:30.000   22.434306578  114.335379778    60.3524   6   4   0.1356   0.1454   0.3412  -0.0408   0.0742  -0.0462   0.00    0.0
2026/01/15 01:49:00.000   22.434306576  114.335379846    60.3722   6   4   0.1353   0.1451   0.3404  -0.0406   0.0738  -0.0465   0.00    0.0
2026/01/15 01:49:30.000   22.434306576  114.335379911    60.3920   6   4   0.1350   0.1447   0.3397  -0.0404   0.0734  -0.0467   0.00    0.0
2026/01/15 01:50:00.000   22.434306579  114.335379973    60.4109   6   4   0.1347   0.1444   0.3390  -0.0402   0.0730  -0.0469   0.00    0.0
2026/01/15 01:50:30.000   22.434306582  114.335380034    60.4293   6   4   0.1344   0.1441   0.3383  -0.0400   0.0727  -0.0472   0.00    0.0
2026/01/15 01:51:00.000   22.434306585  114.335380096    60.4482   6   4   0.1341   0.1437   0.3376  -0.0398   0.0723  -0.0474   0.00    0.0
2026/01/15 01:51:30.000   22.434306588  114.335380157    60.4670   6   4   0.1338   0.1434   0.3369  -0.0396   0.0720  -0.0477   0.00    0.0
2026/01/15 01:52:00.000   22.434306591  114.335380215    60.4854   6   4   0.1335   0.1431   0.3362  -0.0394   0.0716  -0.0479   0.00    0.0
2026/01/15 01:52:30.000   22.434306595  114.335380273    60.5044   6   4   0.1332   0.1427   0.3355  -0.0392   0.0713  -0.0481   0.00    0.0
2026/01/15 01:53:00.000   22.434306599  114.335380329    60.5231   6   4   0.1330   0.1424   0.3349  -0.0390   0.0710  -0.0484   0.00    0.0
2026/01/15 01:53:30.000   22.434306601  114.335380383    60.5410   6   4   0.1327   0.1421   0.3342  -0.0389   0.0706  -0.0486   0.00    0.0
2026/01/15 01:54:00.000   22.434306601  114.335380432    60.5577   6   4   0.1324   0.1418   0.3335  -0.0387   0.0703  -0.0488   0.00    0.0
2026/01/15 01:54:30.000   22.434306600  114.335380477    60.5735   6   4   0.1321   0.1415   0.3329  -0.0385   0.0700  -0.0491   0.00    0.0
2026/01/15 01:55:00.000   22.434306597  114.335380523    60.5889   6   4   0.1318   0.1411   0.3323  -0.0383   0.0697  -0.0493   0.00    0.0
2026/01/15 01:55:30.000   22.434306595  114.335380571    60.6045   6   4   0.1315   0.1408   0.3316  -0.0381   0.0694  -0.0495   0.00    0.0
2026/01/15 01:56:00.000   22.434306595  114.335380620    60.6203   6   4   0.1313   0.1405   0.3310  -0.0380   0.0691  -0.0497   0.00    0.0
2026/01/15 01:56:30.000   22.434306596  114.335380669    60.6365   6   4   0.1310   0.1402   0.3304  -0.0378   0.0688  -0.0500   0.00    0.0
2026/01/15 01:57:00.000   22.434306595  114.335380718    60.6525   6   4   0.1307   0.1399   0.3298  -0.0376   0.0685  -0.0502   0.00    0.0
2026/01/15 01:57:30.000   22.434306596  114.335380765    60.6683   6   4   0.1305   0.1396   0.3292  -0.0375   0.0682  -0.0504   0.00    0.0
2026/01/15 01:58:00.000   22.434306597  114.335380811    60.6841   6   4   0.1302   0.1393   0.3286  -0.0373   0.0679  -0.0506   0.00    0.0
2026/01/15 01:58:30.000   22.434306596  114.335380856    60.7007   6   4   0.1299   0.1390   0.3280  -0.0371   0.0677  -0.0508   0.00    0.0
2026/01/15 01:59:00.000   22.434306595  114.335380902    60.7177   6   4   0.1297   0.1387   0.3274  -0.0370   0.0674  -0.0510   0.00    0.0
2026/01/15 01:59:30.000   22.434306593  114.335380947    60.7346   6   4   0.1294   0.1384   0.3268  -0.0368   0.0671  -0.0512   0.00    0.0
2026/01/15 02:00:00.000   22.434306595  114.335381008    60.7464   6   4   0.1292   0.1381   0.3263  -0.0366   0.0668  -0.0515   0.00    0.0
2026/01/15 02:00:30.000   22.434306597  114.335381067    60.7576   6   4   0.1289   0.1378   0.3258  -0.0365   0.0665  -0.0517   0.00    0.0
2026/01/15 02:01:00.000   22.434306598  114.335381125    60.7686   6   4   0.1286   0.1375   0.3253  -0.0363   0.0662  -0.0519   0.00    0.0
2026/01/15 02:01:30.000   22.434306600  114.335381186    60.7797   6   4   0.1284   0.1373   0.3248  -0.0361   0.0659  -0.0521   0.00    0.0
2026/01/15 02:02:00.000   22.434306600  114.335381247    60.7911   6   4   0.1282   0.1370   0.3243  -0.0360   0.0656  -0.0522   0.00    0.0
2026/01/15 02:02:30.000   22.434306599  114.335381306    60.8022   6   4   0.1279   0.1367   0.3238  -0.0358   0.0653  -0.0524   0.00    0.0
2026/01/15 02:03:00.000   22.434306599  114.335381363    60.8126   6   4   0.1277   0.1364   0.3233  -0.0356   0.0650  -0.0526   0.00    0.0
2026/01/15 02:03:30.000   22.434306601  114.335381417    60.8228   6   4   0.1274   0.1362   0.3228  -0.0355   0.0647  -0.0528   0.00    0.0
2026/01/15 02:04:00.000   22.434306603  114.335381469    60.8329   6   4   0.1272   0.1359   0.3223  -0.0353   0.0644  -0.0530   0.00    0.0
2026/01/15 02:04:30.000   22.434306607  114.335381521    60.8433   6   4   0.1269   0.1356   0.3219  -0.0352   0.0641  -0.0532   0.00    0.0
2026/01/15 02:05:00.000   22.434306612  114.335381574    60.8542   6   4   0.1267   0.1354   0.3214  -0.0350   0.0638  -0.0534   0.00    0.0
2026/01/15 02:05:30.000   22.434306616  114.335381628    60.8650   6   4   0.1265   0.1351   0.3210  -0.0349   0.0635  -0.0535   0.00    0.0
2026/01/15 02:06:00.000   22.434306620  114.335381678    60.8756   6   4   0.1262   0.1348   0.3205  -0.0347   0.0633  -0.0537   0.00    0.0
2026/01/15 02:06:30.000   22.434306623  114.335381726    60.8859   6   4   0.1260   0.1346   0.3200  -0.0346   0.0630  -0.0539   0.00    0.0
2026/01/15 02:07:00.000   22.434306624  114.335381775    60.8962   6   4   0.1258   0.1343   0.3196  -0.0345   0.0627  -0.0540   0.00    0.0
2026/01/15 02:07:30.000   22.434306624  114.335381824    60.9063   6   4   0.1255   0.1340   0.3191  -0.0343   0.0625  -0.0542   0.00    0.0
2026/01/15 02:08:00.000   22.434306624  114.335381875    60.9162   6   4   0.1253   0.1338   0.3187  -0.0342   0.0622  -0.0544   0.00    0.0
2026/01/15 02:08:30.000   22.434306625  114.335381927    60.9263   6   4   0.1251   0.1335   0.3183  -0.0340   0.0619  -0.0545   0.00    0.0
2026/01/15 02:09:00.000   22.434306628  114.335381979    60.9365   6   4   0.1249   0.1333   0.3178  -0.0339   0.0617  -0.0547   0.00    0.0
2026/01/15 02:09:30.000   22.434306630  114.335382031    60.9469   6   4   0.1246   0.1330   0.3174  -0.0338   0.0614  -0.0548   0.00    0.0
2026/01/15 02:10:00.000   22.434306632  114.335382082    60.9574   6   4   0.1244   0.1328   0.3170  -0.0337   0.0612  -0.0550   0.00    0.0
2026/01/15 02:10:30.000   22.434306634  114.335382136    60.9683   6   4   0.1242   0.1325   0.3166  -0.0335   0.0610  -0.0551   0.00    0.0
2026/01/15 02:11:00.000   22.434306634  114.335382189    60.9794   6   4   0.1240   0.1323   0.3161  -0.0334   0.0607  -0.0553   0.00    0.0
2026/01/15 02:11:30.000   22.434306633  114.335382244    60.9907   6   4   0.1238   0.1320   0.3157  -0.0333   0.0605  -0.0554   0.00    0.0
2026/01/15 02:12:00.000   22.434306658  114.335382311    61.0088   6   4   0.1235   0.1318   0.3152  -0.0332   0.0602  -0.0558   0.00    0.0
2026/01/15 02:12:30.000   22.434306682  114.335382377    61.0266   6   4   0.1232   0.1315   0.3147  -0.0332   0.0599  -0.0561   0.00    0.0
2026/01/15 02:13:00.000   22.434306703  114.335382440    61.0444   6   4   0.1230   0.1313   0.3142  -0.0331   0.0595  -0.0564   0.00    0.0
2026/01/15 02:13:30.000   22.434306724  114.335382501    61.0623   6   4   0.1227   0.1310   0.3137  -0.0331   0.0592  -0.0568   0.00    0.0
2026/01/15 02:14:00.000   22.434306744  114.335382562    61.0806   6   4   0.1225   0.1308   0.3133  -0.0330   0.0589  -0.0571   0.00    0.0
2026/01/15 02:14:30.000   22.434306766  114.335382624    61.0990   6   4   0.1222   0.1305   0.3128  -0.0330   0.0586  -0.0574   0.00    0.0
2026/01/15 02:15:00.000   22.434306788  114.335382685    61.1174   6   4   0.1220   0.1303   0.3123  -0.0329   0.0583  -0.0577   0.00    0.0
2026/01/15 02:15:30.000   22.434306812  114.335382746    61.1355   6   4   0.1218   0.1301   0.3118  -0.0329   0.0581  -0.0580   0.00    0.0
2026/01/15 02:16:00.000   22.434306835  114.335382806    61.1534   6   4   0.1215   0.1298   0.3114  -0.0328   0.0578  -0.0583   0.00    0.0
2026/01/15 02:16:30.000   22.434306858  114.335382865    61.1713   6   4   0.1213   0.1296   0.3109  -0.0328   0.0575  -0.0585   0.00    0.0
2026/01/15 02:17:00.000   22.434306879  114.335382923    61.1887   6   4   0.1210   0.1293   0.3104  -0.0327   0.0572  -0.0588   0.00    0.0
2026/01/15 02:17:30.000   22.434306900  114.335382980    61.2056   6   4   0.1208   0.1291   0.3100  -0.0327   0.0569  -0.0591   0.00    0.0
2026/01/15 02:18:00.000   22.434306921  114.335383036    61.2226   6   4   0.1206   0.1289   0.3095  -0.0327   0.0567  -0.0593   0.00    0.0
2026/01/15 02:18:30.000   22.434306941  114.335383089    61.2399   6   4   0.1203   0.1286   0.3091  -0.0326   0.0564  -0.0596   0.00    0.0
2026/01/15 02:19:00.000   22.434306961  114.335383140    61.2574   6   4   0.1201   0.1284   0.3087  -0.0326   0.0561  -0.0598   0.00    0.0
2026/01/15 02:19:30.000   22.434306981  114.335383188    61.2749   6   4   0.1199   0.1282   0.3082  -0.0326   0.0559  -0.0601   0.00    0.0
2026/01/15 02:20:00.000   22.434307001  114.335383237    61.2924   6   4   0.1196   0.1279   0.3078  -0.0325   0.0556  -0.0603   0.00    0.0
2026/01/15 02:20:30.000   22.434307019  114.335383285    61.3099   6   4   0.1194   0.1277   0.3074  -0.0325   0.0554  -0.0605   0.00    0.0
2026/01/15 02:21:00.000   22.434307038  114.335383333    61.3271   6   4   0.1192   0.1275   0.3069  -0.0324   0.0551  -0.0607   0.00    0.0
2026/01/15 02:21:30.000   22.434307055  114.335383380    61.3441   6   4   0.1189   0.1273   0.3065  -0.0324   0.0549  -0.0610   0.00    0.0
2026/01/15 02:22:00.000   22.434307070  114.335383426    61.3609   6   4   0.1187   0.1270   0.3061  -0.0324   0.0547  -0.0612   0.00    0.0
2026/01/15 02:22:30.000   22.434307082  114.335383472    61.3777   6   4   0.1185   0.1268   0.3057  -0.0324   0.0544  -0.0614   0.00    0.0
2026/01/15 02:23:00.000   22.434307092  114.335383516    61.3945   6   4   0.1183   0.1266   0.3052  -0.0323   0.0542  -0.0616   0.00    0.0
2026/01/15 02:23:30.000   22.434307104  114.335383559    61.4115   6   4   0.1180   0.1264   0.3048  -0.0323   0.0540  -0.0617   0.00    0.0
2026/01/15 02:24:00.000   22.434307117  114.335383602    61.4288   6   4   0.1178   0.1261   0.3044  -0.0323   0.0537  -0.0619   0.00    0.0
2026/01/15 02:24:30.000   22.434307130  114.335383646    61.4463   6   4   0.1176   0.1259   0.3040  -0.0323   0.0535  -0.0621   0.00    0.0
2026/01/15 02:25:00.000   22.434307143  114.335383688    61.4635   6   4   0.1174   0.1257   0.3036  -0.0322   0.0533  -0.0623   0.00    0.0
2026/01/15 02:25:30.000   22.434307155  114.335383727    61.4801   6   4   0.1172   0.1255   0.3032  -0.0322   0.0531  -0.0624   0.00    0.0
2026/01/15 02:26:00.000   22.434307167  114.335383763    61.4961   6   4   0.1170   0.1253   0.3028  -0.0322   0.0529  -0.0626   0.00    0.0
2026/01/15 02:26:30.000   22.434307179  114.335383799    61.5122   6   4   0.1168   0.1251   0.3024  -0.0322   0.0527  -0.0628   0.00    0.0
2026/01/15 02:27:00.000   22.434307190  114.335383835    61.5285   6   4   0.1165   0.1249   0.3020  -0.0321   0.0525  -0.0629   0.00    0.0
2026/01/15 02:27:30.000   22.434307202  114.335383872    61.5450   6   4   0.1163   0.1246   0.3016  -0.0321   0.0523  -0.0631   0.00    0.0
2026/01/15 02:28:00.000   22.434307194  114.335383918    61.5567   6   4   0.1161   0.1244   0.3013  -0.0321   0.0520  -0.0631   0.00    0.0
2026/01/15 02:28:30.000   22.434307187  114.335383963    61.5687   6   4   0.1160   0.1242   0.3010  -0.0322   0.0518  -0.0631   0.00    0.0
2026/01/15 02:29:00.000   22.434307182  114.335384007    61.5806   6   4   0.1158   0.1240   0.3006  -0.0322   0.0515  -0.0631   0.00    0.0
2026/01/15 02:29:30.000   22.434307175  114.335384048    61.5924   6   4   0.1156   0.1238   0.3003  -0.0322   0.0513  -0.0632   0.00    0.0
2026/01/15 02:30:00.000   22.434307168  114.335384091    61.6044   6   4   0.1154   0.1236   0.3000  -0.0322   0.0510  -0.0632   0.00    0.0
2026/01/15 02:30:30.000   22.434307160  114.335384133    61.6164   6   4   0.1152   0.1234   0.2997  -0.0323   0.0508  -0.0632   0.00    0.0
2026/01/15 02:31:00.000   22.434307153  114.335384175    61.6283   6   4   0.1150   0.1232   0.2993  -0.0323   0.0505  -0.0632   0.00    0.0
2026/01/15 02:31:30.000   22.434307144  114.335384218    61.6401   6   4   0.1149   0.1230   0.2990  -0.0323   0.0503  -0.0632   0.00    0.0
2026/01/15 02:32:00.000   22.434307134  114.335384258    61.6520   6   4   0.1147   0.1229   0.2987  -0.0323   0.0501  -0.0633   0.00    0.0
2026/01/15 02:32:30.000   22.434307123  114.335384295    61.6637   6   4   0.1145   0.1227   0.2984  -0.0324   0.0499  -0.0633   0.00    0.0
2026/01/15 02:33:00.000   22.434307111  114.335384332    61.6752   6   4   0.1143   0.1225   0.2981  -0.0324   0.0496  -0.0633   0.00    0.0
2026/01/15 02:33:30.000   22.434307097  114.335384368    61.6861   6   4   0.1142   0.1223   0.2977  -0.0324   0.0494  -0.0633   0.00    0.0
2026/01/15 02:34:00.000   22.434307080  114.335384403    61.6967   6   4   0.1140   0.1221   0.2974  -0.0324   0.0492  -0.0633   0.00    0.0
2026/01/15 02:34:30.000   22.434307064  114.335384437    61.7073   6   4   0.1138   0.1219   0.2971  -0.0324   0.0490  -0.0633   0.00    0.0
2026/01/15 02:35:00.000   22.434307046  114.335384470    61.7178   6   4   0.1136   0.1217   0.2968  -0.0325   0.0488  -0.0633   0.00    0.0
2026/01/15 02:35:30.000   22.434307029  114.335384502    61.7285   6   4   0.1134   0.1215   0.2965  -0.0325   0.0486  -0.0633   0.00    0.0
2026/01/15 02:36:00.000   22.434307012  114.335384535    61.7392   6   4   0.1133   0.1213   0.2962  -0.0325   0.0484  -0.0632   0.00    0.0
2026/01/15 02:36:30.000   22.434306994  114.335384567    61.7499   6   4   0.1131   0.1211   0.2959  -0.0325   0.0483  -0.0632   0.00    0.0
2026/01/15 02:37:00.000   22.434306977  114.335384598    61.7606   6   4   0.1129   0.1210   0.2956  -0.0325   0.0481  -0.0632   0.00    0.0
2026/01/15 02:37:30.000   22.434306961  114.335384626    61.7713   6   4   0.1128   0.1208   0.2953  -0.0326   0.0479  -0.0632   0.00    0.0
2026/01/15 02:38:00.000   22.434306942  114.335384651    61.7818   6   4   0.1126   0.1206   0.2949  -0.0326   0.0477  -0.0632   0.00    0.0
2026/01/15 02:38:30.000   22.434306923  114.335384677    61.7925   6   4   0.1124   0.1204   0.2946  -0.0326   0.0476  -0.0632   0.00    0.0
2026/01/15 02:39:00.000   22.434306903  114.335384705    61.8035   6   4   0.1122   0.1202   0.2943  -0.0326   0.0474  -0.0631   0.00    0.0
2026/01/15 02:39:30.000   22.434306884  114.335384734    61.8147   6   4   0.1121   0.1200   0.2940  -0.0326   0.0472  -0.0631   0.00    0.0
2026/01/15 02:40:00.000   22.434306865  114.335384761    61.8258   6   4   0.1119   0.1199   0.2937  -0.0326   0.0471  -0.0631   0.00    0.0
2026/01/15 02:40:30.000   22.434306845  114.335384788    61.8367   6   4   0.1117   0.1197   0.2934  -0.0327   0.0469  -0.0630   0.00    0.0
2026/01/15 02:41:00.000   22.434306824  114.335384814    61.8473   6   4   0.1116   0.1195   0.2931  -0.0327   0.0468  -0.0630   0.00    0.0
2026/01/15 02:41:30.000   22.434306804  114.335384838    61.8579   6   4   0.1114   0.1193   0.2928  -0.0327   0.0467  -0.0630   0.00    0.0
2026/01/15 02:42:00.000   22.434306785  114.335384862    61.8683   6   4   0.1112   0.1192   0.2925  -0.0327   0.0465  -0.0629   0.00    0.0
2026/01/15 02:42:30.000   22.434306768  114.335384886    61.8786   6   4   0.1111   0.1190   0.2922  -0.0327   0.0464  -0.0629   0.00    0.0
2026/01/15 02:43:00.000   22.434306750  114.335384909    61.8890   6   4   0.1109   0.1188   0.2919  -0.0327   0.0463  -0.0628   0.00    0.0
2026/01/15 02:43:30.000   22.434306730  114.335384931    61.8994   6   4   0.1107   0.1186   0.2916  -0.0328   0.0461  -0.0628   0.00    0.0
2026/01/15 02:44:00.000   22.434306708  114.335384952    61.9096   6   4   0.1106   0.1185   0.2913  -0.0328   0.0460  -0.0628   0.00    0.0
2026/01/15 02:44:30.000   22.434306684  114.335384973    61.9197   6   4   0.1104   0.1183   0.2910  -0.0328   0.0459  -0.0627   0.00    0.0
2026/01/15 02:45:00.000   22.434306658  114.335384994    61.9300   6   4   0.1103   0.1181   0.2907  -0.0328   0.0458  -0.0627   0.00    0.0
2026/01/15 02:45:30.000   22.434306634  114.335385015    61.9410   6   4   0.1101   0.1179   0.2904  -0.0328   0.0457  -0.0626   0.00    0.0
2026/01/15 02:46:00.000   22.434306608  114.335385037    61.9520   6   4   0.1099   0.1178   0.2901  -0.0328   0.0456  -0.0625   0.00    0.0
2026/01/15 02:46:30.000   22.434306584  114.335385057    61.9630   6   4   0.1098   0.1176   0.2897  -0.0329   0.0455  -0.0625   0.00    0.0
2026/01/15 02:47:00.000   22.434306560  114.335385077    61.9739   6   4   0.1096   0.1174   0.2894  -0.0329   0.0454  -0.0624   0.00    0.0
2026/01/15 02:47:30.000   22.434306536  114.335385095    61.9849   6   4   0.1095   0.1173   0.2891  -0.0329   0.0453  -0.0624   0.00    0.0
2026/01/15 02:48:00.000   22.434306510  114.335385113    61.9965   6   4   0.1093   0.1171   0.2888  -0.0329   0.0453  -0.0623   0.00    0.0
2026/01/15 02:48:30.000   22.434306483  114.335385131    62.0078   6   4   0.1091   0.1170   0.2885  -0.0329   0.0452  -0.0622   0.00    0.0
2026/01/15 02:49:00.000   22.434306455  114.335385148    62.0188   6   4   0.1090   0.1168   0.2882  -0.0329   0.0451  -0.0622   0.00    0.0
2026/01/15 02:49:30.000   22.434306426  114.335385164    62.0294   6   4   0.1088   0.1166   0.2879  -0.0330   0.0450  -0.0621   0.00    0.0
2026/01/15 02:50:00.000   22.434306400  114.335385179    62.0403   6   4   0.1087   0.1165   0.2876  -0.0330   0.0450  -0.0620   0.00    0.0
2026/01/15 02:50:30.000   22.434306376  114.335385193    62.0511   6   4   0.1085   0.1163   0.2873  -0.0330   0.0449  -0.0619   0.00    0.0
2026/01/15 02:51:00.000   22.434306353  114.335385203    62.0619   6   4   0.1084   0.1161   0.2870  -0.0330   0.0449  -0.0619   0.00    0.0
2026/01/15 02:51:30.000   22.434306329  114.335385212    62.0729   6   4   0.1082   0.1160   0.2867  -0.0330   0.0448  -0.0618   0.00    0.0
2026/01/15 02:52:00.000   22.434306304  114.335385220    62.0842   6   4   0.1081   0.1158   0.2864  -0.0330   0.0448  -0.0617   0.00    0.0
2026/01/15 02:52:30.000   22.434306278  114.335385227    62.0955   6   4   0.1079   0.1157   0.2860  -0.0331   0.0448  -0.0616   0.00    0.0
2026/01/15 02:53:00.000   22.434306251  114.335385234    62.1063   6   4   0.1078   0.1155   0.2857  -0.0331   0.0447  -0.0615   0.00    0.0
2026/01/15 02:53:30.000   22.434306223  114.335385240    62.1169   6   4   0.1076   0.1154   0.2854  -0.0331   0.0447  -0.0615   0.00    0.0
2026/01/15 02:54:00.000   22.434306196  114.335385246    62.1274   6   4   0.1075   0.1152   0.2851  -0.0331   0.0447  -0.0614   0.00    0.0
2026/01/15 02:54:30.000   22.434306168  114.335385254    62.1379   6   4   0.1073   0.1150   0.2848  -0.0331   0.0446  -0.0613   0.00    0.0
2026/01/15 02:55:00.000   22.434306139  114.335385264    62.1485   6   4   0.1072   0.1149   0.2845  -0.0331   0.0446  -0.0612   0.00    0.0
2026/01/15 02:55:30.000   22.434306111  114.335385273    62.1593   6   4   0.1070   0.1147   0.2842  -0.0332   0.0446  -0.0611   0.00    0.0
2026/01/15 02:56:00.000   22.434306082  114.335385281    62.1705   6   4   0.1069   0.1146   0.2838  -0.0332   0.0446  -0.0610   0.00    0.0
2026/01/15 02:56:30.000   22.434306046  114.335385295    62.1843   6   4   0.1067   0.1144   0.2834  -0.0331   0.0444  -0.0608   0.00    0.0
2026/01/15 02:57:00.000   22.434306010  114.335385308    62.1977   6   4   0.1066   0.1142   0.2830  -0.0331   0.0442  -0.0606   0.00    0.0
2026/01/15 02:57:30.000   22.434305975  114.335385319    62.2109   6   4   0.1064   0.1141   0.2826  -0.0330   0.0440  -0.0604   0.00    0.0
2026/01/15 02:58:00.000   22.434305940  114.335385330    62.2238   6   4   0.1063   0.1139   0.2822  -0.0330   0.0438  -0.0602   0.00    0.0
2026/01/15 02:58:30.000   22.434305906  114.335385340    62.2364   6   4   0.1061   0.1137   0.2818  -0.0329   0.0436  -0.0599   0.00    0.0
2026/01/15 02:59:00.000   22.434305874  114.335385350    62.2491   6   4   0.1059   0.1135   0.2813  -0.0329   0.0435  -0.0597   0.00    0.0
2026/01/15 02:59:30.000   22.434305842  114.335385359    62.2618   6   4   0.1058   0.1134   0.2809  -0.0328   0.0433  -0.0595   0.00    0.0
2026/01/15 03:00:00.000   22.434305807  114.335385363    62.2766   6   4   0.1056   0.1132   0.2805  -0.0328   0.0431  -0.0593   0.00    0.0
2026/01/15 03:00:30.000   22.434305774  114.335385366    62.2920   6   4   0.1055   0.1130   0.2801  -0.0327   0.0430  -0.0591   0.00    0.0
2026/01/15 03:01:00.000   22.434305740  114.335385369    62.3074   6   4   0.1053   0.1129   0.2796  -0.0326   0.0428  -0.0589   0.00    0.0
2026/01/15 03:01:30.000   22.434305706  114.335385372    62.3223   6   4   0.1051   0.1127   0.2792  -0.0326   0.0427  -0.0587   0.00    0.0
2026/01/15 03:02:00.000   22.434305671  114.335385373    62.3368   6   4   0.1050   0.1125   0.2788  -0.0325   0.0426  -0.0585   0.00    0.0
2026/01/15 03:02:30.000   22.434305636  114.335385373    62.3508   6   4   0.1048   0.1123   0.2784  -0.0325   0.0425  -0.0583   0.00    0.0
2026/01/15 03:03:00.000   22.434305599  114.335385372    62.3646   6   4   0.1047   0.1122   0.2779  -0.0324   0.0423  -0.0581   0.00    0.0
2026/01/15 03:03:30.000   22.434305563  114.335385371    62.3787   6   4   0.1045   0.1120   0.2775  -0.0324   0.0422  -0.0579   0.00    0.0
2026/01/15 03:04:00.000   22.434305528  114.335385371    62.3934   6   4   0.1043   0.1118   0.2771  -0.0323   0.0421  -0.0577   0.00    0.0
2026/01/15 03:04:30.000   22.434305493  114.335385370    62.4083   6   4   0.1042   0.1117   0.2767  -0.0323   0.0420  -0.0575   0.00    0.0
2026/01/15 03:05:00.000   22.434305457  114.335385370    62.4234   6   4   0.1040   0.1115   0.2762  -0.0322   0.0419  -0.0573   0.00    0.0
2026/01/15 03:05:30.000   22.434305422  114.335385369    62.4381   6   4   0.1039   0.1113   0.2758  -0.0322   0.0418  -0.0571   0.00    0.0
2026/01/15 03:06:00.000   22.434305387  114.335385370    62.4526   6   4   0.1037   0.1112   0.2754  -0.0322   0.0417  -0.0569   0.00    0.0
2026/01/15 03:06:30.000   22.434305352  114.335385371    62.4671   6   4   0.1036   0.1110   0.2750  -0.0321   0.0417  -0.0567   0.00    0.0
2026/01/15 03:07:00.000   22.434305317  114.335385371    62.4814   6   4   0.1034   0.1109   0.2746  -0.0321   0.0416  -0.0565   0.00    0.0
2026/01/15 03:07:30.000   22.434305283  114.335385369    62.4956   6   4   0.1033   0.1107   0.2741  -0.0320   0.0415  -0.0563   0.00    0.0
2026/01/15 03:08:00.000   22.434305249  114.335385366    62.5096   6   4   0.1031   0.1105   0.2737  -0.0320   0.0414  -0.0561   0.00    0.0
2026/01/15 03:08:30.000   22.434305214  114.335385362    62.5233   6   4   0.1030   0.1104   0.2733  -0.0319   0.0414  -0.0559   0.00    0.0
2026/01/15 03:09:00.000   22.434305179  114.335385357    62.5372   6   4   0.1028   0.1102   0.2729  -0.0319   0.0413  -0.0557   0.00    0.0
2026/01/15 03:09:30.000   22.434305144  114.335385352    62.5510   6   4   0.1027   0.1101   0.2725  -0.0318   0.0413  -0.0555   0.00    0.0
2026/01/15 03:10:00.000   22.434305111  114.335385344    62.5646   6   4   0.1025   0.1099   0.2721  -0.0318   0.0412  -0.0553   0.00    0.0
2026/01/15 03:10:30.000   22.434305080  114.335385334    62.5781   6   4   0.1024   0.1098   0.2716  -0.0317   0.0412  -0.0551   0.00    0.0
2026/01/15 03:11:00.000   22.434305048  114.335385325    62.5919   6   4   0.1022   0.1096   0.2712  -0.0317   0.0411  -0.0549   0.00    0.0
2026/01/15 03:11:30.000   22.434305016  114.335385315    62.6054   6   4   0.1021   0.1094   0.2708  -0.0317   0.0411  -0.0547   0.00    0.0
2026/01/15 03:12:00.000   22.434304983  114.335385305    62.6186   6   4   0.1020   0.1093   0.2704  -0.0316   0.0411  -0.0545   0.00    0.0
2026/01/15 03:12:30.000   22.434304949  114.335385295    62.6315   6   4   0.1018   0.1091   0.2700  -0.0316   0.0410  -0.0543   0.00    0.0
2026/01/15 03:13:00.000   22.434304916  114.335385287    62.6451   6   4   0.1017   0.1090   0.2696  -0.0315   0.0412  -0.0540   0.00    0.0
2026/01/15 03:13:30.000   22.434304883  114.335385279    62.6588   6   4   0.1015   0.1089   0.2693  -0.0314   0.0413  -0.0538   0.00    0.0
2026/01/15 03:14:00.000   22.434304851  114.335385272    62.6725   6   4   0.1014   0.1087   0.2689  -0.0314   0.0415  -0.0535   0.00    0.0
2026/01/15 03:14:30.000   22.434304818  114.335385264    62.6858   6   4   0.1013   0.1086   0.2686  -0.0313   0.0416  -0.0533   0.00    0.0
2026/01/15 03:15:00.000   22.434304787  114.335385257    62.6989   6   4   0.1011   0.1085   0.2682  -0.0312   0.0418  -0.0530   0.00    0.0
2026/01/15 03:15:30.000   22.434304756  114.335385251    62.7119   6   4   0.1010   0.1084   0.2679  -0.0311   0.0419  -0.0528   0.00    0.0
2026/01/15 03:16:00.000   22.434304725  114.335385245    62.7246   6   4   0.1009   0.1082   0.2675  -0.0311   0.0420  -0.0525   0.00    0.0
2026/01/15 03:40:00.000   22.434303691  114.335384642    63.3007   6   4   0.0958   0.1026   0.2516  -0.0284   0.0505  -0.0397   0.00    0.0
2026/01/15 03:40:30.000   22.434303677  114.335384626    63.3115   6   4   0.0957   0.1025   0.2512  -0.0284   0.0507  -0.0394   0.00    0.0
2026/01/15 03:41:00.000   22.434303663  114.335384609    63.3225   6   4   0.0956   0.1024   0.2509  -0.0284   0.0509  -0.0392   0.00    0.0
2026/01/15 03:41:30.000   22.434303645  114.335384597    63.3313   6   4   0.0956   0.1023   0.2506  -0.0283   0.0510  -0.0389   0.00    0.0
2026/01/15 03:44:30.000   22.434303586  114.335384571    63.3669   6   4   0.0951   0.1017   0.2491  -0.0282   0.0518  -0.0372   0.00    0.0
2026/01/15 03:45:00.000   22.434303569  114.335384560    63.3746   6   4   0.0950   0.1016   0.2488  -0.0281   0.0519  -0.0369   0.00    0.0
2026/01/15 03:47:30.000   22.434303525  114.335384526    63.4012   6   4   0.0947   0.1011   0.2474  -0.0280   0.0526  -0.0356   0.00    0.0
2026/01/15 03:48:00.000   22.434303508  114.335384514    63.4081   6   4   0.0946   0.1010   0.2472  -0.0280   0.0527  -0.0353   0.00    0.0
2026/01/15 03:48:30.000   22.434303491  114.335384502    63.4148   6   4   0.0945   0.1009   0.2469  -0.0280   0.0528  -0.0350   0.00    0.0
2026/01/15 03:49:00.000   22.434303474  114.335384490    63.4212   6   4   0.0945   0.1008   0.2466  -0.0280   0.0530  -0.0347   0.00    0.0
2026/01/15 03:49:30.000   22.434303456  114.335384480    63.4271   6   4   0.0944   0.1007   0.2463  -0.0280   0.0531  -0.0345   0.00    0.0
2026/01/15 03:50:00.000   22.434303438  114.335384471    63.4329   6   4   0.0943   0.1007   0.2461  -0.0279   0.0533  -0.0342   0.00    0.0
2026/01/15 03:50:30.000   22.434303421  114.335384462    63.4385   6   4   0.0943   0.1006   0.2458  -0.0279   0.0534  -0.0339   0.00    0.0
2026/01/15 03:51:00.000   22.434303403  114.335384453    63.4440   6   4   0.0942   0.1005   0.2455  -0.0279   0.0536  -0.0336   0.00    0.0
2026/01/15 03:51:30.000   22.434303385  114.335384444    63.4496   6   4   0.0941   0.1004   0.2452  -0.0279   0.0537  -0.0333   0.00    0.0
2026/01/15 03:52:00.000   22.434303367  114.335384434    63.4551   6   4   0.0940   0.1003   0.2450  -0.0279   0.0539  -0.0331   0.00    0.0
2026/01/15 03:52:30.000   22.434303348  114.335384424    63.4605   6   4   0.0940   0.1002   0.2447  -0.0279   0.0540  -0.0328   0.00    0.0
2026/01/15 03:53:00.000   22.434303330  114.335384413    63.4657   6   4   0.0939   0.1001   0.2444  -0.0279   0.0541  -0.0325   0.00    0.0
2026/01/15 03:53:30.000   22.434303311  114.335384402    63.4708   6   4   0.0938   0.1000   0.2442  -0.0278   0.0543  -0.0323   0.00    0.0
2026/01/15 03:54:00.000   22.434303293  114.335384392    63.4759   6   4   0.0938   0.0999   0.2439  -0.0278   0.0544  -0.0320   0.00    0.0
2026/01/15 03:54:30.000   22.434303275  114.335384383    63.4808   6   4   0.0937   0.0998   0.2436  -0.0278   0.0546  -0.0317   0.00    0.0
2026/01/15 03:55:00.000   22.434303255  114.335384376    63.4855   6   4   0.0936   0.0997   0.2433  -0.0278   0.0547  -0.0315   0.00    0.0
2026/01/15 03:55:30.000   22.434303234  114.335384368    63.4900   6   4   0.0936   0.0996   0.2431  -0.0278   0.0549  -0.0312   0.00    0.0
2026/01/15 03:56:00.000   22.434303214  114.335384360    63.4941   6   4   0.0935   0.0995   0.2428  -0.0278   0.0550  -0.0309   0.00    0.0
2026/01/15 03:56:30.000   22.434303194  114.335384352    63.4978   6   4   0.0934   0.0994   0.2425  -0.0278   0.0551  -0.0307   0.00    0.0
2026/01/15 03:57:00.000   22.434303174  114.335384343    63.5013   6   4   0.0934   0.0994   0.2423  -0.0278   0.0553  -0.0304   0.00    0.0
2026/01/15 03:59:00.000   22.434303122  114.335384330    63.5074   6   4   0.0931   0.0990   0.2412  -0.0277   0.0558  -0.0295   0.00    0.0
2026/01/15 03:59:30.000   22.434303104  114.335384326    63.5092   6   4   0.0931   0.0989   0.2410  -0.0277   0.0560  -0.0292   0.00    0.0
2026/01/15 04:00:00.000   22.434303087  114.335384323    63.5107   6   4   0.0930   0.0988   0.2407  -0.0277   0.0561  -0.0290   0.00    0.0
2026/01/15 04:00:30.000   22.434303068  114.335384320    63.5123   6   4   0.0930   0.0987   0.2405  -0.0277   0.0563  -0.0287   0.00    0.0
2026/01/15 04:01:00.000   22.434303048  114.335384317    63.5140   6   4   0.0929   0.0987   0.2402  -0.0277   0.0564  -0.0285   0.00    0.0
2026/01/15 04:01:30.000   22.434303028  114.335384312    63.5158   6   4   0.0928   0.0986   0.2399  -0.0277   0.0566  -0.0283   0.00    0.0
2026/01/15 04:02:00.000   22.434303008  114.335384307    63.5175   6   4   0.0928   0.0985   0.2397  -0.0277   0.0567  -0.0280   0.00    0.0
2026/01/15 04:02:30.000   22.434302987  114.335384301    63.5190   6   4   0.0927   0.0984   0.2394  -0.0277   0.0568  -0.0278   0.00    0.0
2026/01/15 04:03:00.000   22.434302967  114.335384297    63.5204   6   4   0.0927   0.0983   0.2392  -0.0276   0.0570  -0.0276   0.00    0.0
2026/01/15 04:03:30.000   22.434302947  114.335384293    63.5216   6   4   0.0926   0.0982   0.2389  -0.0276   0.0571  -0.0273   0.00    0.0
2026/01/15 12:24:30.000   22.434311653  114.335385457    65.4839   6   4   0.0580   0.0605   0.1442  -0.0183   0.0237  -0.0127   0.00    0.0
2026/01/15 12:33:00.000   22.434311142  114.335385257    65.5031   6   4   0.0574   0.0598   0.1431  -0.0179   0.0226  -0.0139   0.00    0.0
2026/01/15 12:33:30.000   22.434311106  114.335385245    65.5022   6   4   0.0574   0.0597   0.1430  -0.0179   0.0225  -0.0139   0.00    0.0
2026/01/15 12:34:00.000   22.434311070  114.335385233    65.5013   6   4   0.0574   0.0597   0.1429  -0.0178   0.0224  -0.0139   0.00    0.0
2026/01/15 12:34:30.000   22.434311034  114.335385222    65.5004   6   4   0.0573   0.0596   0.1429  -0.0178   0.0224  -0.0140   0.00    0.0
2026/01/15 12:46:30.000   22.434310163  114.335384959    65.5142   6   4   0.0566   0.0586   0.1415  -0.0174   0.0210  -0.0144   0.00    0.0
2026/01/15 12:47:00.000   22.434310127  114.335384950    65.5161   6   4   0.0566   0.0585   0.1414  -0.0173   0.0210  -0.0144   0.00    0.0
2026/01/15 12:47:30.000   22.434310090  114.335384940    65.5179   6   4   0.0566   0.0585   0.1414  -0.0173   0.0209  -0.0144   0.00    0.0
2026/01/15 12:48:00.000   22.434310053  114.335384930    65.5197   6   4   0.0565   0.0585   0.1413  -0.0173   0.0209  -0.0144   0.00    0.0
2026/01/15 12:48:30.000   22.434310016  114.335384919    65.5214   6   4   0.0565   0.0584   0.1413  -0.0173   0.0209  -0.0144   0.00    0.0
2026/01/15 12:49:00.000   22.434309979  114.335384908    65.5231   6   4   0.0565   0.0584   0.1412  -0.0173   0.0208  -0.0144   0.00    0.0
2026/01/15 12:49:30.000   22.434309942  114.335384898    65.5247   6   4   0.0564   0.0583   0.1412  -0.0172   0.0208  -0.0144   0.00    0.0
2026/01/15 12:50:00.000   22.434309905  114.335384889    65.5265   6   4   0.0564   0.0583   0.1411  -0.0172   0.0207  -0.0144   0.00    0.0
2026/01/15 12:50:30.000   22.434309867  114.335384879    65.5283   6   4   0.0564   0.0582   0.1411  -0.0172   0.0207  -0.0144   0.00    0.0
2026/01/15 12:51:00.000   22.434309830  114.335384869    65.5302   6   4   0.0564   0.0582   0.1410  -0.0172   0.0207  -0.0144   0.00    0.0
2026/01/15 12:51:30.000   22.434309792  114.335384856    65.5323   6   4   0.0563   0.0581   0.1410  -0.0172   0.0206  -0.0145   0.00    0.0
2026/01/15 12:52:00.000   22.434309755  114.335384844    65.5344   6   4   0.0563   0.0581   0.1409  -0.0172   0.0206  -0.0145   0.00    0.0
2026/01/15 12:52:30.000   22.434309719  114.335384832    65.5365   6   4   0.0563   0.0581   0.1408  -0.0171   0.0206  -0.0145   0.00    0.0
2026/01/15 12:53:00.000   22.434309683  114.335384819    65.5387   6   4   0.0562   0.0580   0.1408  -0.0171   0.0205  -0.0145   0.00    0.0
2026/01/15 12:53:30.000   22.434309648  114.335384807    65.5410   6   4   0.0562   0.0580   0.1407  -0.0171   0.0205  -0.0145   0.00    0.0
2026/01/15 12:54:00.000   22.434309614  114.335384796    65.5433   6   4   0.0562   0.0579   0.1407  -0.0171   0.0205  -0.0145   0.00    0.0
2026/01/15 12:54:30.000   22.434309579  114.335384785    65.5455   6   4   0.0562   0.0579   0.1406  -0.0171   0.0204  -0.0145   0.00    0.0
2026/01/15 12:55:00.000   22.434309544  114.335384772    65.5479   6   4   0.0561   0.0578   0.1406  -0.0170   0.0204  -0.0145   0.00    0.0
2026/01/15 12:55:30.000   22.434309508  114.335384760    65.5503   6   4   0.0561   0.0578   0.1405  -0.0170   0.0204  -0.0146   0.00    0.0
2026/01/15 12:56:00.000   22.434309472  114.335384747    65.5528   6   4   0.0561   0.0578   0.1405  -0.0170   0.0204  -0.0146   0.00    0.0
2026/01/15 12:56:30.000   22.434309436  114.335384734    65.5554   6   4   0.0560   0.0577   0.1404  -0.0170   0.0203  -0.0146   0.00    0.0
2026/01/15 12:57:00.000   22.434309400  114.335384722    65.5581   6   4   0.0560   0.0577   0.1403  -0.0170   0.0203  -0.0146   0.00    0.0
2026/01/15 12:57:30.000   22.434309364  114.335384711    65.5607   6   4   0.0560   0.0576   0.1403  -0.0170   0.0203  -0.0146   0.00    0.0
2026/01/15 12:58:00.000   22.434309328  114.335384700    65.5632   6   4   0.0560   0.0576   0.1402  -0.0169   0.0203  -0.0146   0.00    0.0
2026/01/15 12:58:30.000   22.434309292  114.335384688    65.5656   6   4   0.0559   0.0575   0.1402  -0.0169   0.0203  -0.0146   0.00    0.0
2026/01/15 12:59:00.000   22.434309256  114.335384676    65.5678   6   4   0.0559   0.0575   0.1401  -0.0169   0.0202  -0.0146   0.00    0.0
2026/01/15 12:59:30.000   22.434309220  114.335384663    65.5701   6   4   0.0559   0.0574   0.1401  -0.0169   0.0202  -0.0147   0.00    0.0
2026/01/15 13:00:00.000   22.434309185  114.335384651    65.5728   6   4   0.0558   0.0574   0.1400  -0.0169   0.0202  -0.0147   0.00    0.0
2026/01/15 13:00:30.000   22.434309149  114.335384639    65.5756   6   4   0.0558   0.0574   0.1399  -0.0168   0.0202  -0.0147   0.00    0.0
2026/01/15 13:01:00.000   22.434309114  114.335384628    65.5784   6   4   0.0558   0.0573   0.1399  -0.0168   0.0202  -0.0147   0.00    0.0
2026/01/15 13:01:30.000   22.434309078  114.335384616    65.5814   6   4   0.0558   0.0573   0.1398  -0.0168   0.0202  -0.0147   0.00    0.0
2026/01/15 13:02:00.000   22.434309043  114.335384605    65.5844   6   4   0.0557   0.0572   0.1398  -0.0168   0.0202  -0.0147   0.00    0.0
2026/01/15 13:02:30.000   22.434309008  114.335384595    65.5874   6   4   0.0557   0.0572   0.1397  -0.0168   0.0202  -0.0148   0.00    0.0
2026/01/15 13:03:00.000   22.434308974  114.335384584    65.5904   6   4   0.0557   0.0571   0.1396  -0.0168   0.0201  -0.0148   0.00    0.0
2026/01/15 13:03:30.000   22.434308939  114.335384573    65.5934   6   4   0.0556   0.0571   0.1396  -0.0167   0.0201  -0.0148   0.00    0.0
2026/01/15 13:04:00.000   22.434308905  114.335384563    65.5964   6   4   0.0556   0.0571   0.1395  -0.0167   0.0201  -0.0148   0.00    0.0
2026/01/15 13:04:30.000   22.434308871  114.335384553    65.5998   6   4   0.0556   0.0570   0.1395  -0.0167   0.0201  -0.0148   0.00    0.0
2026/01/15 13:05:00.000   22.434308836  114.335384543    65.6034   6   4   0.0556   0.0570   0.1394  -0.0167   0.0201  -0.0148   0.00    0.0
2026/01/15 13:05:30.000   22.434308801  114.335384532    65.6070   6   4   0.0555   0.0569   0.1393  -0.0167   0.0201  -0.0149   0.00    0.0
2026/01/15 13:06:00.000   22.434308765  114.335384522    65.6106   6   4   0.0555   0.0569   0.1393  -0.0166   0.0201  -0.0149   0.00    0.0
2026/01/15 13:06:30.000   22.434308730  114.335384510    65.6141   6   4   0.0555   0.0568   0.1392  -0.0166   0.0201  -0.0149   0.00    0.0
2026/01/15 13:07:00.000   22.434308693  114.335384498    65.6175   6   4   0.0554   0.0568   0.1392  -0.0166   0.0201  -0.0149   0.00    0.0
2026/01/15 13:07:30.000   22.434308657  114.335384486    65.6208   6   4   0.0554   0.0568   0.1391  -0.0166   0.0201  -0.0149   0.00    0.0
2026/01/15 13:08:00.000   22.434308619  114.335384476    65.6242   6   4   0.0554   0.0567   0.1390  -0.0166   0.0201  -0.0149   0.00    0.0
2026/01/15 13:08:30.000   22.434308582  114.335384467    65.6276   6   4   0.0554   0.0567   0.1390  -0.0166   0.0201  -0.0150   0.00    0.0
2026/01/15 13:09:00.000   22.434308545  114.335384458    65.6309   6   4   0.0553   0.0566   0.1389  -0.0165   0.0201  -0.0150   0.00    0.0
2026/01/15 13:09:30.000   22.434308509  114.335384449    65.6341   6   4   0.0553   0.0566   0.1389  -0.0165   0.0201  -0.0150   0.00    0.0
2026/01/15 13:10:00.000   22.434308474  114.335384439    65.6372   6   4   0.0553   0.0565   0.1388  -0.0165   0.0201  -0.0150   0.00    0.0
2026/01/15 13:10:30.000   22.434308439  114.335384428    65.6403   6   4   0.0553   0.0565   0.1387  -0.0165   0.0202  -0.0151   0.00    0.0
2026/01/15 13:11:00.000   22.434308404  114.335384418    65.6435   6   4   0.0552   0.0565   0.1387  -0.0165   0.0202  -0.0151   0.00    0.0
2026/01/15 13:11:30.000   22.434308369  114.335384407    65.6467   6   4   0.0552   0.0564   0.1386  -0.0164   0.0202  -0.0151   0.00    0.0
2026/01/15 13:12:00.000   22.434308334  114.335384398    65.6499   6   4   0.0552   0.0564   0.1386  -0.0164   0.0202  -0.0151   0.00    0.0
2026/01/15 13:12:30.000   22.434308298  114.335384388    65.6532   6   4   0.0551   0.0563   0.1385  -0.0164   0.0202  -0.0151   0.00    0.0
2026/01/15 13:13:00.000   22.434308261  114.335384379    65.6559   6   4   0.0551   0.0563   0.1384  -0.0164   0.0202  -0.0151   0.00    0.0
2026/01/15 13:13:30.000   22.434308224  114.335384369    65.6585   6   4   0.0551   0.0563   0.1384  -0.0164   0.0202  -0.0151   0.00    0.0
2026/01/15 13:14:00.000   22.434308188  114.335384359    65.6609   6   4   0.0551   0.0562   0.1383  -0.0164   0.0202  -0.0151   0.00    0.0
2026/01/15 13:14:30.000   22.434308151  114.335384349    65.6634   6   4   0.0551   0.0562   0.1383  -0.0164   0.0202  -0.0150   0.00    0.0
2026/01/15 13:15:00.000   22.434308114  114.335384338    65.6658   6   4   0.0550   0.0561   0.1382  -0.0163   0.0203  -0.0150   0.00    0.0
2026/01/15 13:15:30.000   22.434308078  114.335384326    65.6680   6   4   0.0550   0.0561   0.1382  -0.0163   0.0203  -0.0150   0.00    0.0
2026/01/15 13:16:00.000   22.434308041  114.335384314    65.6701   6   4   0.0550   0.0560   0.1381  -0.0163   0.0203  -0.0149   0.00    0.0
2026/01/15 13:16:30.000   22.434308004  114.335384302    65.6722   6   4   0.0550   0.0560   0.1381  -0.0163   0.0203  -0.0149   0.00    0.0
2026/01/15 13:17:00.000   22.434307967  114.335384290    65.6744   6   4   0.0549   0.0560   0.1380  -0.0163   0.0203  -0.0149   0.00    0.0
2026/01/15 13:17:30.000   22.434307929  114.335384278    65.6767   6   4   0.0549   0.0559   0.1380  -0.0163   0.0203  -0.0149   0.00    0.0
2026/01/15 13:18:00.000   22.434307891  114.335384266    65.6789   6   4   0.0549   0.0559   0.1379  -0.0162   0.0203  -0.0149   0.00    0.0
2026/01/15 13:18:30.000   22.434307853  114.335384254    65.6811   6   4   0.0549   0.0558   0.1379  -0.0162   0.0204  -0.0148   0.00    0.0
2026/01/15 13:19:00.000   22.434307815  114.335384243    65.6832   6   4   0.0548   0.0558   0.1378  -0.0162   0.0204  -0.0148   0.00    0.0
2026/01/15 13:19:30.000   22.434307777  114.335384233    65.6852   6   4   0.0548   0.0558   0.1378  -0.0162   0.0204  -0.0148   0.00    0.0
2026/01/15 13:20:00.000   22.434307740  114.335384223    65.6870   6   4   0.0548   0.0557   0.1377  -0.0162   0.0204  -0.0148   0.00    0.0
2026/01/15 13:20:30.000   22.434307702  114.335384214    65.6889   6   4   0.0548   0.0557   0.1377  -0.0162   0.0205  -0.0148   0.00    0.0
2026/01/15 13:21:00.000   22.434307665  114.335384205    65.6906   6   4   0.0548   0.0556   0.1376  -0.0161   0.0205  -0.0148   0.00    0.0
2026/01/15 13:21:30.000   22.434307628  114.335384195    65.6922   6   4   0.0547   0.0556   0.1376  -0.0161   0.0205  -0.0147   0.00    0.0
2026/01/15 13:22:00.000   22.434307591  114.335384186    65.6938   6   4   0.0547   0.0556   0.1375  -0.0161   0.0205  -0.0147   0.00    0.0
2026/01/15 13:22:30.000   22.434307553  114.335384177    65.6952   6   4   0.0547   0.0555   0.1375  -0.0161   0.0205  -0.0147   0.00    0.0
2026/01/15 13:23:00.000   22.434307515  114.335384168    65.6966   6   4   0.0547   0.0555   0.1374  -0.0161   0.0206  -0.0147   0.00    0.0
2026/01/15 13:23:30.000   22.434307478  114.335384158    65.6979   6   4   0.0546   0.0554   0.1374  -0.0161   0.0206  -0.0147   0.00    0.0
2026/01/15 13:24:00.000   22.434307440  114.335384150    65.6990   6   4   0.0546   0.0554   0.1373  -0.0161   0.0206  -0.0147   0.00    0.0
2026/01/15 13:24:30.000   22.434307402  114.335384141    65.7001   6   4   0.0546   0.0554   0.1373  -0.0160   0.0207  -0.0147   0.00    0.0
2026/01/15 13:25:00.000   22.434307362  114.335384133    65.7012   6   4   0.0546   0.0553   0.1372  -0.0160   0.0207  -0.0147   0.00    0.0
2026/01/15 13:25:30.000   22.434307323  114.335384125    65.7023   6   4   0.0545   0.0553   0.1372  -0.0160   0.0207  -0.0147   0.00    0.0
2026/01/15 13:26:00.000   22.434307284  114.335384117    65.7035   6   4   0.0545   0.0552   0.1371  -0.0160   0.0207  -0.0147   0.00    0.0
2026/01/15 13:26:30.000   22.434307244  114.335384108    65.7048   6   4   0.0545   0.0552   0.1371  -0.0160   0.0208  -0.0147   0.00    0.0
2026/01/15 13:27:00.000   22.434307204  114.335384099    65.7059   6   4   0.0545   0.0552   0.1370  -0.0160   0.0208  -0.0147   0.00    0.0
2026/01/15 13:27:30.000   22.434307164  114.335384090    65.7070   6   4   0.0545   0.0551   0.1370  -0.0159   0.0208  -0.0147   0.00    0.0
2026/01/15 13:28:00.000   22.434307125  114.335384081    65.7078   6   4   0.0544   0.0551   0.1369  -0.0159   0.0209  -0.0147   0.00    0.0
2026/01/15 13:28:30.000   22.434307086  114.335384073    65.7085   6   4   0.0544   0.0550   0.1368  -0.0159   0.0209  -0.0147   0.00    0.0
2026/01/15 13:29:00.000   22.434307047  114.335384066    65.7090   6   4   0.0544   0.0550   0.1368  -0.0159   0.0209  -0.0147   0.00    0.0
2026/01/15 13:29:30.000   22.434307008  114.335384058    65.7092   6   4   0.0544   0.0550   0.1367  -0.0159   0.0210  -0.0147   0.00    0.0
2026/01/15 13:30:00.000   22.434306969  114.335384050    65.7093   6   4   0.0543   0.0549   0.1367  -0.0159   0.0210  -0.0147   0.00    0.0
2026/01/15 13:30:30.000   22.434306931  114.335384042    65.7096   6   4   0.0543   0.0549   0.1366  -0.0158   0.0210  -0.0147   0.00    0.0
2026/01/15 13:31:00.000   22.434306893  114.335384034    65.7096   6   4   0.0543   0.0548   0.1366  -0.0158   0.0211  -0.0147   0.00    0.0
2026/01/15 13:31:30.000   22.434306856  114.335384026    65.7097   6   4   0.0543   0.0548   0.1365  -0.0158   0.0211  -0.0147   0.00    0.0
2026/01/15 13:32:00.000   22.434306817  114.335384018    65.7097   6   4   0.0542   0.0548   0.1364  -0.0158   0.0211  -0.0147   0.00    0.0
2026/01/15 13:32:30.000   22.434306779  114.335384011    65.7095   6   4   0.0542   0.0547   0.1364  -0.0158   0.0212  -0.0148   0.00    0.0
2026/01/15 13:33:00.000   22.434306740  114.335384003    65.7094   6   4   0.0542   0.0547   0.1363  -0.0158   0.0212  -0.0148   0.00    0.0
2026/01/15 13:33:30.000   22.434306701  114.335383996    65.7093   6   4   0.0542   0.0546   0.1363  -0.0158   0.0213  -0.0148   0.00    0.0
