% program   : RTKLIB ver.EX 2.5.0
% inp file  : C:\PPP_PROJECT\RTKLIB_work\runs\HKWS_4A_20260508_102907\HKWS00HKG_R_20260150000_01D_30S_MO.rnx
% inp file  : C:\PPP_PROJECT\RTKLIB_work\runs\HKWS_4A_20260508_102907\BRDC00IGS_R_20260150000_01D_MN.rnx
% inp file  : C:\PPP_PROJECT\RTKLIB_work\runs\HKWS_4A_20260508_102907
% inp file  : C:\PPP_PROJECT\RTKLIB_work\runs\HKWS_4A_20260508_102907
% inp file  : C:\PPP_PROJECT\RTKLIB_work\runs\HKWS_4A_20260508_102907
% inp file  : C:\PPP_PROJECT\RTKLIB_work\runs\HKWS_4A_20260508_102907
% obs start : 2026/01/15 00:00:00.0 GPST (week2401 345600.0s)
% obs end   : 2026/01/15 23:59:30.0 GPST (week2401 431970.0s)
% pos mode  : PPP Static
% freqs     : L1
% solution  : Forward
% elev mask : 15.0 deg
% dynamics  : on
% tidecorr  :
% ionos opt : Broadcast
% tropo opt : Saastamoinen
% ephemeris : Broadcast
% navi sys  : GPS
% antenna1  :                       ( 0.0000  0.0000  0.0000)
%
% (lat/lon/height=WGS84/ellipsoidal,Q=1:fix,2:float,3:sbas,4:dgps,5:single,6:ppp,ns=# of satellites)
%  GPST                  latitude(deg) longitude(deg)  height(m)   Q  ns   sdn(m)   sde(m)   sdu(m)  sdne(m)  sdeu(m)  sdun(m) age(s)  ratio
2026/01/15 00:00:30.000   22.434304315  114.335357900    57.3293   6   5   1.8089   2.1772   5.2113  -1.0736   1.8424  -1.4414   0.00    0.0
2026/01/15 00:01:00.000   22.434304120  114.335358439    57.3484   6   5   1.4779   1.7798   4.2576  -0.8778   1.5082  -1.1765   0.00    0.0
2026/01/15 00:01:30.000   22.434304115  114.335358834    57.3497   6   5   1.2805   1.5429   3.6869  -0.7609   1.3083  -1.0177   0.00    0.0
2026/01/15 00:02:00.000   22.434304192  114.335359178    57.2990   6   5   1.1458   1.3812   3.2964  -0.6810   1.1718  -0.9089   0.00    0.0
2026/01/15 00:02:30.000   22.434304205  114.335359453    57.2312   6   5   1.0463   1.2619   3.0075  -0.6220   1.0709  -0.8283   0.00    0.0
2026/01/15 00:03:00.000   22.434304199  114.335359654    57.1931   6   5   0.9690   1.1692   2.7827  -0.5762   0.9925  -0.7655   0.00    0.0
2026/01/15 00:03:30.000   22.434304221  114.335359839    57.1771   6   5   0.9067   1.0945   2.6012  -0.5392   0.9292  -0.7147   0.00    0.0
2026/01/15 00:04:00.000   22.434304249  114.335359937    57.1927   6   5   0.8551   1.0327   2.4507  -0.5086   0.8769  -0.6726   0.00    0.0
2026/01/15 00:04:30.000   22.434304252  114.335359950    57.2202   6   5   0.8115   0.9804   2.3232  -0.4827   0.8326  -0.6369   0.00    0.0
2026/01/15 00:05:00.000   22.434304240  114.335359952    57.2400   6   5   0.7740   0.9355   2.2134  -0.4604   0.7945  -0.6061   0.00    0.0
2026/01/15 00:05:30.000   22.434304270  114.335359962    57.2403   6   5   0.7413   0.8963   2.1176  -0.4410   0.7613  -0.5792   0.00    0.0
2026/01/15 00:06:00.000   22.434304309  114.335359941    57.2390   6   5   0.7124   0.8618   2.0329  -0.4239   0.7320  -0.5555   0.00    0.0
2026/01/15 00:06:30.000   22.434304340  114.335359910    57.2392   6   5   0.6867   0.8311   1.9574  -0.4086   0.7060  -0.5343   0.00    0.0
2026/01/15 00:07:00.000   22.434304322  114.335359929    57.2534   6   5   0.6637   0.8035   1.8895  -0.3949   0.6826  -0.5152   0.00    0.0
2026/01/15 00:07:30.000   22.434304266  114.335360005    57.2824   6   5   0.6428   0.7785   1.8280  -0.3825   0.6614  -0.4979   0.00    0.0
2026/01/15 00:08:00.000   22.434304194  114.335360110    57.3190   6   4   0.6239   0.7559   1.7719  -0.3713   0.6421  -0.4822   0.00    0.0
2026/01/15 00:08:30.000   22.434304122  114.335360198    57.3530   6   4   0.6065   0.7351   1.7206  -0.3610   0.6245  -0.4677   0.00    0.0
2026/01/15 00:09:00.000   22.434304055  114.335360285    57.3801   6   5   0.5906   0.7160   1.6733  -0.3515   0.6083  -0.4544   0.00    0.0
2026/01/15 00:09:30.000   22.434304015  114.335360344    57.3976   6   5   0.5758   0.6984   1.6296  -0.3427   0.5933  -0.4421   0.00    0.0
2026/01/15 00:10:00.000   22.434304000  114.335360375    57.4182   6   5   0.5622   0.6821   1.5890  -0.3346   0.5795  -0.4307   0.00    0.0
2026/01/15 00:10:30.000   22.434304020  114.335360372    57.4339   6   5   0.5495   0.6669   1.5512  -0.3270   0.5666  -0.4201   0.00    0.0
2026/01/15 00:11:00.000   22.434304071  114.335360317    57.4381   6   5   0.5376   0.6527   1.5158  -0.3199   0.5545  -0.4101   0.00    0.0
2026/01/15 00:11:30.000   22.434304132  114.335360265    57.4421   6   5   0.5265   0.6395   1.4826  -0.3133   0.5432  -0.4008   0.00    0.0
2026/01/15 00:12:00.000   22.434304194  114.335360261    57.4513   6   5   0.5161   0.6270   1.4515  -0.3071   0.5326  -0.3920   0.00    0.0
2026/01/15 00:12:30.000   22.434304251  114.335360301    57.4646   6   5   0.5063   0.6153   1.4221  -0.3013   0.5227  -0.3837   0.00    0.0
2026/01/15 00:13:00.000   22.434304329  114.335360332    57.4683   6   5   0.4970   0.6043   1.3944  -0.2958   0.5133  -0.3759   0.00    0.0
2026/01/15 00:13:30.000   22.434304429  114.335360344    57.4627   6   5   0.4883   0.5938   1.3681  -0.2906   0.5044  -0.3686   0.00    0.0
2026/01/15 00:14:00.000   22.434304509  114.335360340    57.4565   6   5   0.4800   0.5839   1.3432  -0.2856   0.4960  -0.3616   0.00    0.0
2026/01/15 00:14:30.000   22.434304563  114.335360342    57.4527   6   5   0.4721   0.5745   1.3196  -0.2809   0.4880  -0.3549   0.00    0.0
2026/01/15 00:15:00.000   22.434304594  114.335360331    57.4508   6   5   0.4647   0.5656   1.2970  -0.2765   0.4804  -0.3486   0.00    0.0
2026/01/15 00:15:30.000   22.434304646  114.335360285    57.4397   6   5   0.4576   0.5571   1.2756  -0.2722   0.4732  -0.3426   0.00    0.0
2026/01/15 00:16:00.000   22.434304713  114.335360245    57.4257   6   5   0.4508   0.5491   1.2551  -0.2682   0.4663  -0.3368   0.00    0.0
2026/01/15 00:16:30.000   22.434304774  114.335360250    57.4198   6   5   0.4443   0.5413   1.2355  -0.2643   0.4598  -0.3313   0.00    0.0
2026/01/15 00:17:00.000   22.434304821  114.335360296    57.4117   6   5   0.4381   0.5340   1.2168  -0.2606   0.4535  -0.3261   0.00    0.0
2026/01/15 00:17:30.000   22.434304872  114.335360353    57.4016   6   5   0.4322   0.5269   1.1988  -0.2571   0.4475  -0.3211   0.00    0.0
2026/01/15 00:18:00.000   22.434304941  114.335360401    57.3896   6   5   0.4266   0.5201   1.1816  -0.2537   0.4418  -0.3162   0.00    0.0
2026/01/15 00:18:30.000   22.434305004  114.335360477    57.3800   6   5   0.4211   0.5136   1.1650  -0.2504   0.4362  -0.3116   0.00    0.0
2026/01/15 00:19:00.000   22.434305040  114.335360579    57.3776   6   5   0.4159   0.5074   1.1491  -0.2473   0.4309  -0.3072   0.00    0.0
2026/01/15 00:19:30.000   22.434305058  114.335360688    57.3832   6   6   0.4109   0.5014   1.1338  -0.2443   0.4258  -0.3029   0.00    0.0
2026/01/15 00:20:00.000   22.434305080  114.335360783    57.3974   6   5   0.4061   0.4956   1.1191  -0.2414   0.4210  -0.2988   0.00    0.0
2026/01/15 00:20:30.000   22.434305111  114.335360853    57.4154   6   5   0.4015   0.4901   1.1048  -0.2387   0.4162  -0.2948   0.00    0.0
2026/01/15 00:21:00.000   22.434305148  114.335360916    57.4298   6   5   0.3970   0.4847   1.0911  -0.2360   0.4117  -0.2910   0.00    0.0
2026/01/15 00:21:30.000   22.434305163  114.335360992    57.4358   6   6   0.3927   0.4796   1.0779  -0.2334   0.4073  -0.2873   0.00    0.0
2026/01/15 00:22:00.000   22.434305172  114.335361058    57.4342   6   6   0.3885   0.4746   1.0651  -0.2309   0.4031  -0.2838   0.00    0.0
2026/01/15 00:22:30.000   22.434305193  114.335361117    57.4285   6   6   0.3845   0.4698   1.0527  -0.2285   0.3991  -0.2804   0.00    0.0
2026/01/15 00:23:00.000   22.434305233  114.335361182    57.4245   6   6   0.3806   0.4651   1.0407  -0.2261   0.3951  -0.2771   0.00    0.0
2026/01/15 00:23:30.000   22.434305264  114.335361262    57.4250   6   6   0.3768   0.4606   1.0291  -0.2239   0.3913  -0.2739   0.00    0.0
2026/01/15 00:24:00.000   22.434305296  114.335361338    57.4262   6   6   0.3731   0.4563   1.0179  -0.2217   0.3876  -0.2708   0.00    0.0
2026/01/15 00:24:30.000   22.434305436  114.335361434    57.3697   6   6   0.3700   0.4521   1.0094  -0.2194   0.3838  -0.2700   0.00    0.0
2026/01/15 00:25:00.000   22.434305571  114.335361513    57.3140   6   5   0.3670   0.4480   1.0012  -0.2172   0.3800  -0.2692   0.00    0.0
2026/01/15 00:25:30.000   22.434305437  114.335362021    57.3759   6   6   0.3629   0.4420   0.9875  -0.2123   0.3704  -0.2628   0.00    0.0
2026/01/15 00:26:00.000   22.434305325  114.335362508    57.4386   6   6   0.3590   0.4363   0.9743  -0.2076   0.3613  -0.2567   0.00    0.0
2026/01/15 00:26:30.000   22.434305221  114.335362969    57.5004   6   6   0.3553   0.4308   0.9618  -0.2032   0.3526  -0.2510   0.00    0.0
2026/01/15 00:27:00.000   22.434305129  114.335363409    57.5584   6   6   0.3516   0.4256   0.9497  -0.1989   0.3444  -0.2455   0.00    0.0
2026/01/15 00:27:30.000   22.434305031  114.335363842    57.6130   6   6   0.3481   0.4206   0.9382  -0.1949   0.3366  -0.2403   0.00    0.0
2026/01/15 00:28:00.000   22.434304944  114.335364269    57.6615   6   6   0.3448   0.4158   0.9270  -0.1910   0.3291  -0.2354   0.00    0.0
2026/01/15 00:28:30.000   22.434304884  114.335364662    57.7023   6   6   0.3415   0.4112   0.9163  -0.1873   0.3220  -0.2307   0.00    0.0
2026/01/15 00:29:00.000   22.434304835  114.335365038    57.7411   6   6   0.3384   0.4067   0.9060  -0.1838   0.3152  -0.2262   0.00    0.0
2026/01/15 00:29:30.000   22.434304787  114.335365399    57.7757   6   6   0.3353   0.4024   0.8961  -0.1804   0.3087  -0.2219   0.00    0.0
2026/01/15 00:30:00.000   22.434304732  114.335365746    57.8055   6   6   0.3324   0.3983   0.8865  -0.1771   0.3025  -0.2178   0.00    0.0
2026/01/15 00:30:30.000   22.434304678  114.335366079    57.8328   6   6   0.3295   0.3943   0.8772  -0.1740   0.2966  -0.2139   0.00    0.0
2026/01/15 00:31:00.000   22.434304634  114.335366384    57.8533   6   6   0.3267   0.3904   0.8683  -0.1710   0.2909  -0.2101   0.00    0.0
2026/01/15 00:31:30.000   22.434304597  114.335366674    57.8727   6   6   0.3240   0.3867   0.8596  -0.1681   0.2854  -0.2065   0.00    0.0
2026/01/15 00:32:00.000   22.434304563  114.335366949    57.8900   6   6   0.3214   0.3831   0.8512  -0.1653   0.2802  -0.2031   0.00    0.0
2026/01/15 00:32:30.000   22.434304527  114.335367220    57.9053   6   6   0.3188   0.3796   0.8431  -0.1626   0.2752  -0.1997   0.00    0.0
2026/01/15 00:33:00.000   22.434304473  114.335367498    57.9256   6   6   0.3164   0.3762   0.8352  -0.1600   0.2704  -0.1965   0.00    0.0
2026/01/15 00:33:30.000   22.434304410  114.335367786    57.9511   6   6   0.3140   0.3729   0.8276  -0.1575   0.2657  -0.1935   0.00    0.0
2026/01/15 00:34:00.000   22.434304354  114.335368057    57.9781   6   6   0.3116   0.3697   0.8201  -0.1551   0.2613  -0.1905   0.00    0.0
2026/01/15 00:34:30.000   22.434304305  114.335368315    58.0060   6   6   0.3093   0.3666   0.8129  -0.1527   0.2570  -0.1877   0.00    0.0
2026/01/15 00:35:00.000   22.434304257  114.335368572    58.0364   6   6   0.3071   0.3635   0.8059  -0.1505   0.2529  -0.1849   0.00    0.0
2026/01/15 00:35:30.000   22.434304217  114.335368832    58.0667   6   6   0.3049   0.3606   0.7991  -0.1483   0.2489  -0.1823   0.00    0.0
2026/01/15 00:36:00.000   22.434304183  114.335369089    58.0982   6   5   0.3028   0.3577   0.7926  -0.1461   0.2452  -0.1797   0.00    0.0
2026/01/15 00:36:30.000   22.434304155  114.335369333    58.1272   6   5   0.3007   0.3550   0.7864  -0.1441   0.2415  -0.1772   0.00    0.0
2026/01/15 00:37:00.000   22.434304128  114.335369569    58.1536   6   5   0.2987   0.3522   0.7803  -0.1421   0.2380  -0.1747   0.00    0.0
2026/01/15 00:37:30.000   22.434304110  114.335369793    58.1764   6   5   0.2968   0.3496   0.7744  -0.1402   0.2346  -0.1724   0.00    0.0
2026/01/15 00:38:00.000   22.434304094  114.335369996    58.1940   6   5   0.2948   0.3470   0.7686  -0.1383   0.2314  -0.1701   0.00    0.0
2026/01/15 00:38:30.000   22.434304082  114.335370188    58.2090   6   5   0.2930   0.3445   0.7630  -0.1365   0.2283  -0.1679   0.00    0.0
2026/01/15 00:39:00.000   22.434304081  114.335370365    58.2239   6   5   0.2911   0.3420   0.7575  -0.1347   0.2252  -0.1657   0.00    0.0
2026/01/15 00:39:30.000   22.434304083  114.335370544    58.2362   6   5   0.2893   0.3396   0.7521  -0.1330   0.2223  -0.1636   0.00    0.0
2026/01/15 00:40:00.000   22.434304087  114.335370723    58.2464   6   5   0.2876   0.3373   0.7468  -0.1313   0.2195  -0.1616   0.00    0.0
2026/01/15 00:40:30.000   22.434304087  114.335370901    58.2567   6   5   0.2859   0.3350   0.7417  -0.1297   0.2168  -0.1597   0.00    0.0
2026/01/15 00:41:00.000   22.434304077  114.335371083    58.2686   6   5   0.2842   0.3327   0.7367  -0.1281   0.2141  -0.1578   0.00    0.0
2026/01/15 00:41:30.000   22.434304061  114.335371266    58.2804   6   5   0.2825   0.3305   0.7318  -0.1266   0.2116  -0.1559   0.00    0.0
2026/01/15 00:42:00.000   22.434304032  114.335371462    58.2933   6   5   0.2809   0.3284   0.7270  -0.1251   0.2091  -0.1541   0.00    0.0
2026/01/15 00:42:30.000   22.434304000  114.335371668    58.3084   6   5   0.2794   0.3262   0.7224  -0.1236   0.2068  -0.1524   0.00    0.0
2026/01/15 00:43:00.000   22.434303974  114.335371881    58.3237   6   5   0.2778   0.3242   0.7178  -0.1222   0.2045  -0.1507   0.00    0.0
2026/01/15 00:43:30.000   22.434303954  114.335372087    58.3399   6   5   0.2763   0.3222   0.7133  -0.1208   0.2022  -0.1491   0.00    0.0
2026/01/15 00:44:00.000   22.434303937  114.335372281    58.3565   6   5   0.2748   0.3202   0.7089  -0.1195   0.2001  -0.1475   0.00    0.0
2026/01/15 00:44:30.000   22.434303921  114.335372463    58.3727   6   5   0.2734   0.3182   0.7046  -0.1182   0.1980  -0.1459   0.00    0.0
2026/01/15 00:45:00.000   22.434303910  114.335372635    58.3876   6   5   0.2719   0.3163   0.7004  -0.1169   0.1960  -0.1444   0.00    0.0
2026/01/15 00:45:30.000   22.434303905  114.335372793    58.3998   6   5   0.2705   0.3145   0.6963  -0.1157   0.1941  -0.1429   0.00    0.0
2026/01/15 00:46:00.000   22.434303900  114.335372937    58.4099   6   5   0.2692   0.3126   0.6922  -0.1145   0.1922  -0.1415   0.00    0.0
2026/01/15 00:46:30.000   22.434303895  114.335373077    58.4195   6   5   0.2678   0.3108   0.6883  -0.1133   0.1904  -0.1401   0.00    0.0
2026/01/15 00:47:00.000   22.434303897  114.335373204    58.4280   6   5   0.2665   0.3091   0.6844  -0.1121   0.1887  -0.1387   0.00    0.0
2026/01/15 00:47:30.000   22.434303909  114.335373323    58.4366   6   5   0.2652   0.3073   0.6806  -0.1110   0.1870  -0.1374   0.00    0.0
2026/01/15 00:48:00.000   22.434303926  114.335373439    58.4457   6   5   0.2639   0.3056   0.6768  -0.1099   0.1853  -0.1361   0.00    0.0
2026/01/15 00:48:30.000   22.434303897  114.335373558    58.4431   6   5   0.2629   0.3040   0.6737  -0.1089   0.1837  -0.1337   0.00    0.0
2026/01/15 00:49:00.000   22.434303858  114.335373684    58.4415   6   5   0.2619   0.3023   0.6707  -0.1078   0.1821  -0.1314   0.00    0.0
2026/01/15 00:49:30.000   22.434303816  114.335373817    58.4421   6   5   0.2609   0.3007   0.6677  -0.1069   0.1805  -0.1291   0.00    0.0
2026/01/15 00:50:00.000   22.434303777  114.335373955    58.4437   6   5   0.2599   0.2991   0.6648  -0.1059   0.1790  -0.1268   0.00    0.0
2026/01/15 00:50:30.000   22.434303736  114.335374094    58.4448   6   5   0.2589   0.2976   0.6620  -0.1050   0.1776  -0.1246   0.00    0.0
2026/01/15 00:51:00.000   22.434303693  114.335374233    58.4441   6   5   0.2580   0.2960   0.6591  -0.1040   0.1762  -0.1224   0.00    0.0
2026/01/15 00:51:30.000   22.434303648  114.335374376    58.4421   6   5   0.2570   0.2945   0.6564  -0.1031   0.1748  -0.1202   0.00    0.0
2026/01/15 00:52:00.000   22.434303606  114.335374515    58.4374   6   5   0.2561   0.2931   0.6537  -0.1022   0.1735  -0.1181   0.00    0.0
2026/01/15 00:52:30.000   22.434303568  114.335374644    58.4325   6   5   0.2552   0.2916   0.6510  -0.1014   0.1722  -0.1160   0.00    0.0
2026/01/15 00:53:00.000   22.434303533  114.335374770    58.4274   6   5   0.2543   0.2902   0.6483  -0.1005   0.1710  -0.1139   0.00    0.0
2026/01/15 00:53:30.000   22.434303501  114.335374889    58.4221   6   5   0.2534   0.2888   0.6458  -0.0997   0.1698  -0.1119   0.00    0.0
2026/01/15 00:54:00.000   22.434303465  114.335375004    58.4167   6   5   0.2525   0.2874   0.6432  -0.0989   0.1687  -0.1099   0.00    0.0
2026/01/15 00:54:30.000   22.434303430  114.335375109    58.4111   6   5   0.2516   0.2860   0.6407  -0.0981   0.1676  -0.1079   0.00    0.0
2026/01/15 00:55:00.000   22.434303391  114.335375209    58.4069   6   5   0.2508   0.2846   0.6382  -0.0973   0.1665  -0.1060   0.00    0.0
2026/01/15 00:55:30.000   22.434303352  114.335375302    58.4037   6   5   0.2499   0.2833   0.6358  -0.0965   0.1655  -0.1041   0.00    0.0
2026/01/15 00:56:00.000   22.434303316  114.335375389    58.4005   6   5   0.2491   0.2820   0.6334  -0.0958   0.1644  -0.1023   0.00    0.0
2026/01/15 00:56:30.000   22.434303289  114.335375471    58.3974   6   5   0.2483   0.2807   0.6310  -0.0951   0.1635  -0.1004   0.00    0.0
2026/01/15 00:57:00.000   22.434303262  114.335375551    58.3939   6   5   0.2474   0.2795   0.6287  -0.0943   0.1625  -0.0986   0.00    0.0
2026/01/15 00:57:30.000   22.434303232  114.335375634    58.3906   6   5   0.2466   0.2782   0.6264  -0.0936   0.1616  -0.0969   0.00    0.0
2026/01/15 00:58:00.000   22.434303201  114.335375723    58.3880   6   5   0.2458   0.2770   0.6241  -0.0929   0.1608  -0.0951   0.00    0.0
2026/01/15 00:58:30.000   22.434303166  114.335375819    58.3864   6   5   0.2450   0.2757   0.6219  -0.0922   0.1599  -0.0934   0.00    0.0
2026/01/15 00:59:00.000   22.434303128  114.335375921    58.3853   6   5   0.2443   0.2746   0.6197  -0.0916   0.1591  -0.0917   0.00    0.0
2026/01/15 00:59:30.000   22.434303086  114.335376026    58.3845   6   5   0.2435   0.2734   0.6175  -0.0909   0.1583  -0.0901   0.00    0.0
2026/01/15 01:00:00.000   22.434303030  114.335376121    58.3870   6   5   0.2427   0.2722   0.6154  -0.0903   0.1575  -0.0885   0.00    0.0
2026/01/15 01:00:30.000   22.434302977  114.335376212    58.3893   6   5   0.2420   0.2711   0.6133  -0.0896   0.1568  -0.0869   0.00    0.0
2026/01/15 01:01:00.000   22.434302929  114.335376308    58.3907   6   5   0.2412   0.2699   0.6112  -0.0890   0.1561  -0.0854   0.00    0.0
2026/01/15 01:01:30.000   22.434302881  114.335376411    58.3915   6   5   0.2405   0.2688   0.6091  -0.0884   0.1554  -0.0838   0.00    0.0
2026/01/15 01:02:00.000   22.434302827  114.335376511    58.3924   6   5   0.2398   0.2677   0.6071  -0.0878   0.1547  -0.0823   0.00    0.0
2026/01/15 01:02:30.000   22.434302769  114.335376599    58.3937   6   5   0.2390   0.2666   0.6051  -0.0872   0.1541  -0.0809   0.00    0.0
2026/01/15 01:03:00.000   22.434302712  114.335376685    58.3959   6   5   0.2383   0.2655   0.6031  -0.0866   0.1535  -0.0795   0.00    0.0
2026/01/15 01:03:30.000   22.434302655  114.335376778    58.3992   6   5   0.2376   0.2645   0.6011  -0.0861   0.1529  -0.0781   0.00    0.0
2026/01/15 01:04:00.000   22.434302601  114.335376872    58.4020   6   5   0.2369   0.2634   0.5991  -0.0855   0.1523  -0.0767   0.00    0.0
2026/01/15 01:04:30.000   22.434302547  114.335376968    58.4046   6   5   0.2362   0.2624   0.5972  -0.0850   0.1517  -0.0754   0.00    0.0
2026/01/15 01:05:00.000   22.434302490  114.335377066    58.4067   6   5   0.2355   0.2614   0.5953  -0.0844   0.1512  -0.0741   0.00    0.0
2026/01/15 01:05:30.000   22.434302430  114.335377162    58.4090   6   5   0.2348   0.2604   0.5934  -0.0839   0.1507  -0.0728   0.00    0.0
2026/01/15 01:06:00.000   22.434302375  114.335377250    58.4115   6   5   0.2342   0.2594   0.5916  -0.0834   0.1502  -0.0716   0.00    0.0
2026/01/15 01:06:30.000   22.434302321  114.335377335    58.4146   6   5   0.2335   0.2584   0.5897  -0.0829   0.1497  -0.0703   0.00    0.0
2026/01/15 01:07:00.000   22.434302270  114.335377419    58.4183   6   5   0.2328   0.2574   0.5879  -0.0824   0.1492  -0.0692   0.00    0.0
2026/01/15 01:07:30.000   22.434302222  114.335377503    58.4216   6   5   0.2322   0.2564   0.5861  -0.0819   0.1487  -0.0680   0.00    0.0
2026/01/15 01:08:00.000   22.434302177  114.335377592    58.4241   6   5   0.2315   0.2555   0.5843  -0.0814   0.1483  -0.0669   0.00    0.0
2026/01/15 01:08:30.000   22.434302135  114.335377678    58.4251   6   5   0.2309   0.2546   0.5826  -0.0809   0.1479  -0.0659   0.00    0.0
2026/01/15 01:09:00.000   22.434302092  114.335377758    58.4237   6   5   0.2303   0.2536   0.5808  -0.0805   0.1475  -0.0648   0.00    0.0
2026/01/15 01:09:30.000   22.434302050  114.335377833    58.4201   6   5   0.2296   0.2527   0.5791  -0.0800   0.1471  -0.0638   0.00    0.0
2026/01/15 01:10:00.000   22.434302012  114.335377906    58.4161   6   5   0.2290   0.2518   0.5773  -0.0796   0.1467  -0.0629   0.00    0.0
2026/01/15 01:10:30.000   22.434301975  114.335377981    58.4132   6   5   0.2284   0.2509   0.5756  -0.0791   0.1463  -0.0619   0.00    0.0
2026/01/15 01:11:00.000   22.434301940  114.335378058    58.4118   6   5   0.2278   0.2500   0.5740  -0.0787   0.1460  -0.0610   0.00    0.0
2026/01/15 01:11:30.000   22.434301905  114.335378136    58.4114   6   5   0.2272   0.2492   0.5723  -0.0782   0.1456  -0.0602   0.00    0.0
2026/01/15 01:12:00.000   22.434301869  114.335378212    58.4121   6   5   0.2266   0.2483   0.5706  -0.0778   0.1453  -0.0594   0.00    0.0
2026/01/15 01:12:30.000   22.434301828  114.335378284    58.4130   6   5   0.2260   0.2474   0.5690  -0.0774   0.1450  -0.0586   0.00    0.0
2026/01/15 01:13:00.000   22.434301790  114.335378352    58.4137   6   5   0.2254   0.2466   0.5674  -0.0770   0.1447  -0.0578   0.00    0.0
2026/01/15 01:13:30.000   22.434301793  114.335378422    58.4226   6   4   0.2246   0.2457   0.5655  -0.0767   0.1442  -0.0585   0.00    0.0
2026/01/15 01:14:00.000   22.434301797  114.335378486    58.4311   6   4   0.2239   0.2449   0.5636  -0.0764   0.1438  -0.0591   0.00    0.0
2026/01/15 01:14:30.000   22.434301810  114.335378548    58.4428   6   5   0.2232   0.2441   0.5616  -0.0762   0.1433  -0.0600   0.00    0.0
2026/01/15 01:15:00.000   22.434301822  114.335378611    58.4533   6   5   0.2225   0.2433   0.5596  -0.0759   0.1429  -0.0609   0.00    0.0
2026/01/15 01:15:30.000   22.434301835  114.335378670    58.4644   6   5   0.2217   0.2425   0.5577  -0.0756   0.1425  -0.0618   0.00    0.0
2026/01/15 01:16:00.000   22.434301849  114.335378729    58.4760   6   5   0.2210   0.2417   0.5557  -0.0753   0.1422  -0.0627   0.00    0.0
2026/01/15 01:16:30.000   22.434301863  114.335378786    58.4867   6   5   0.2203   0.2409   0.5538  -0.0751   0.1418  -0.0636   0.00    0.0
2026/01/15 01:17:00.000   22.434301877  114.335378845    58.4967   6   5   0.2196   0.2401   0.5519  -0.0748   0.1414  -0.0645   0.00    0.0
2026/01/15 01:17:30.000   22.434301889  114.335378908    58.5066   6   5   0.2189   0.2393   0.5501  -0.0746   0.1411  -0.0654   0.00    0.0
2026/01/15 01:18:00.000   22.434301900  114.335378971    58.5170   6   5   0.2182   0.2386   0.5482  -0.0743   0.1408  -0.0663   0.00    0.0
2026/01/15 01:18:30.000   22.434301911  114.335379036    58.5277   6   5   0.2175   0.2378   0.5464  -0.0741   0.1404  -0.0671   0.00    0.0
2026/01/15 01:19:00.000   22.434301925  114.335379100    58.5380   6   5   0.2168   0.2371   0.5446  -0.0738   0.1401  -0.0680   0.00    0.0
2026/01/15 01:19:30.000   22.434301941  114.335379164    58.5484   6   5   0.2161   0.2363   0.5428  -0.0736   0.1398  -0.0688   0.00    0.0
2026/01/15 01:20:00.000   22.434301961  114.335379228    58.5591   6   5   0.2155   0.2356   0.5410  -0.0734   0.1395  -0.0696   0.00    0.0
2026/01/15 01:20:30.000   22.434301983  114.335379289    58.5685   6   5   0.2148   0.2349   0.5393  -0.0732   0.1392  -0.0705   0.00    0.0
2026/01/15 01:21:00.000   22.434302004  114.335379344    58.5769   6   5   0.2142   0.2341   0.5376  -0.0730   0.1389  -0.0713   0.00    0.0
2026/01/15 01:21:30.000   22.434302023  114.335379393    58.5847   6   5   0.2135   0.2335   0.5362  -0.0727   0.1384  -0.0724   0.00    0.0
2026/01/15 01:22:00.000   22.434302038  114.335379439    58.5925   6   5   0.2129   0.2328   0.5348  -0.0724   0.1378  -0.0736   0.00    0.0
2026/01/15 01:22:30.000   22.434302051  114.335379486    58.6014   6   5   0.2123   0.2321   0.5334  -0.0721   0.1373  -0.0747   0.00    0.0
2026/01/15 01:23:00.000   22.434302064  114.335379534    58.6116   6   5   0.2116   0.2315   0.5321  -0.0718   0.1368  -0.0758   0.00    0.0
2026/01/15 01:23:30.000   22.434302076  114.335379580    58.6227   6   5   0.2110   0.2308   0.5307  -0.0715   0.1362  -0.0769   0.00    0.0
2026/01/15 01:24:00.000   22.434302089  114.335379623    58.6347   6   5   0.2104   0.2302   0.5294  -0.0712   0.1357  -0.0780   0.00    0.0
2026/01/15 01:24:30.000   22.434302104  114.335379666    58.6472   6   5   0.2098   0.2296   0.5281  -0.0710   0.1353  -0.0790   0.00    0.0
2026/01/15 01:25:00.000   22.434302120  114.335379705    58.6595   6   5   0.2092   0.2289   0.5268  -0.0707   0.1348  -0.0801   0.00    0.0
2026/01/15 01:25:30.000   22.434302135  114.335379740    58.6709   6   5   0.2086   0.2283   0.5255  -0.0704   0.1343  -0.0811   0.00    0.0
2026/01/15 01:26:00.000   22.434302149  114.335379778    58.6816   6   5   0.2081   0.2277   0.5242  -0.0702   0.1339  -0.0821   0.00    0.0
2026/01/15 01:26:30.000   22.434302161  114.335379819    58.6919   6   5   0.2075   0.2271   0.5230  -0.0699   0.1335  -0.0831   0.00    0.0
2026/01/15 01:27:00.000   22.434302170  114.335379866    58.7026   6   5   0.2069   0.2265   0.5217  -0.0697   0.1330  -0.0840   0.00    0.0
2026/01/15 01:27:30.000   22.434302180  114.335379917    58.7138   6   5   0.2063   0.2258   0.5205  -0.0695   0.1326  -0.0850   0.00    0.0
2026/01/15 01:28:00.000   22.434302184  114.335379972    58.7249   6   5   0.2058   0.2252   0.5192  -0.0692   0.1322  -0.0859   0.00    0.0
2026/01/15 01:28:30.000   22.434302186  114.335380027    58.7359   6   5   0.2052   0.2246   0.5180  -0.0690   0.1318  -0.0868   0.00    0.0
2026/01/15 01:29:00.000   22.434302188  114.335380079    58.7468   6   5   0.2046   0.2240   0.5168  -0.0688   0.1314  -0.0877   0.00    0.0
2026/01/15 01:29:30.000   22.434302193  114.335380125    58.7576   6   5   0.2041   0.2235   0.5156  -0.0686   0.1311  -0.0886   0.00    0.0
2026/01/15 01:30:00.000   22.434302203  114.335380170    58.7691   6   5   0.2035   0.2229   0.5144  -0.0684   0.1307  -0.0895   0.00    0.0
2026/01/15 01:30:30.000   22.434302215  114.335380215    58.7813   6   5   0.2030   0.2223   0.5133  -0.0681   0.1304  -0.0903   0.00    0.0
2026/01/15 01:31:00.000   22.434302226  114.335380267    58.7935   6   5   0.2025   0.2217   0.5121  -0.0679   0.1300  -0.0912   0.00    0.0
2026/01/15 01:31:30.000   22.434302236  114.335380324    58.8055   6   5   0.2019   0.2211   0.5110  -0.0677   0.1297  -0.0920   0.00    0.0
2026/01/15 01:32:00.000   22.434302244  114.335380380    58.8167   6   5   0.2014   0.2206   0.5098  -0.0675   0.1293  -0.0929   0.00    0.0
2026/01/15 01:32:30.000   22.434302254  114.335380429    58.8278   6   5   0.2009   0.2200   0.5087  -0.0674   0.1290  -0.0937   0.00    0.0
2026/01/15 01:33:00.000   22.434302263  114.335380473    58.8385   6   5   0.2004   0.2195   0.5076  -0.0672   0.1287  -0.0945   0.00    0.0
2026/01/15 01:33:30.000   22.434302270  114.335380518    58.8494   6   5   0.1999   0.2189   0.5065  -0.0670   0.1284  -0.0952   0.00    0.0
2026/01/15 01:34:00.000   22.434302273  114.335380565    58.8609   6   5   0.1993   0.2184   0.5054  -0.0668   0.1281  -0.0960   0.00    0.0
2026/01/15 01:34:30.000   22.434302274  114.335380612    58.8723   6   5   0.1988   0.2178   0.5043  -0.0666   0.1278  -0.0968   0.00    0.0
2026/01/15 01:35:00.000   22.434302274  114.335380664    58.8837   6   5   0.1983   0.2173   0.5032  -0.0665   0.1275  -0.0975   0.00    0.0
2026/01/15 01:35:30.000   22.434302271  114.335380720    58.8944   6   5   0.1978   0.2167   0.5022  -0.0663   0.1272  -0.0983   0.00    0.0
2026/01/15 01:36:00.000   22.434302267  114.335380776    58.9049   6   5   0.1974   0.2162   0.5011  -0.0661   0.1270  -0.0990   0.00    0.0
2026/01/15 01:36:30.000   22.434302263  114.335380831    58.9159   6   5   0.1969   0.2157   0.5001  -0.0660   0.1267  -0.0997   0.00    0.0
2026/01/15 01:37:00.000   22.434302243  114.335380908    58.9346   6   5   0.1963   0.2150   0.4986  -0.0656   0.1259  -0.0999   0.00    0.0
2026/01/15 01:37:30.000   22.434302227  114.335380983    58.9531   6   5   0.1958   0.2144   0.4971  -0.0651   0.1251  -0.1000   0.00    0.0
2026/01/15 01:38:00.000   22.434302214  114.335381056    58.9705   6   5   0.1952   0.2138   0.4957  -0.0647   0.1243  -0.1002   0.00    0.0
2026/01/15 01:38:30.000   22.434302204  114.335381129    58.9874   6   5   0.1947   0.2132   0.4943  -0.0643   0.1235  -0.1004   0.00    0.0
2026/01/15 01:39:00.000   22.434302194  114.335381198    59.0034   6   5   0.1942   0.2126   0.4928  -0.0639   0.1228  -0.1006   0.00    0.0
2026/01/15 01:39:30.000   22.434302182  114.335381264    59.0193   6   5   0.1936   0.2120   0.4914  -0.0636   0.1220  -0.1007   0.00    0.0
2026/01/15 01:40:00.000   22.434302168  114.335381330    59.0353   6   5   0.1931   0.2114   0.4901  -0.0632   0.1213  -0.1009   0.00    0.0
2026/01/15 01:40:30.000   22.434302151  114.335381396    59.0519   6   5   0.1926   0.2108   0.4887  -0.0628   0.1205  -0.1011   0.00    0.0
2026/01/15 01:41:00.000   22.434302137  114.335381466    59.0680   6   5   0.1921   0.2102   0.4874  -0.0624   0.1198  -0.1013   0.00    0.0
2026/01/15 01:41:30.000   22.434302124  114.335381533    59.0832   6   5   0.1916   0.2096   0.4860  -0.0620   0.1191  -0.1015   0.00    0.0
2026/01/15 01:42:00.000   22.434302114  114.335381595    59.0972   6   5   0.1911   0.2090   0.4847  -0.0617   0.1184  -0.1017   0.00    0.0
2026/01/15 01:42:30.000   22.434302105  114.335381655    59.1105   6   5   0.1906   0.2084   0.4834  -0.0613   0.1177  -0.1018   0.00    0.0
2026/01/15 01:43:00.000   22.434302098  114.335381716    59.1240   6   5   0.1901   0.2078   0.4821  -0.0609   0.1171  -0.1020   0.00    0.0
2026/01/15 01:43:30.000   22.434302089  114.335381777    59.1379   6   5   0.1896   0.2073   0.4809  -0.0606   0.1164  -0.1022   0.00    0.0
2026/01/15 01:44:00.000   22.434302080  114.335381833    59.1515   6   5   0.1891   0.2067   0.4796  -0.0602   0.1157  -0.1024   0.00    0.0
2026/01/15 01:44:30.000   22.434302074  114.335381884    59.1645   6   5   0.1886   0.2062   0.4784  -0.0599   0.1151  -0.1026   0.00    0.0
2026/01/15 01:45:00.000   22.434302070  114.335381933    59.1760   6   5   0.1881   0.2056   0.4771  -0.0596   0.1145  -0.1028   0.00    0.0
2026/01/15 01:45:30.000   22.434302066  114.335381977    59.1860   6   5   0.1876   0.2051   0.4759  -0.0592   0.1138  -0.1030   0.00    0.0
2026/01/15 01:46:00.000   22.434302061  114.335382021    59.1963   6   5   0.1871   0.2045   0.4747  -0.0589   0.1132  -0.1031   0.00    0.0
2026/01/15 01:46:30.000   22.434302054  114.335382063    59.2074   6   5   0.1867   0.2040   0.4735  -0.0586   0.1126  -0.1033   0.00    0.0
2026/01/15 01:47:00.000   22.434302045  114.335382104    59.2198   6   5   0.1862   0.2034   0.4724  -0.0582   0.1120  -0.1035   0.00    0.0
2026/01/15 01:47:30.000   22.434302034  114.335382142    59.2317   6   5   0.1857   0.2029   0.4712  -0.0579   0.1115  -0.1037   0.00    0.0
2026/01/15 01:48:00.000   22.434302021  114.335382180    59.2431   6   5   0.1853   0.2024   0.4700  -0.0576   0.1109  -0.1039   0.00    0.0
2026/01/15 01:48:30.000   22.434302008  114.335382221    59.2555   6   5   0.1848   0.2018   0.4689  -0.0573   0.1103  -0.1041   0.00    0.0
2026/01/15 01:49:00.000   22.434301994  114.335382270    59.2687   6   5   0.1844   0.2013   0.4678  -0.0570   0.1098  -0.1043   0.00    0.0
2026/01/15 01:49:30.000   22.434301982  114.335382320    59.2821   6   5   0.1839   0.2008   0.4667  -0.0567   0.1092  -0.1045   0.00    0.0
2026/01/15 01:50:00.000   22.434301972  114.335382367    59.2947   6   5   0.1835   0.2003   0.4656  -0.0564   0.1087  -0.1046   0.00    0.0
2026/01/15 01:50:30.000   22.434301961  114.335382415    59.3066   6   5   0.1830   0.1998   0.4645  -0.0561   0.1081  -0.1048   0.00    0.0
2026/01/15 01:51:00.000   22.434301950  114.335382465    59.3191   6   5   0.1826   0.1993   0.4634  -0.0558   0.1076  -0.1050   0.00    0.0
2026/01/15 01:51:30.000   22.434301939  114.335382517    59.3318   6   5   0.1821   0.1988   0.4623  -0.0555   0.1071  -0.1052   0.00    0.0
2026/01/15 01:52:00.000   22.434301930  114.335382566    59.3440   6   5   0.1817   0.1983   0.4613  -0.0552   0.1066  -0.1054   0.00    0.0
2026/01/15 01:52:30.000   22.434301921  114.335382613    59.3565   6   5   0.1813   0.1978   0.4602  -0.0550   0.1061  -0.1055   0.00    0.0
2026/01/15 01:53:00.000   22.434301911  114.335382657    59.3688   6   5   0.1809   0.1973   0.4592  -0.0547   0.1056  -0.1057   0.00    0.0
2026/01/15 01:53:30.000   22.434301901  114.335382701    59.3805   6   5   0.1804   0.1968   0.4582  -0.0544   0.1051  -0.1059   0.00    0.0
2026/01/15 01:54:00.000   22.434301888  114.335382740    59.3913   6   5   0.1800   0.1963   0.4571  -0.0541   0.1046  -0.1061   0.00    0.0
2026/01/15 01:54:30.000   22.434301872  114.335382773    59.4012   6   5   0.1796   0.1958   0.4561  -0.0539   0.1041  -0.1062   0.00    0.0
2026/01/15 01:55:00.000   22.434301854  114.335382807    59.4103   6   5   0.1792   0.1953   0.4551  -0.0536   0.1037  -0.1064   0.00    0.0
2026/01/15 01:55:30.000   22.434301838  114.335382843    59.4191   6   5   0.1788   0.1949   0.4542  -0.0534   0.1032  -0.1066   0.00    0.0
2026/01/15 01:56:00.000   22.434301824  114.335382880    59.4285   6   5   0.1784   0.1944   0.4532  -0.0531   0.1028  -0.1067   0.00    0.0
2026/01/15 01:56:30.000   22.434301812  114.335382915    59.4382   6   5   0.1780   0.1939   0.4522  -0.0528   0.1023  -0.1069   0.00    0.0
2026/01/15 01:57:00.000   22.434301800  114.335382949    59.4478   6   5   0.1776   0.1935   0.4513  -0.0526   0.1019  -0.1071   0.00    0.0
2026/01/15 01:57:30.000   22.434301789  114.335382983    59.4572   6   5   0.1772   0.1930   0.4503  -0.0524   0.1014  -0.1072   0.00    0.0
2026/01/15 01:58:00.000   22.434301778  114.335383016    59.4664   6   5   0.1768   0.1925   0.4494  -0.0521   0.1010  -0.1074   0.00    0.0
2026/01/15 01:58:30.000   22.434301765  114.335383046    59.4765   6   5   0.1764   0.1921   0.4484  -0.0519   0.1006  -0.1075   0.00    0.0
2026/01/15 01:59:00.000   22.434301749  114.335383077    59.4870   6   5   0.1760   0.1916   0.4475  -0.0516   0.1002  -0.1077   0.00    0.0
2026/01/15 01:59:30.000   22.434301734  114.335383104    59.4974   6   5   0.1756   0.1912   0.4466  -0.0514   0.0998  -0.1078   0.00    0.0
2026/01/15 02:00:00.000   22.434301721  114.335383143    59.5028   6   5   0.1752   0.1908   0.4458  -0.0512   0.0993  -0.1080   0.00    0.0
2026/01/15 02:00:30.000   22.434301708  114.335383180    59.5077   6   5   0.1748   0.1903   0.4450  -0.0509   0.0988  -0.1081   0.00    0.0
2026/01/15 02:01:00.000   22.434301695  114.335383219    59.5123   6   5   0.1745   0.1899   0.4442  -0.0507   0.0983  -0.1083   0.00    0.0
2026/01/15 02:01:30.000   22.434301682  114.335383261    59.5176   6   5   0.1741   0.1895   0.4434  -0.0504   0.0978  -0.1084   0.00    0.0
2026/01/15 02:02:00.000   22.434301668  114.335383305    59.5235   6   5   0.1737   0.1891   0.4427  -0.0502   0.0973  -0.1085   0.00    0.0
2026/01/15 02:02:30.000   22.434301653  114.335383350    59.5295   6   5   0.1734   0.1887   0.4419  -0.0499   0.0969  -0.1087   0.00    0.0
2026/01/15 02:03:00.000   22.434301638  114.335383391    59.5346   6   5   0.1730   0.1883   0.4411  -0.0497   0.0964  -0.1088   0.00    0.0
2026/01/15 02:03:30.000   22.434301625  114.335383430    59.5394   6   5   0.1727   0.1878   0.4404  -0.0495   0.0959  -0.1089   0.00    0.0
2026/01/15 02:04:00.000   22.434301613  114.335383469    59.5440   6   5   0.1723   0.1874   0.4396  -0.0493   0.0955  -0.1090   0.00    0.0
2026/01/15 02:04:30.000   22.434301601  114.335383510    59.5491   6   5   0.1720   0.1870   0.4389  -0.0490   0.0950  -0.1092   0.00    0.0
2026/01/15 02:05:00.000   22.434301590  114.335383553    59.5549   6   5   0.1716   0.1866   0.4381  -0.0488   0.0946  -0.1093   0.00    0.0
2026/01/15 02:05:30.000   22.434301578  114.335383596    59.5605   6   5   0.1713   0.1862   0.4374  -0.0486   0.0941  -0.1094   0.00    0.0
2026/01/15 02:06:00.000   22.434301566  114.335383635    59.5656   6   5   0.1709   0.1858   0.4367  -0.0484   0.0937  -0.1095   0.00    0.0
2026/01/15 02:06:30.000   22.434301552  114.335383670    59.5701   6   5   0.1706   0.1854   0.4360  -0.0482   0.0933  -0.1096   0.00    0.0
2026/01/15 02:07:00.000   22.434301537  114.335383705    59.5748   6   5   0.1702   0.1850   0.4352  -0.0480   0.0928  -0.1097   0.00    0.0
2026/01/15 02:07:30.000   22.434301521  114.335383742    59.5797   6   5   0.1699   0.1847   0.4345  -0.0478   0.0924  -0.1098   0.00    0.0
2026/01/15 02:08:00.000   22.434301506  114.335383779    59.5844   6   5   0.1696   0.1843   0.4338  -0.0475   0.0920  -0.1099   0.00    0.0
2026/01/15 02:08:30.000   22.434301493  114.335383819    59.5891   6   5   0.1692   0.1839   0.4331  -0.0473   0.0916  -0.1100   0.00    0.0
2026/01/15 02:09:00.000   22.434301483  114.335383859    59.5938   6   5   0.1689   0.1835   0.4324  -0.0471   0.0912  -0.1101   0.00    0.0
2026/01/15 02:09:30.000   22.434301473  114.335383899    59.5987   6   5   0.1686   0.1831   0.4317  -0.0470   0.0908  -0.1102   0.00    0.0
2026/01/15 02:10:00.000   22.434301464  114.335383938    59.6040   6   5   0.1683   0.1828   0.4310  -0.0468   0.0904  -0.1103   0.00    0.0
2026/01/15 02:10:30.000   22.434301459  114.335383983    59.6129   6   4   0.1680   0.1824   0.4305  -0.0465   0.0901  -0.1103   0.00    0.0
2026/01/15 02:11:00.000   22.434301454  114.335384029    59.6222   6   4   0.1677   0.1820   0.4299  -0.0463   0.0898  -0.1103   0.00    0.0
2026/01/15 02:11:30.000   22.434301447  114.335384078    59.6315   6   4   0.1673   0.1817   0.4294  -0.0461   0.0895  -0.1103   0.00    0.0
2026/01/15 02:12:00.000   22.434301458  114.335384142    59.6458   6   4   0.1670   0.1813   0.4287  -0.0460   0.0891  -0.1104   0.00    0.0
2026/01/15 02:12:30.000   22.434301467  114.335384203    59.6598   6   4   0.1667   0.1809   0.4281  -0.0458   0.0886  -0.1105   0.00    0.0
2026/01/15 02:13:00.000   22.434301474  114.335384259    59.6738   6   4   0.1663   0.1805   0.4274  -0.0457   0.0882  -0.1106   0.00    0.0
2026/01/15 02:13:30.000   22.434301480  114.335384313    59.6881   6   4   0.1660   0.1802   0.4268  -0.0456   0.0878  -0.1107   0.00    0.0
2026/01/15 02:14:00.000   22.434301486  114.335384365    59.7029   6   4   0.1657   0.1798   0.4262  -0.0455   0.0875  -0.1109   0.00    0.0
2026/01/15 02:14:30.000   22.434301495  114.335384418    59.7178   6   4   0.1653   0.1794   0.4255  -0.0454   0.0871  -0.1110   0.00    0.0
2026/01/15 02:15:00.000   22.434301505  114.335384470    59.7328   6   4   0.1650   0.1791   0.4249  -0.0453   0.0867  -0.1111   0.00    0.0
2026/01/15 02:15:30.000   22.434301517  114.335384521    59.7473   6   4   0.1647   0.1787   0.4243  -0.0452   0.0863  -0.1112   0.00    0.0
2026/01/15 02:16:00.000   22.434301530  114.335384570    59.7614   6   4   0.1643   0.1783   0.4237  -0.0451   0.0859  -0.1113   0.00    0.0
2026/01/15 02:16:30.000   22.434301541  114.335384618    59.7755   6   4   0.1640   0.1780   0.4231  -0.0449   0.0856  -0.1114   0.00    0.0
2026/01/15 02:17:00.000   22.434301552  114.335384668    59.7893   6   4   0.1637   0.1776   0.4225  -0.0448   0.0852  -0.1115   0.00    0.0
2026/01/15 02:17:30.000   22.434301562  114.335384717    59.8027   6   4   0.1634   0.1773   0.4219  -0.0447   0.0849  -0.1116   0.00    0.0
2026/01/15 02:18:00.000   22.434301572  114.335384765    59.8161   6   4   0.1630   0.1769   0.4213  -0.0447   0.0845  -0.1117   0.00    0.0
2026/01/15 02:18:30.000   22.434301582  114.335384811    59.8298   6   4   0.1627   0.1766   0.4207  -0.0446   0.0842  -0.1117   0.00    0.0
2026/01/15 02:19:00.000   22.434301590  114.335384853    59.8439   6   4   0.1624   0.1762   0.4202  -0.0445   0.0838  -0.1118   0.00    0.0
2026/01/15 02:19:30.000   22.434301599  114.335384893    59.8583   6   4   0.1621   0.1759   0.4196  -0.0444   0.0835  -0.1119   0.00    0.0
2026/01/15 02:20:00.000   22.434301607  114.335384935    59.8729   6   4   0.1618   0.1756   0.4190  -0.0443   0.0832  -0.1120   0.00    0.0
2026/01/15 02:20:30.000   22.434301614  114.335384978    59.8876   6   4   0.1615   0.1752   0.4185  -0.0442   0.0828  -0.1120   0.00    0.0
2026/01/15 02:21:00.000   22.434301623  114.335385018    59.9021   6   4   0.1612   0.1749   0.4179  -0.0441   0.0825  -0.1121   0.00    0.0
2026/01/15 02:21:30.000   22.434301630  114.335385058    59.9164   6   4   0.1609   0.1746   0.4173  -0.0440   0.0822  -0.1121   0.00    0.0
2026/01/15 02:22:00.000   22.434301634  114.335385099    59.9305   6   4   0.1605   0.1742   0.4168  -0.0440   0.0819  -0.1122   0.00    0.0
2026/01/15 02:22:30.000   22.434301634  114.335385139    59.9448   6   4   0.1602   0.1739   0.4162  -0.0439   0.0816  -0.1123   0.00    0.0
2026/01/15 02:23:00.000   22.434301632  114.335385177    59.9590   6   4   0.1599   0.1736   0.4157  -0.0438   0.0813  -0.1123   0.00    0.0
2026/01/15 02:23:30.000   22.434301632  114.335385213    59.9730   6   4   0.1596   0.1732   0.4151  -0.0437   0.0810  -0.1124   0.00    0.0
2026/01/15 02:24:00.000   22.434301634  114.335385250    59.9873   6   4   0.1593   0.1729   0.4146  -0.0436   0.0807  -0.1124   0.00    0.0
2026/01/15 02:24:30.000   22.434301636  114.335385286    60.0016   6   4   0.1590   0.1726   0.4140  -0.0436   0.0805  -0.1124   0.00    0.0
2026/01/15 02:25:00.000   22.434301640  114.335385319    60.0154   6   4   0.1587   0.1723   0.4135  -0.0435   0.0802  -0.1125   0.00    0.0
2026/01/15 02:25:30.000   22.434301642  114.335385350    60.0284   6   4   0.1584   0.1720   0.4130  -0.0434   0.0799  -0.1125   0.00    0.0
2026/01/15 02:26:00.000   22.434301644  114.335385378    60.0408   6   4   0.1581   0.1716   0.4124  -0.0434   0.0796  -0.1125   0.00    0.0
2026/01/15 02:26:30.000   22.434301646  114.335385407    60.0533   6   4   0.1579   0.1713   0.4119  -0.0433   0.0794  -0.1125   0.00    0.0
2026/01/15 02:27:00.000   22.434301647  114.335385434    60.0660   6   4   0.1576   0.1710   0.4114  -0.0433   0.0791  -0.1126   0.00    0.0
2026/01/15 02:27:30.000   22.434301648  114.335385462    60.0790   6   4   0.1573   0.1707   0.4109  -0.0432   0.0789  -0.1126   0.00    0.0
2026/01/15 02:28:00.000   22.434301633  114.335385496    60.0882   6   4   0.1570   0.1704   0.4104  -0.0432   0.0786  -0.1125   0.00    0.0
2026/01/15 02:28:30.000   22.434301619  114.335385530    60.0977   6   4   0.1568   0.1701   0.4099  -0.0432   0.0783  -0.1124   0.00    0.0
2026/01/15 02:29:00.000   22.434301606  114.335385565    60.1075   6   4   0.1565   0.1698   0.4095  -0.0432   0.0780  -0.1123   0.00    0.0
2026/01/15 02:29:30.000   22.434301593  114.335385599    60.1172   6   4   0.1562   0.1695   0.4090  -0.0431   0.0777  -0.1123   0.00    0.0
2026/01/15 02:30:00.000   22.434301580  114.335385634    60.1273   6   4   0.1560   0.1692   0.4086  -0.0431   0.0774  -0.1122   0.00    0.0
2026/01/15 02:30:30.000   22.434301567  114.335385669    60.1373   6   4   0.1557   0.1689   0.4081  -0.0431   0.0771  -0.1121   0.00    0.0
2026/01/15 02:31:00.000   22.434301554  114.335385706    60.1474   6   4   0.1555   0.1686   0.4077  -0.0431   0.0768  -0.1120   0.00    0.0
2026/01/15 02:31:30.000   22.434301538  114.335385746    60.1578   6   4   0.1552   0.1683   0.4072  -0.0431   0.0766  -0.1119   0.00    0.0
2026/01/15 02:32:00.000   22.434301521  114.335385783    60.1684   6   4   0.1549   0.1680   0.4068  -0.0431   0.0763  -0.1118   0.00    0.0
2026/01/15 02:32:30.000   22.434301502  114.335385817    60.1792   6   4   0.1547   0.1677   0.4063  -0.0431   0.0761  -0.1117   0.00    0.0
2026/01/15 02:33:00.000   22.434301482  114.335385850    60.1898   6   4   0.1544   0.1675   0.4059  -0.0431   0.0758  -0.1116   0.00    0.0
2026/01/15 02:33:30.000   22.434301461  114.335385882    60.1998   6   4   0.1542   0.1672   0.4054  -0.0430   0.0756  -0.1115   0.00    0.0
2026/01/15 02:34:00.000   22.434301438  114.335385913    60.2095   6   4   0.1539   0.1669   0.4050  -0.0430   0.0753  -0.1114   0.00    0.0
2026/01/15 02:34:30.000   22.434301417  114.335385943    60.2193   6   4   0.1537   0.1666   0.4046  -0.0430   0.0751  -0.1113   0.00    0.0
2026/01/15 02:35:00.000   22.434301395  114.335385971    60.2291   6   4   0.1534   0.1663   0.4041  -0.0430   0.0749  -0.1112   0.00    0.0
2026/01/15 02:35:30.000   22.434301375  114.335385995    60.2392   6   4   0.1532   0.1660   0.4037  -0.0430   0.0746  -0.1111   0.00    0.0
2026/01/15 02:36:00.000   22.434301354  114.335386019    60.2492   6   4   0.1529   0.1658   0.4032  -0.0430   0.0744  -0.1110   0.00    0.0
2026/01/15 02:36:30.000   22.434301332  114.335386039    60.2592   6   4   0.1527   0.1655   0.4028  -0.0430   0.0742  -0.1109   0.00    0.0
2026/01/15 02:37:00.000   22.434301312  114.335386058    60.2694   6   4   0.1524   0.1652   0.4024  -0.0430   0.0740  -0.1108   0.00    0.0
2026/01/15 02:37:30.000   22.434301291  114.335386073    60.2795   6   4   0.1522   0.1649   0.4019  -0.0430   0.0738  -0.1107   0.00    0.0
2026/01/15 02:38:00.000   22.434301268  114.335386085    60.2894   6   4   0.1519   0.1647   0.4015  -0.0430   0.0736  -0.1106   0.00    0.0
2026/01/15 02:38:30.000   22.434301244  114.335386097    60.2997   6   4   0.1517   0.1644   0.4011  -0.0430   0.0734  -0.1105   0.00    0.0
2026/01/15 02:39:00.000   22.434301220  114.335386113    60.3104   6   4   0.1514   0.1641   0.4006  -0.0429   0.0732  -0.1103   0.00    0.0
2026/01/15 02:39:30.000   22.434301196  114.335386130    60.3214   6   4   0.1512   0.1639   0.4002  -0.0429   0.0731  -0.1102   0.00    0.0
2026/01/15 02:40:00.000   22.434301175  114.335386147    60.3323   6   4   0.1510   0.1636   0.3998  -0.0429   0.0729  -0.1101   0.00    0.0
2026/01/15 02:40:30.000   22.434301153  114.335386164    60.3429   6   4   0.1507   0.1633   0.3993  -0.0429   0.0727  -0.1100   0.00    0.0
2026/01/15 02:41:00.000   22.434301131  114.335386180    60.3533   6   4   0.1505   0.1631   0.3989  -0.0429   0.0726  -0.1098   0.00    0.0
2026/01/15 02:41:30.000   22.434301108  114.335386194    60.3633   6   4   0.1502   0.1628   0.3985  -0.0429   0.0724  -0.1097   0.00    0.0
2026/01/15 02:42:00.000   22.434301086  114.335386208    60.3730   6   4   0.1500   0.1626   0.3981  -0.0429   0.0723  -0.1096   0.00    0.0
2026/01/15 02:42:30.000   22.434301065  114.335386221    60.3821   6   4   0.1498   0.1623   0.3976  -0.0429   0.0721  -0.1094   0.00    0.0
2026/01/15 02:43:00.000   22.434301044  114.335386232    60.3912   6   4   0.1495   0.1620   0.3972  -0.0429   0.0720  -0.1093   0.00    0.0
2026/01/15 02:43:30.000   22.434301020  114.335386243    60.4004   6   4   0.1493   0.1618   0.3968  -0.0429   0.0719  -0.1092   0.00    0.0
2026/01/15 02:44:00.000   22.434300996  114.335386253    60.4095   6   4   0.1491   0.1615   0.3963  -0.0429   0.0717  -0.1090   0.00    0.0
2026/01/15 02:44:30.000   22.434300968  114.335386262    60.4187   6   4   0.1488   0.1613   0.3959  -0.0429   0.0716  -0.1089   0.00    0.0
2026/01/15 02:45:00.000   22.434300939  114.335386272    60.4284   6   4   0.1486   0.1610   0.3955  -0.0429   0.0715  -0.1087   0.00    0.0
2026/01/15 02:45:30.000   22.434300911  114.335386283    60.4390   6   4   0.1484   0.1608   0.3950  -0.0429   0.0714  -0.1086   0.00    0.0
2026/01/15 02:46:00.000   22.434300882  114.335386295    60.4495   6   4   0.1481   0.1605   0.3946  -0.0429   0.0713  -0.1084   0.00    0.0
2026/01/15 02:46:30.000   22.434300854  114.335386305    60.4597   6   4   0.1479   0.1603   0.3942  -0.0429   0.0712  -0.1083   0.00    0.0
2026/01/15 02:47:00.000   22.434300827  114.335386315    60.4698   6   4   0.1477   0.1600   0.3937  -0.0429   0.0711  -0.1081   0.00    0.0
2026/01/15 02:47:30.000   22.434300800  114.335386324    60.4801   6   4   0.1474   0.1598   0.3933  -0.0429   0.0710  -0.1080   0.00    0.0
2026/01/15 02:48:00.000   22.434300771  114.335386333    60.4910   6   4   0.1472   0.1596   0.3929  -0.0429   0.0709  -0.1078   0.00    0.0
2026/01/15 02:48:30.000   22.434300740  114.335386342    60.5019   6   4   0.1470   0.1593   0.3924  -0.0429   0.0709  -0.1077   0.00    0.0
2026/01/15 02:49:00.000   22.434300707  114.335386350    60.5123   6   4   0.1468   0.1591   0.3920  -0.0429   0.0708  -0.1075   0.00    0.0
2026/01/15 02:49:30.000   22.434300677  114.335386356    60.5222   6   4   0.1465   0.1588   0.3915  -0.0429   0.0707  -0.1074   0.00    0.0
2026/01/15 02:50:00.000   22.434300649  114.335386359    60.5322   6   4   0.1463   0.1586   0.3911  -0.0429   0.0707  -0.1072   0.00    0.0
2026/01/15 02:50:30.000   22.434300624  114.335386360    60.5421   6   4   0.1461   0.1584   0.3907  -0.0429   0.0706  -0.1070   0.00    0.0
2026/01/15 02:51:00.000   22.434300600  114.335386357    60.5519   6   4   0.1459   0.1581   0.3902  -0.0429   0.0705  -0.1069   0.00    0.0
2026/01/15 02:51:30.000   22.434300575  114.335386355    60.5621   6   4   0.1457   0.1579   0.3898  -0.0429   0.0705  -0.1067   0.00    0.0
2026/01/15 02:52:00.000   22.434300548  114.335386352    60.5728   6   4   0.1454   0.1577   0.3893  -0.0429   0.0705  -0.1066   0.00    0.0
2026/01/15 02:52:30.000   22.434300518  114.335386348    60.5835   6   4   0.1452   0.1574   0.3889  -0.0429   0.0704  -0.1064   0.00    0.0
2026/01/15 02:53:00.000   22.434300487  114.335386343    60.5939   6   4   0.1450   0.1572   0.3885  -0.0429   0.0704  -0.1062   0.00    0.0
2026/01/15 02:53:30.000   22.434300454  114.335386338    60.6040   6   4   0.1448   0.1570   0.3880  -0.0429   0.0704  -0.1060   0.00    0.0
2026/01/15 02:54:00.000   22.434300422  114.335386336    60.6140   6   4   0.1446   0.1568   0.3876  -0.0430   0.0704  -0.1059   0.00    0.0
2026/01/15 02:54:30.000   22.434300390  114.335386334    60.6240   6   4   0.1444   0.1565   0.3871  -0.0430   0.0703  -0.1057   0.00    0.0
2026/01/15 02:55:00.000   22.434300359  114.335386334    60.6341   6   4   0.1442   0.1563   0.3867  -0.0430   0.0703  -0.1055   0.00    0.0
2026/01/15 02:55:30.000   22.434300328  114.335386335    60.6445   6   4   0.1439   0.1561   0.3862  -0.0430   0.0703  -0.1053   0.00    0.0
2026/01/15 02:56:00.000   22.434300296  114.335386335    60.6554   6   4   0.1437   0.1559   0.3858  -0.0430   0.0703  -0.1052   0.00    0.0
2026/01/15 02:56:30.000   22.434300259  114.335386338    60.6675   6   4   0.1435   0.1556   0.3852  -0.0429   0.0701  -0.1049   0.00    0.0
2026/01/15 02:57:00.000   22.434300222  114.335386340    60.6794   6   4   0.1433   0.1554   0.3846  -0.0428   0.0699  -0.1045   0.00    0.0
2026/01/15 02:57:30.000   22.434300185  114.335386339    60.6913   6   4   0.1430   0.1551   0.3840  -0.0427   0.0696  -0.1042   0.00    0.0
2026/01/15 02:58:00.000   22.434300149  114.335386339    60.7033   6   4   0.1428   0.1548   0.3834  -0.0426   0.0694  -0.1039   0.00    0.0
2026/01/15 02:58:30.000   22.434300116  114.335386340    60.7150   6   4   0.1426   0.1546   0.3828  -0.0425   0.0692  -0.1036   0.00    0.0
2026/01/15 02:59:00.000   22.434300084  114.335386341    60.7266   6   4   0.1423   0.1543   0.3823  -0.0424   0.0690  -0.1033   0.00    0.0
2026/01/15 02:59:30.000   22.434300052  114.335386339    60.7379   6   4   0.1421   0.1541   0.3817  -0.0423   0.0688  -0.1030   0.00    0.0
2026/01/15 03:00:00.000   22.434300019  114.335386332    60.7506   6   4   0.1419   0.1538   0.3811  -0.0422   0.0686  -0.1027   0.00    0.0
2026/01/15 03:00:30.000   22.434299986  114.335386325    60.7639   6   4   0.1416   0.1536   0.3805  -0.0421   0.0684  -0.1024   0.00    0.0
2026/01/15 03:01:00.000   22.434299953  114.335386319    60.7773   6   4   0.1414   0.1533   0.3799  -0.0420   0.0683  -0.1021   0.00    0.0
2026/01/15 03:01:30.000   22.434299920  114.335386314    60.7903   6   4   0.1412   0.1531   0.3793  -0.0420   0.0681  -0.1018   0.00    0.0
2026/01/15 03:02:00.000   22.434299885  114.335386311    60.8033   6   4   0.1409   0.1529   0.3787  -0.0419   0.0680  -0.1015   0.00    0.0
2026/01/15 03:02:30.000   22.434299847  114.335386306    60.8162   6   4   0.1407   0.1526   0.3781  -0.0418   0.0678  -0.1012   0.00    0.0
2026/01/15 03:03:00.000   22.434299809  114.335386300    60.8293   6   4   0.1405   0.1524   0.3775  -0.0417   0.0677  -0.1009   0.00    0.0
2026/01/15 03:03:30.000   22.434299772  114.335386293    60.8425   6   4   0.1402   0.1521   0.3769  -0.0416   0.0675  -0.1006   0.00    0.0
2026/01/15 03:04:00.000   22.434299737  114.335386286    60.8561   6   4   0.1400   0.1519   0.3763  -0.0415   0.0674  -0.1003   0.00    0.0
2026/01/15 03:04:30.000   22.434299701  114.335386277    60.8700   6   4   0.1398   0.1516   0.3757  -0.0414   0.0673  -0.1000   0.00    0.0
2026/01/15 03:05:00.000   22.434299665  114.335386268    60.8835   6   4   0.1395   0.1514   0.3751  -0.0414   0.0672  -0.0998   0.00    0.0
2026/01/15 03:05:30.000   22.434299630  114.335386259    60.8966   6   4   0.1393   0.1512   0.3745  -0.0413   0.0671  -0.0995   0.00    0.0
2026/01/15 03:06:00.000   22.434299595  114.335386251    60.9095   6   4   0.1391   0.1509   0.3739  -0.0412   0.0670  -0.0992   0.00    0.0
2026/01/15 03:06:30.000   22.434299560  114.335386242    60.9224   6   4   0.1389   0.1507   0.3733  -0.0411   0.0669  -0.0989   0.00    0.0
2026/01/15 03:07:00.000   22.434299525  114.335386231    60.9351   6   4   0.1387   0.1505   0.3727  -0.0410   0.0668  -0.0986   0.00    0.0
2026/01/15 03:07:30.000   22.434299491  114.335386216    60.9474   6   4   0.1384   0.1502   0.3722  -0.0410   0.0667  -0.0983   0.00    0.0
2026/01/15 03:08:00.000   22.434299456  114.335386200    60.9597   6   4   0.1382   0.1500   0.3716  -0.0409   0.0666  -0.0980   0.00    0.0
2026/01/15 03:08:30.000   22.434299420  114.335386182    60.9719   6   4   0.1380   0.1498   0.3710  -0.0408   0.0665  -0.0977   0.00    0.0
2026/01/15 03:09:00.000   22.434299383  114.335386165    60.9843   6   4   0.1378   0.1496   0.3704  -0.0407   0.0664  -0.0974   0.00    0.0
2026/01/15 03:09:30.000   22.434299347  114.335386148    60.9966   6   4   0.1376   0.1493   0.3698  -0.0407   0.0664  -0.0971   0.00    0.0
2026/01/15 03:10:00.000   22.434299314  114.335386130    61.0086   6   4   0.1374   0.1491   0.3692  -0.0406   0.0663  -0.0968   0.00    0.0
2026/01/15 03:10:30.000   22.434299282  114.335386109    61.0206   6   4   0.1371   0.1489   0.3686  -0.0405   0.0663  -0.0965   0.00    0.0
2026/01/15 03:11:00.000   22.434299250  114.335386088    61.0328   6   4   0.1369   0.1487   0.3681  -0.0405   0.0662  -0.0962   0.00    0.0
2026/01/15 03:11:30.000   22.434299218  114.335386067    61.0450   6   4   0.1367   0.1484   0.3675  -0.0404   0.0662  -0.0959   0.00    0.0
2026/01/15 03:12:00.000   22.434299185  114.335386047    61.0570   6   4   0.1365   0.1482   0.3669  -0.0403   0.0661  -0.0957   0.00    0.0
2026/01/15 03:12:30.000   22.434299150  114.335386027    61.0688   6   4   0.1363   0.1480   0.3663  -0.0402   0.0661  -0.0954   0.00    0.0
2026/01/15 03:13:00.000   22.434299116  114.335386010    61.0815   6   4   0.1361   0.1478   0.3658  -0.0401   0.0662  -0.0950   0.00    0.0
2026/01/15 03:13:30.000   22.434299082  114.335385995    61.0943   6   4   0.1359   0.1476   0.3653  -0.0400   0.0664  -0.0947   0.00    0.0
2026/01/15 03:14:00.000   22.434299047  114.335385981    61.1070   6   4   0.1357   0.1474   0.3648  -0.0399   0.0666  -0.0944   0.00    0.0
2026/01/15 03:14:30.000   22.434299012  114.335385967    61.1194   6   4   0.1355   0.1473   0.3643  -0.0398   0.0667  -0.0941   0.00    0.0
2026/01/15 03:15:00.000   22.434298977  114.335385954    61.1315   6   4   0.1353   0.1471   0.3638  -0.0397   0.0669  -0.0937   0.00    0.0
2026/01/15 03:15:30.000   22.434298943  114.335385942    61.1436   6   4   0.1351   0.1469   0.3633  -0.0396   0.0670  -0.0934   0.00    0.0
2026/01/15 03:16:00.000   22.434298909  114.335385931    61.1554   6   4   0.1349   0.1467   0.3628  -0.0395   0.0672  -0.0931   0.00    0.0
2026/01/15 11:24:00.000   22.434306533  114.335386106    63.6072   6   4   0.0841   0.0878   0.2091  -0.0281   0.0432  -0.0203   0.00    0.0
2026/01/15 11:24:30.000   22.434306521  114.335386104    63.6084   6   4   0.0841   0.0877   0.2090  -0.0281   0.0431  -0.0204   0.00    0.0
2026/01/15 11:25:00.000   22.434306508  114.335386103    63.6095   6   4   0.0840   0.0877   0.2089  -0.0281   0.0431  -0.0205   0.00    0.0
2026/01/15 11:25:30.000   22.434306495  114.335386102    63.6104   6   4   0.0840   0.0877   0.2088  -0.0280   0.0431  -0.0206   0.00    0.0
2026/01/15 11:26:00.000   22.434306482  114.335386101    63.6110   6   4   0.0839   0.0876   0.2088  -0.0280   0.0430  -0.0207   0.00    0.0
2026/01/15 11:26:30.000   22.434306469  114.335386099    63.6117   6   4   0.0839   0.0876   0.2087  -0.0280   0.0430  -0.0208   0.00    0.0
2026/01/15 11:27:00.000   22.434306456  114.335386097    63.6124   6   4   0.0839   0.0876   0.2086  -0.0280   0.0429  -0.0209   0.00    0.0
2026/01/15 11:27:30.000   22.434306442  114.335386095    63.6131   6   4   0.0838   0.0875   0.2085  -0.0280   0.0429  -0.0211   0.00    0.0
2026/01/15 11:28:00.000   22.434306427  114.335386094    63.6138   6   4   0.0838   0.0875   0.2084  -0.0279   0.0429  -0.0212   0.00    0.0
2026/01/15 11:28:30.000   22.434306412  114.335386092    63.6143   6   4   0.0837   0.0875   0.2084  -0.0279   0.0428  -0.0213   0.00    0.0
2026/01/15 11:29:00.000   22.434306395  114.335386091    63.6146   6   4   0.0837   0.0874   0.2083  -0.0279   0.0428  -0.0214   0.00    0.0
2026/01/15 11:29:30.000   22.434306378  114.335386089    63.6147   6   4   0.0837   0.0874   0.2082  -0.0279   0.0427  -0.0215   0.00    0.0
2026/01/15 11:30:00.000   22.434306362  114.335386087    63.6146   6   4   0.0836   0.0874   0.2081  -0.0279   0.0427  -0.0216   0.00    0.0
2026/01/15 11:30:30.000   22.434306346  114.335386085    63.6145   6   4   0.0836   0.0873   0.2081  -0.0278   0.0427  -0.0217   0.00    0.0
2026/01/15 11:31:00.000   22.434306331  114.335386082    63.6146   6   4   0.0835   0.0873   0.2080  -0.0278   0.0426  -0.0218   0.00    0.0
2026/01/15 11:31:30.000   22.434306316  114.335386080    63.6149   6   4   0.0835   0.0873   0.2079  -0.0278   0.0426  -0.0220   0.00    0.0
2026/01/15 11:32:00.000   22.434306300  114.335386078    63.6153   6   4   0.0835   0.0872   0.2078  -0.0278   0.0425  -0.0221   0.00    0.0
2026/01/15 11:32:30.000   22.434306284  114.335386077    63.6156   6   4   0.0834   0.0872   0.2078  -0.0278   0.0425  -0.0222   0.00    0.0
2026/01/15 11:33:00.000   22.434306268  114.335386077    63.6158   6   4   0.0834   0.0871   0.2077  -0.0277   0.0425  -0.0223   0.00    0.0
2026/01/15 11:33:30.000   22.434306252  114.335386078    63.6160   6   4   0.0833   0.0871   0.2076  -0.0277   0.0424  -0.0224   0.00    0.0
2026/01/15 11:34:00.000   22.434306236  114.335386077    63.6161   6   4   0.0833   0.0871   0.2075  -0.0277   0.0424  -0.0225   0.00    0.0
2026/01/15 11:34:30.000   22.434306220  114.335386075    63.6160   6   4   0.0833   0.0870   0.2075  -0.0277   0.0423  -0.0226   0.00    0.0
2026/01/15 11:35:00.000   22.434306202  114.335386072    63.6161   6   4   0.0832   0.0870   0.2074  -0.0277   0.0423  -0.0227   0.00    0.0
2026/01/15 11:35:30.000   22.434306183  114.335386069    63.6162   6   4   0.0832   0.0870   0.2073  -0.0276   0.0423  -0.0228   0.00    0.0
2026/01/15 11:36:00.000   22.434306164  114.335386066    63.6162   6   4   0.0831   0.0869   0.2073  -0.0276   0.0422  -0.0229   0.00    0.0
